{"type":"FeatureCollection","features":[{"type": "Feature", "id": "I9rqdVC6vajhzZdiPE5KhWycW7k=", "properties": {"ref": "zT5m0WisnrUn5SFo-mtYNg==", "@spider": "aldi_us", "addr:street": "1405 Lincoln Street", "addr:city": "Rhinelander", "addr:state": "WI", "addr:postcode": "54501", "name": "ALDI", "opening_hours": "Sa 09:00-20:00; Su-Mo 09:00-20:00; Tu 08:30-20:00; We 09:00-20:00; Th 08:30-20:00; Fr 09:00-20:00; ", "brand": "Aldi", "brand:wikidata": "Q125054"}, "geometry": {"type": "Point", "coordinates": [-89.39056, 45.6337]}},
{"type": "Feature", "id": "Fh88_tbrVIeVf3nBmWlRk8C7YJk=", "properties": {"ref": "ot8nkA6mrhvj4Q-e1B0EfA==", "@spider": "aldi_us", "addr:street": "6035 Porter Road", "addr:city": "Niagara Falls", "addr:state": "NY", "addr:postcode": "14305", "name": "ALDI", "opening_hours": "Sa 09:00-20:00; Su-Mo 09:00-20:00; Tu 08:30-20:00; We 09:00-20:00; Th 08:30-20:00; Fr 09:00-20:00; ", "brand": "Aldi", "brand:wikidata": "Q125054"}, "geometry": {"type": "Point", "coordinates": [-78.99273, 43.10657]}},
{"type": "Feature", "id": "M7eOVxDnipBMGky7sNgfRDJPsK8=", "properties": {"ref": "QCfDD3TZk9iiw9TCk6G6Uw==", "@spider": "aldi_us", "addr:street": "5312 North Navarro Street", "addr:city": "Victoria", "addr:state": "TX", "addr:postcode": "77904", "name": "ALDI", "opening_hours": "Sa 09:00-21:00; Su-Mo 09:00-21:00; Tu 08:30-21:00; We 09:00-21:00; Th 08:30-21:00; Fr 09:00-21:00; ", "brand": "Aldi", "brand:wikidata": "Q125054"}, "geometry": {"type": "Point", "coordinates": [-96.9985, 28.8448]}},
{"type": "Feature", "id": "CVWJVyNqszbDUbsLhtgBaelLkrE=", "properties": {"ref": "_nLiLAKmcgiIlHx2A5-WSw==", "@spider": "aldi_us", "addr:street": "519 W. Commerce Street", "addr:city": "Brownwood", "addr:state": "TX", "addr:postcode": "76801", "name": "ALDI", "opening_hours": "Sa 09:00-21:00; Su-Mo 09:00-21:00; Tu 08:30-21:00; We 09:00-21:00; Th 08:30-21:00; Fr 09:00-21:00; ", "brand": "Aldi", "brand:wikidata": "Q125054"}, "geometry": {"type": "Point", "coordinates": [-98.98587, 31.72918]}},
{"type": "Feature", "id": "SSB-B1460b37FCyEJHzMlGB9t94=", "properties": {"ref": "k5HefUMzLnGo8A0ugqQ1sA==", "@spider": "aldi_us", "addr:street": "720 Cabela Drive", "addr:city": "Bristol", "addr:state": "VA", "addr:postcode": "24202", "name": "ALDI", "opening_hours": "Sa 09:00-20:00; Su-Mo 09:00-20:00; Tu 08:30-20:00; We 09:00-20:00; Th 08:30-20:00; Fr 09:00-20:00; ", "brand": "Aldi", "brand:wikidata": "Q125054"}, "geometry": {"type": "Point", "coordinates": [-82.14402, 36.63038]}},
{"type": "Feature", "id": "dcmE-WCW26BqpKSVr_ZtdeVL4Rg=", "properties": {"ref": "0pk5Yakd8aoQvD2Ohp1SJg==", "@spider": "aldi_us", "addr:street": "24 S Hwy 1223", "addr:city": "Corbin", "addr:state": "KY", "addr:postcode": "40701", "name": "ALDI", "opening_hours": "Sa 09:00-20:00; Su-Mo 09:00-20:00; Tu 08:30-20:00; We 09:00-20:00; Th 08:30-20:00; Fr 09:00-20:00; ", "brand": "Aldi", "brand:wikidata": "Q125054"}, "geometry": {"type": "Point", "coordinates": [-84.09073, 36.97039]}},
{"type": "Feature", "id": "lToOrreEYmEql8mFTBF4f11kZG8=", "properties": {"ref": "VMaTuEkcDhNFvWvV7CZJGw==", "@spider": "aldi_us", "addr:street": "2265 N Franklin Street", "addr:city": "Christiansburg", "addr:state": "VA", "addr:postcode": "24073", "name": "ALDI", "opening_hours": "Sa 09:00-20:00; Su-Mo 09:00-20:00; Tu 08:30-20:00; We 09:00-20:00; Th 08:30-20:00; Fr 09:00-20:00; ", "brand": "Aldi", "brand:wikidata": "Q125054"}, "geometry": {"type": "Point", "coordinates": [-80.42069, 37.16068]}},
{"type": "Feature", "id": "0-_yyeBhI1dJt6GOn7hsJefEwTM=", "properties": {"ref": "atvH_qtIyBQBtWz20DlDHA==", "@spider": "aldi_us", "addr:street": "21 By Pass Plaza Shpg Ctr", "addr:city": "Beckley", "addr:state": "WV", "addr:postcode": "25801", "name": "ALDI", "opening_hours": "Sa 09:00-20:00; Su-Mo 09:00-20:00; Tu 08:30-20:00; We 09:00-20:00; Th 08:30-20:00; Fr 09:00-20:00; ", "brand": "Aldi", "brand:wikidata": "Q125054"}, "geometry": {"type": "Point", "coordinates": [-81.18364, 37.80884]}},
{"type": "Feature", "id": "ST-97DZnpFcPDXrngTnV5WCqmGM=", "properties": {"ref": "2oYUJP8tJ847ZX0CzxgWUQ==", "@spider": "aldi_us", "addr:street": "2520 3rd Avenue North", "addr:city": "Escanaba", "addr:state": "MI", "addr:postcode": "49829", "name": "ALDI", "opening_hours": "Sa 09:00-20:00; Su-Mo 09:00-20:00; Tu 08:30-20:00; We 09:00-20:00; Th 08:30-20:00; Fr 09:00-20:00; ", "brand": "Aldi", "brand:wikidata": "Q125054"}, "geometry": {"type": "Point", "coordinates": [-87.08396, 45.74964]}},
{"type": "Feature", "id": "MdVsXdfdcgnmAMFmNVIRonyLDR0=", "properties": {"ref": "iixZlxfmCLeJKivqjxPnJg==", "@spider": "aldi_us", "addr:street": "2130 Anderson Rd", "addr:city": "Petoskey", "addr:state": "MI", "addr:postcode": "49770", "name": "ALDI", "opening_hours": "Sa 09:00-20:00; Su-Mo 09:00-20:00; Tu 08:30-20:00; We 09:00-20:00; Th 08:30-20:00; Fr 09:00-20:00; ", "brand": "Aldi", "brand:wikidata": "Q125054"}, "geometry": {"type": "Point", "coordinates": [-84.97147, 45.34735]}},
{"type": "Feature", "id": "ymtrgLwuFrUvBJfDA0GOwq2bBEU=", "properties": {"ref": "w9F9S_TalkelJ3iSM5zwvA==", "@spider": "aldi_us", "addr:street": "40 US Route 7 South", "addr:city": "Rutland", "addr:state": "VT", "addr:postcode": "05701", "name": "ALDI", "opening_hours": "Sa 09:00-20:00; Su-Fr 09:00-20:00; ", "brand": "Aldi", "brand:wikidata": "Q125054"}, "geometry": {"type": "Point", "coordinates": [-72.97007, 43.58993]}},
{"type": "Feature", "id": "-krPsHaczfXJlgDNS6YNco_o9sU=", "properties": {"ref": "vD0SewN9TGEQ1bWhvouKTw==", "@spider": "aldi_us", "addr:street": "2883 Cook Rd.", "addr:city": "West Branch", "addr:state": "MI", "addr:postcode": "48661", "name": "ALDI", "opening_hours": "Sa 09:00-20:00; Su-Mo 09:00-20:00; Tu 08:30-20:00; We 09:00-20:00; Th 08:30-20:00; Fr 09:00-20:00; ", "brand": "Aldi", "brand:wikidata": "Q125054"}, "geometry": {"type": "Point", "coordinates": [-84.22476, 44.25328]}},
{"type": "Feature", "id": "VG1zf7nsAEVDiZ0zgMG8sK829EI=", "properties": {"ref": "ev6rSO85f7QGEILV4JvxPQ==", "@spider": "aldi_us", "addr:street": "2331 Industrial Rd.", "addr:city": "Emporia", "addr:state": "KS", "addr:postcode": "66801", "name": "ALDI", "opening_hours": "Sa 09:00-20:00; Su-Fr 09:00-20:00; ", "brand": "Aldi", "brand:wikidata": "Q125054"}, "geometry": {"type": "Point", "coordinates": [-96.21708, 38.42625]}},
{"type": "Feature", "id": "VbjYA2DMwg9CAxyhEwkgPVxBmXA=", "properties": {"ref": "F9LRtUhgJTx-1RhAtrDClg==", "@spider": "aldi_us", "addr:street": "2553 SE Washington Blvd", "addr:city": "Bartlesville", "addr:state": "OK", "addr:postcode": "74006", "name": "ALDI", "opening_hours": "Sa 09:00-20:00; Su-Fr 09:00-20:00; ", "brand": "Aldi", "brand:wikidata": "Q125054"}, "geometry": {"type": "Point", "coordinates": [-95.93626, 36.7115]}},
{"type": "Feature", "id": "Go7Iss0FBf_Pge5LsjBEvailgDk=", "properties": {"ref": "KdVhjDLj762B9Fk2zSW3Yw==", "@spider": "aldi_us", "addr:street": "2900 New Life Way", "addr:city": "Sebring", "addr:state": "FL", "addr:postcode": "33870", "name": "ALDI", "opening_hours": "Sa 09:00-20:00; Su-Mo 09:00-20:00; Tu 08:30-20:00; We 09:00-20:00; Th 08:30-20:00; Fr 09:00-20:00; ", "brand": "Aldi", "brand:wikidata": "Q125054"}, "geometry": {"type": "Point", "coordinates": [-81.49361, 27.5075]}},
{"type": "Feature", "id": "TNxIkfDu_8J8xoZ9BYi4GOK36Yk=", "properties": {"ref": "zspFOiRWcdUPk53h1VBg6w==", "@spider": "aldi_us", "addr:street": "601 North Westwood", "addr:city": "Poplar Bluff", "addr:state": "MO", "addr:postcode": "63901", "name": "ALDI", "opening_hours": "Sa 09:00-20:00; Su-Mo 09:00-20:00; Tu 08:30-20:00; We 09:00-20:00; Th 08:30-20:00; Fr 09:00-20:00; ", "brand": "Aldi", "brand:wikidata": "Q125054"}, "geometry": {"type": "Point", "coordinates": [-90.4117, 36.7625]}},
{"type": "Feature", "id": "Tq4VUBl9ZHtu7h2tPzuGaY0_gtE=", "properties": {"ref": "LMU2fKMRTZ-nrIti1AxXfg==", "@spider": "aldi_us", "addr:street": "975 W. College Ave.", "addr:city": "Marshall", "addr:state": "MO", "addr:postcode": "65340", "name": "ALDI", "opening_hours": "Sa 09:00-20:00; Su-Fr 09:00-20:00; ", "brand": "Aldi", "brand:wikidata": "Q125054"}, "geometry": {"type": "Point", "coordinates": [-93.21241, 39.11013]}},
{"type": "Feature", "id": "7Ull5cMPEuLWvmz7dOj6zyQUjKA=", "properties": {"ref": "oI7oviOyzU6qeo8G_5zyKQ==", "@spider": "aldi_us", "addr:street": "215 South Main", "addr:city": "Centerville", "addr:state": "IA", "addr:postcode": "52544", "name": "ALDI", "opening_hours": "Sa 09:00-20:00; Su-Mo 09:00-20:00; Tu 08:30-20:00; We 09:00-20:00; Th 08:30-20:00; Fr 09:00-20:00; ", "brand": "Aldi", "brand:wikidata": "Q125054"}, "geometry": {"type": "Point", "coordinates": [-92.8742, 40.7317]}},
{"type": "Feature", "id": "z_P1ONbl0sUEBK0IjStQRw1En7c=", "properties": {"ref": "L6I-VUU7TM-MahGKYNxGTA==", "@spider": "aldi_us", "addr:street": "2400 Frederick Road", "addr:city": "Opelika", "addr:state": "AL", "addr:postcode": "36801", "name": "ALDI", "opening_hours": "Sa 09:00-20:00; Su-Fr 09:00-20:00; ", "brand": "Aldi", "brand:wikidata": "Q125054"}, "geometry": {"type": "Point", "coordinates": [-85.41187, 32.62316]}},
{"type": "Feature", "id": "Hmq-VniTH2ul8eXusyJG94T3od0=", "properties": {"ref": "ac7YuouB6nUXfEk8d6LElQ==", "@spider": "aldi_us", "addr:street": "427 New Franklin Road", "addr:city": "LaGrange", "addr:state": "GA", "addr:postcode": "30240", "name": "ALDI", "opening_hours": "Sa 09:00-20:00; Su-Fr 09:00-20:00; ", "brand": "Aldi", "brand:wikidata": "Q125054"}, "geometry": {"type": "Point", "coordinates": [-85.02935, 33.05148]}},
{"type": "Feature", "id": "Y6_leIetWn0S0Oa78_tiqpyQCbk=", "properties": {"ref": "jfvjiM7RrDsu10aaRKb4gA==", "@spider": "aldi_us", "addr:street": "1702 Blanding Blvd.", "addr:city": "Middleburg", "addr:state": "FL", "addr:postcode": "32068", "name": "ALDI", "opening_hours": "Sa 09:00-20:00; Su-Mo 09:00-20:00; Tu 08:30-20:00; We 09:00-20:00; Th 08:30-20:00; Fr 09:00-20:00; ", "brand": "Aldi", "brand:wikidata": "Q125054"}, "geometry": {"type": "Point", "coordinates": [-81.82329, 30.10889]}},
{"type": "Feature", "id": "JoYNUQ5W8BKvgUuDSLJiW2ggwFw=", "properties": {"ref": "8d5xHNtA86uZ_aHWnckrzQ==", "@spider": "aldi_us", "addr:street": "2016 W US Highway 90", "addr:city": "Lake City", "addr:state": "FL", "addr:postcode": "32055", "name": "ALDI", "opening_hours": "Sa 09:00-20:00; Su-Mo 09:00-20:00; Tu 08:30-20:00; We 09:00-20:00; Th 08:30-20:00; Fr 09:00-20:00; ", "brand": "Aldi", "brand:wikidata": "Q125054"}, "geometry": {"type": "Point", "coordinates": [-82.66547, 30.1786]}},
{"type": "Feature", "id": "3isXDC8eq8LNZJPH9Rdcfg0UxoY=", "properties": {"ref": "l3MBSxST6Q0qjvBcoRuwPw==", "@spider": "aldi_us", "addr:street": "1916 Mrn Mt Gilead Rd", "addr:city": "Marion", "addr:state": "OH", "addr:postcode": "43302", "name": "ALDI", "opening_hours": "Sa 09:00-20:00; Su-Mo 09:00-20:00; Tu 08:30-20:00; We 09:00-20:00; Th 08:30-20:00; Fr 09:00-20:00; ", "brand": "Aldi", "brand:wikidata": "Q125054"}, "geometry": {"type": "Point", "coordinates": [-83.07874, 40.58234]}},
{"type": "Feature", "id": "7v_hd_zTVsK8YbWOorH57UyWmvg=", "properties": {"ref": "zTAzmVB_8_OceHvIivJu7Q==", "@spider": "aldi_us", "addr:street": "1075 N Bridge Street", "addr:city": "Chillicothe", "addr:state": "OH", "addr:postcode": "45601", "name": "ALDI", "opening_hours": "Sa 09:00-20:00; Su-Mo 09:00-20:00; Tu 08:30-20:00; We 09:00-20:00; Th 08:30-20:00; Fr 09:00-20:00; ", "brand": "Aldi", "brand:wikidata": "Q125054"}, "geometry": {"type": "Point", "coordinates": [-82.97502, 39.35797]}},
{"type": "Feature", "id": "t_V0fUl_9rwtawCXDnA37dXef2w=", "properties": {"ref": "FY-wHcfyT8abJfgK063Z0w==", "@spider": "aldi_us", "addr:street": "1521 Hershberger Road NW", "addr:city": "Roanoke", "addr:state": "VA", "addr:postcode": "24012", "name": "ALDI", "opening_hours": "Sa 09:00-20:00; Su-Mo 09:00-20:00; Tu 08:30-20:00; We 09:00-20:00; Th 08:30-20:00; Fr 09:00-20:00; ", "brand": "Aldi", "brand:wikidata": "Q125054"}, "geometry": {"type": "Point", "coordinates": [-79.96137, 37.31625]}},
{"type": "Feature", "id": "iTv33GYScadDpYSI2Kzz0wkOP4k=", "properties": {"ref": "biq1CHYzBYTlHNDupbP5tQ==", "@spider": "aldi_us", "addr:street": "2617 Lakeside Dr.", "addr:city": "Lynchburg", "addr:state": "VA", "addr:postcode": "24501", "name": "ALDI", "opening_hours": "Sa 08:00-21:00; Su-Fr 08:00-21:00; ", "brand": "Aldi", "brand:wikidata": "Q125054"}, "geometry": {"type": "Point", "coordinates": [-79.22742, 37.39551]}},
{"type": "Feature", "id": "obg8sU080jb9owKLwPEHs61HQDA=", "properties": {"ref": "5Urk5tD-CvlGhV7C_aGPbg==", "@spider": "aldi_us", "addr:street": "388 Commonwealth Blvd. West", "addr:city": "Martinsville", "addr:state": "VA", "addr:postcode": "24112", "name": "ALDI", "opening_hours": "Sa 09:00-20:00; Su-Mo 09:00-20:00; Tu 08:30-20:00; We 09:00-20:00; Th 08:30-20:00; Fr 09:00-20:00; ", "brand": "Aldi", "brand:wikidata": "Q125054"}, "geometry": {"type": "Point", "coordinates": [-79.89117, 36.69821]}},
{"type": "Feature", "id": "Dv9fG5rqGt9joet51duSrWj3wYo=", "properties": {"ref": "2HcxcsRD36vtjvuap5HOIg==", "@spider": "aldi_us", "addr:street": "289 Loudon Road", "addr:city": "Concord", "addr:state": "NH", "addr:postcode": "03301", "name": "ALDI", "opening_hours": "Sa 09:00-20:00; Su-Fr 09:00-20:00; ", "brand": "Aldi", "brand:wikidata": "Q125054"}, "geometry": {"type": "Point", "coordinates": [-71.48712, 43.22606]}},
{"type": "Feature", "id": "B9R9pyviHnO7Q76pM4crURRoeHo=", "properties": {"ref": "XMBZfzvRGRI4BJiSCDV-Ng==", "@spider": "aldi_us", "addr:street": "2595 Wilmont Drive", "addr:city": "Montoursville", "addr:state": "PA", "addr:postcode": "17754", "name": "ALDI", "opening_hours": "Sa 09:00-20:00; Su-Fr 09:00-20:00; ", "brand": "Aldi", "brand:wikidata": "Q125054"}, "geometry": {"type": "Point", "coordinates": [-76.95271, 41.24647]}},
{"type": "Feature", "id": "2VH3ERibPF_mXFh37_fqmhtFOww=", "properties": {"ref": "oPgkl8vm7wLiByKe2pdWgw==", "@spider": "aldi_us", "addr:street": "4056 13th Street", "addr:city": "St. Cloud", "addr:state": "FL", "addr:postcode": "34769", "name": "ALDI", "opening_hours": "Sa 09:00-20:00; Su-Mo 09:00-20:00; Tu 08:30-20:00; We 09:00-20:00; Th 08:30-20:00; Fr 09:00-20:00; ", "brand": "Aldi", "brand:wikidata": "Q125054"}, "geometry": {"type": "Point", "coordinates": [-81.3118, 28.2524]}},
{"type": "Feature", "id": "XTA2BP63bDFCFms8hoWv4xxFBg4=", "properties": {"ref": "okybKsX8j1SGxFKUWHQibA==", "@spider": "aldi_us", "addr:street": "1400 E Irlo Bronson Mem Hwy", "addr:city": "St. Cloud", "addr:state": "FL", "addr:postcode": "34771", "name": "ALDI", "opening_hours": "Sa 09:00-20:00; Su-Mo 09:00-20:00; Tu 08:30-20:00; We 09:00-20:00; Th 08:30-20:00; Fr 09:00-20:00; ", "brand": "Aldi", "brand:wikidata": "Q125054"}, "geometry": {"type": "Point", "coordinates": [-81.25465, 28.24536]}},
{"type": "Feature", "id": "DjNDOj93m-jPrQknjTbl6n_AhYM=", "properties": {"ref": "7qzaYbB8WHMu5c4ym3BLvw==", "@spider": "aldi_us", "addr:street": "864 Cypress Parkway", "addr:city": "Kissimmee", "addr:state": "FL", "addr:postcode": "34759", "name": "ALDI", "opening_hours": "Sa 09:00-20:00; Su-Mo 09:00-20:00; Tu 08:30-20:00; We 09:00-20:00; Th 08:30-20:00; Fr 09:00-20:00; ", "brand": "Aldi", "brand:wikidata": "Q125054"}, "geometry": {"type": "Point", "coordinates": [-81.44899, 28.14632]}},
{"type": "Feature", "id": "PriwwJWXpepEkfhmBQ-EbiLQSsg=", "properties": {"ref": "JXGoLwwO2VBCnkBxrFDdLw==", "@spider": "aldi_us", "addr:street": "1040 Buenaventura Blvd.", "addr:city": "Kissimmee", "addr:state": "FL", "addr:postcode": "34743", "name": "ALDI", "opening_hours": "Sa 09:00-20:00; Su-Mo 09:00-20:00; Tu 08:30-20:00; We 09:00-20:00; Th 08:30-20:00; Fr 09:00-20:00; ", "brand": "Aldi", "brand:wikidata": "Q125054"}, "geometry": {"type": "Point", "coordinates": [-81.36406, 28.34726]}},
{"type": "Feature", "id": "SGI9ocvIj8xP6Pagq1o91hcxKUA=", "properties": {"ref": "c7EeRp5FFRzTMndk763Lhw==", "@spider": "aldi_us", "addr:street": "4425 W. Vine St.", "addr:city": "Kissimmee", "addr:state": "FL", "addr:postcode": "34746", "name": "ALDI", "opening_hours": "Sa 09:00-20:00; Su-Mo 09:00-20:00; Tu 08:30-20:00; We 09:00-20:00; Th 08:30-20:00; Fr 09:00-20:00; ", "brand": "Aldi", "brand:wikidata": "Q125054"}, "geometry": {"type": "Point", "coordinates": [-81.45884, 28.30481]}},
{"type": "Feature", "id": "9n13H-9wjAJgPgso6kIkjR9QiNE=", "properties": {"ref": "GKYYqMWbJgLh28mJUHAnxg==", "@spider": "aldi_us", "addr:street": "1001 East Main Street", "addr:city": "Bradford", "addr:state": "PA", "addr:postcode": "16701", "name": "ALDI", "opening_hours": "Sa 09:00-20:00; Su-Mo 09:00-20:00; Tu 08:30-20:00; We 09:00-20:00; Th 08:30-20:00; Fr 09:00-20:00; ", "brand": "Aldi", "brand:wikidata": "Q125054"}, "geometry": {"type": "Point", "coordinates": [-78.67886, 41.97952]}},
{"type": "Feature", "id": "SQlZIBfxFOL-BP--xI0Mc0mEPNE=", "properties": {"ref": "imZp7JC_GzLmKo8EQZkedQ==", "@spider": "aldi_us", "addr:street": "1400 N. Wickham Rd", "addr:city": "Melbourne", "addr:state": "FL", "addr:postcode": "32935", "name": "ALDI", "opening_hours": "Sa 09:00-20:00; Su-Mo 09:00-20:00; Tu 08:30-20:00; We 09:00-20:00; Th 08:30-20:00; Fr 09:00-20:00; ", "brand": "Aldi", "brand:wikidata": "Q125054"}, "geometry": {"type": "Point", "coordinates": [-80.67288, 28.1301]}},
{"type": "Feature", "id": "90Qk9Kn9AAzh-RiripGENiZ3_Os=", "properties": {"ref": "XHKB_H6FHnSgkZxI4x7M2g==", "@spider": "aldi_us", "addr:street": "5700 Shaffer Road", "addr:city": "Dubois", "addr:state": "PA", "addr:postcode": "15801", "name": "ALDI", "opening_hours": "Sa 09:00-20:00; Su-Mo 09:00-20:00; Tu 08:30-20:00; We 09:00-20:00; Th 08:30-20:00; Fr 09:00-20:00; ", "brand": "Aldi", "brand:wikidata": "Q125054"}, "geometry": {"type": "Point", "coordinates": [-78.72681, 41.12367]}},
{"type": "Feature", "id": "faqESghVBXMsFiqxV3XvTmQCZWQ=", "properties": {"ref": "k8T0_bSM6vjdGzaPuhIW7g==", "@spider": "aldi_us", "addr:street": "3917 Market Street", "addr:city": "Warren", "addr:state": "PA", "addr:postcode": "16365", "name": "ALDI", "opening_hours": "Sa 09:00-20:00; Su-Mo 09:00-20:00; Tu 08:30-20:00; We 09:00-20:00; Th 08:30-20:00; Fr 09:00-20:00; ", "brand": "Aldi", "brand:wikidata": "Q125054"}, "geometry": {"type": "Point", "coordinates": [-79.14989, 41.89583]}},
{"type": "Feature", "id": "hHXPRi1wQZXDhcS28DYHBnyELEU=", "properties": {"ref": "DGoeEbrxHYTf_4RFhaiYuA==", "@spider": "aldi_us", "addr:street": "22827 Route 68", "addr:city": "Clarion", "addr:state": "PA", "addr:postcode": "16214", "name": "ALDI", "opening_hours": "Sa 09:00-20:00; Su-Mo 09:00-20:00; Tu 08:30-20:00; We 09:00-20:00; Th 08:30-20:00; Fr 09:00-20:00; ", "brand": "Aldi", "brand:wikidata": "Q125054"}, "geometry": {"type": "Point", "coordinates": [-79.39238, 41.19713]}},
{"type": "Feature", "id": "am9nyyDThDvvVp7YTk1DFthf4PI=", "properties": {"ref": "k6BYL1W9axNk0G8r8si_Fw==", "@spider": "aldi_us", "addr:street": "2850 SW Brighton Street", "addr:city": "Port St. Lucie", "addr:state": "FL", "addr:postcode": "34953", "name": "ALDI", "opening_hours": "Sa 09:00-20:00; Su-Mo 09:00-20:00; Tu 08:30-20:00; We 09:00-20:00; Th 08:30-20:00; Fr 09:00-20:00; ", "brand": "Aldi", "brand:wikidata": "Q125054"}, "geometry": {"type": "Point", "coordinates": [-80.37749, 27.25833]}},
{"type": "Feature", "id": "dawkFw9jgb88S-3hNnxwk8ZYK-Y=", "properties": {"ref": "rP3r1Hujo2Zs9m_JHqfF1Q==", "@spider": "aldi_us", "addr:street": "6460 N. Wickham Road", "addr:city": "Melbourne", "addr:state": "FL", "addr:postcode": "32940", "name": "ALDI", "opening_hours": "Sa 09:00-20:00; Su-Mo 09:00-20:00; Tu 08:30-20:00; We 09:00-20:00; Th 08:30-20:00; Fr 09:00-20:00; ", "brand": "Aldi", "brand:wikidata": "Q125054"}, "geometry": {"type": "Point", "coordinates": [-80.67605, 28.2177]}},
{"type": "Feature", "id": "sp04QVF6GASqTPJrCMOYNTCLHlk=", "properties": {"ref": "PAGjZG8-SuRpT_rhpqntOg==", "@spider": "aldi_us", "addr:street": "628 Barnes Blvd.", "addr:city": "Rockledge", "addr:state": "FL", "addr:postcode": "32955", "name": "ALDI", "opening_hours": "Sa 09:00-20:00; Su-Mo 09:00-20:00; Tu 08:30-20:00; We 09:00-20:00; Th 08:30-20:00; Fr 09:00-20:00; ", "brand": "Aldi", "brand:wikidata": "Q125054"}, "geometry": {"type": "Point", "coordinates": [-80.72363, 28.29656]}},
{"type": "Feature", "id": "lBf32wxXer_oe6JDKz_O5YXYvSw=", "properties": {"ref": "-4XQ3zkdJB8JAzLKpuCH1g==", "@spider": "aldi_us", "addr:street": "770 SW St. Lucie West Blvd", "addr:city": "Port St. Lucie", "addr:state": "FL", "addr:postcode": "34986", "name": "ALDI", "opening_hours": "Sa 09:00-20:00; Su-Mo 09:00-20:00; Tu 08:30-20:00; We 09:00-20:00; Th 08:30-20:00; Fr 09:00-20:00; ", "brand": "Aldi", "brand:wikidata": "Q125054"}, "geometry": {"type": "Point", "coordinates": [-80.37833, 27.3171]}},
{"type": "Feature", "id": "dHIdJ9dMEbDPM_iLEV8rwayjnaY=", "properties": {"ref": "7_Xdo-60zkuP2zlj5shklg==", "@spider": "aldi_us", "addr:street": "4300 NW Federal Highway", "addr:city": "Jensen Beach", "addr:state": "FL", "addr:postcode": "34957", "name": "ALDI", "opening_hours": "Sa 09:00-20:00; Su-Mo 09:00-20:00; Tu 08:30-20:00; We 09:00-20:00; Th 08:30-20:00; Fr 09:00-20:00; ", "brand": "Aldi", "brand:wikidata": "Q125054"}, "geometry": {"type": "Point", "coordinates": [-80.28136, 27.25752]}},
{"type": "Feature", "id": "N0ySEQhDvKwhDaRin0AcRKRoCQM=", "properties": {"ref": "bbWlFN2WKRL_iZuCmF5PDA==", "@spider": "aldi_us", "addr:street": "812 N. Nova Rd", "addr:city": "Daytona Beach", "addr:state": "FL", "addr:postcode": "32117", "name": "ALDI", "opening_hours": "Sa 09:00-20:00; Su-Mo 09:00-20:00; Tu 08:30-20:00; We 09:00-20:00; Th 08:30-20:00; Fr 09:00-20:00; ", "brand": "Aldi", "brand:wikidata": "Q125054"}, "geometry": {"type": "Point", "coordinates": [-81.04972, 29.21967]}},
{"type": "Feature", "id": "q5m5cxebF-Jsya-UiHxXmRZrj-U=", "properties": {"ref": "rLgxqGn7HR8XUBbMJJ1vIg==", "@spider": "aldi_us", "addr:street": "1106 Beville Road", "addr:city": "Daytona Beach", "addr:state": "FL", "addr:postcode": "32114", "name": "ALDI", "opening_hours": "Sa 09:00-20:00; Su-Mo 09:00-20:00; Tu 08:30-20:00; We 09:00-20:00; Th 08:30-20:00; Fr 09:00-20:00; ", "brand": "Aldi", "brand:wikidata": "Q125054"}, "geometry": {"type": "Point", "coordinates": [-81.03038, 29.17541]}},
{"type": "Feature", "id": "EGN5m2_vD-BOE3I843fus2pZyRI=", "properties": {"ref": "7YvxjCcwV7vNhIGUhuu2VA==", "@spider": "aldi_us", "addr:street": "1260 W. Granada Blvd.", "addr:city": "Ormond Beach", "addr:state": "FL", "addr:postcode": "32174", "name": "ALDI", "opening_hours": "Sa 09:00-20:00; Su-Mo 09:00-20:00; Tu 08:30-20:00; We 09:00-20:00; Th 08:30-20:00; Fr 09:00-20:00; ", "brand": "Aldi", "brand:wikidata": "Q125054"}, "geometry": {"type": "Point", "coordinates": [-81.10419, 29.26489]}},
{"type": "Feature", "id": "EWULYEyUO83ptT3JiZoqSasFHz0=", "properties": {"ref": "EjBZp0kjqjP29SBd57jeAA==", "@spider": "aldi_us", "addr:street": "2609 Clearlake Rd", "addr:city": "Cocoa", "addr:state": "FL", "addr:postcode": "32922", "name": "ALDI", "opening_hours": "Sa 09:00-20:00; Su-Mo 09:00-20:00; Tu 08:30-20:00; We 09:00-20:00; Th 08:30-20:00; Fr 09:00-20:00; ", "brand": "Aldi", "brand:wikidata": "Q125054"}, "geometry": {"type": "Point", "coordinates": [-80.75575, 28.39373]}},
{"type": "Feature", "id": "AxZVjM0vy-ZZJ3NwY2bO9qDi04k=", "properties": {"ref": "aBnt9g-np9OeyC1PPhBDhg==", "@spider": "aldi_us", "addr:street": "1000 E. Prospect Ave.", "addr:city": "Ponca City", "addr:state": "OK", "addr:postcode": "74601", "name": "ALDI", "opening_hours": "Sa 09:00-21:00; Su-Mo 09:00-21:00; Tu 08:30-21:00; We 09:00-21:00; Th 08:30-21:00; Fr 09:00-21:00; ", "brand": "Aldi", "brand:wikidata": "Q125054"}, "geometry": {"type": "Point", "coordinates": [-97.08328, 36.73871]}},
{"type": "Feature", "id": "IzpyCcQ0Qt4O76FEvJHl-KiNMpM=", "properties": {"ref": "xFj9erHzpE57gUSPV2RJxQ==", "@spider": "aldi_us", "addr:street": "1450 N Courtenay Pkwy", "addr:city": "Merritt Island", "addr:state": "FL", "addr:postcode": "32953", "name": "ALDI", "opening_hours": "Sa 09:00-20:00; Su-Mo 09:00-20:00; Tu 08:30-20:00; We 09:00-20:00; Th 08:30-20:00; Fr 09:00-20:00; ", "brand": "Aldi", "brand:wikidata": "Q125054"}, "geometry": {"type": "Point", "coordinates": [-80.70153, 28.38289]}},
{"type": "Feature", "id": "f6dUKX2RXX7ZEnwVx0li_jSZ8zU=", "properties": {"ref": "YD4cE7AEaVgg4-RVroUkyQ==", "@spider": "aldi_us", "addr:street": "780 E. Merritt Island Cswy", "addr:city": "Merritt Island", "addr:state": "FL", "addr:postcode": "32952", "name": "ALDI", "opening_hours": "Sa 09:00-20:00; Su-Mo 09:00-20:00; Tu 08:30-20:00; We 09:00-20:00; Th 08:30-20:00; Fr 09:00-20:00; ", "brand": "Aldi", "brand:wikidata": "Q125054"}, "geometry": {"type": "Point", "coordinates": [-80.68507, 28.35857]}},
{"type": "Feature", "id": "0tapOgdLPw4P9J1sRVmM0alOOjQ=", "properties": {"ref": "iQmGJbJil2p2EIor7rDqyA==", "@spider": "aldi_us", "addr:street": "446 Adams Ave", "addr:city": "Huntington", "addr:state": "WV", "addr:postcode": "25701", "name": "ALDI", "opening_hours": "Sa 09:00-20:00; Su-Mo 09:00-20:00; Tu 08:30-20:00; We 09:00-20:00; Th 08:30-20:00; Fr 09:00-20:00; ", "brand": "Aldi", "brand:wikidata": "Q125054"}, "geometry": {"type": "Point", "coordinates": [-82.46218, 38.41643]}},
{"type": "Feature", "id": "bZoyRUlX9zQFJ2aV4vu0eH10zJ8=", "properties": {"ref": "4nfIhT9dXZoR_V92Xpq2SQ==", "@spider": "aldi_us", "addr:street": "434 12th St", "addr:city": "Dunbar", "addr:state": "WV", "addr:postcode": "25064", "name": "ALDI", "opening_hours": "Sa 09:00-20:00; Su-Mo 09:00-20:00; Tu 08:30-20:00; We 09:00-20:00; Th 08:30-20:00; Fr 09:00-20:00; ", "brand": "Aldi", "brand:wikidata": "Q125054"}, "geometry": {"type": "Point", "coordinates": [-81.73817, 38.36161]}},
{"type": "Feature", "id": "oLhHVi4YelQijNlPnHIXaVLhlAk=", "properties": {"ref": "KhJenuKAkCJpfpgC1iz3Uw==", "@spider": "aldi_us", "addr:street": "2810 Mountaineer Blvd", "addr:city": "Charleston", "addr:state": "WV", "addr:postcode": "25309", "name": "ALDI", "opening_hours": "Sa 09:00-20:00; Su-Mo 09:00-20:00; Tu 08:30-20:00; We 09:00-20:00; Th 08:30-20:00; Fr 09:00-20:00; ", "brand": "Aldi", "brand:wikidata": "Q125054"}, "geometry": {"type": "Point", "coordinates": [-81.71722, 38.31862]}},
{"type": "Feature", "id": "lXolpHepQPk2KR8w6P1qFYItTaE=", "properties": {"ref": "fjuLCd0Ajg7_hU0BI63Miw==", "@spider": "aldi_us", "addr:street": "103 Liberty Square", "addr:city": "Hurricane", "addr:state": "WV", "addr:postcode": "25526", "name": "ALDI", "opening_hours": "Sa 09:00-20:00; Su-Mo 09:00-20:00; Tu 08:30-20:00; We 09:00-20:00; Th 08:30-20:00; Fr 09:00-20:00; ", "brand": "Aldi", "brand:wikidata": "Q125054"}, "geometry": {"type": "Point", "coordinates": [-81.93246, 38.45867]}},
{"type": "Feature", "id": "O4U2LMK3wuJNicQynSCcQHjBy_k=", "properties": {"ref": "zLE4W-auf2fXlV-pEbDnOA==", "@spider": "aldi_us", "addr:street": "1773 US Highway 1 South", "addr:city": "St. Augustine", "addr:state": "FL", "addr:postcode": "32084", "name": "ALDI", "opening_hours": "Sa 08:30-20:00; Su-Fr 08:30-20:00; ", "brand": "Aldi", "brand:wikidata": "Q125054"}, "geometry": {"type": "Point", "coordinates": [-81.32522, 29.87004]}},
{"type": "Feature", "id": "OxzIXs3K-N7sjy45UI_PEzo9Wa8=", "properties": {"ref": "QZnCSIXoMoSX_Y2gZ8CgCg==", "@spider": "aldi_us", "addr:street": "6301 Veterans Pkwy, Ste 500", "addr:city": "Columbus", "addr:state": "GA", "addr:postcode": "31909", "name": "ALDI", "opening_hours": "Sa 09:00-20:00; Su-Fr 09:00-20:00; ", "brand": "Aldi", "brand:wikidata": "Q125054"}, "geometry": {"type": "Point", "coordinates": [-84.95644, 32.53578]}},
{"type": "Feature", "id": "leTUrha5YMP0Ba50Mam8nf7zJ3A=", "properties": {"ref": "0QRqUknaQSaQK86WXr54lA==", "@spider": "aldi_us", "addr:street": "3500 Maple Ave", "addr:city": "Zanesville", "addr:state": "OH", "addr:postcode": "43701", "name": "ALDI", "opening_hours": "Sa 09:00-20:00; Su-Mo 09:00-20:00; Tu 08:30-20:00; We 09:00-20:00; Th 08:30-20:00; Fr 09:00-20:00; ", "brand": "Aldi", "brand:wikidata": "Q125054"}, "geometry": {"type": "Point", "coordinates": [-82.02149, 39.98613]}},
{"type": "Feature", "id": "gCJbSNOz3TIOWPqkUIZNSMOv2qM=", "properties": {"ref": "r8646EV8sj6r-xH7oH4Faw==", "@spider": "aldi_us", "addr:street": "811 South Second Street", "addr:city": "Coshocton", "addr:state": "OH", "addr:postcode": "43812", "name": "ALDI", "opening_hours": "Sa 09:00-20:00; Su-Mo 09:00-20:00; Tu 08:30-20:00; We 09:00-20:00; Th 08:30-20:00; Fr 09:00-20:00; ", "brand": "Aldi", "brand:wikidata": "Q125054"}, "geometry": {"type": "Point", "coordinates": [-81.87085, 40.26186]}},
{"type": "Feature", "id": "Ld0G2DT1wI1GioYYkPkkTvAf3-U=", "properties": {"ref": "xxIUgb0xJdSPGAUj5su42Q==", "@spider": "aldi_us", "addr:street": "3025 Iowa Street", "addr:city": "Lawrence", "addr:state": "KS", "addr:postcode": "66046", "name": "ALDI", "opening_hours": "Sa 09:00-20:00; Su-Fr 09:00-20:00; ", "brand": "Aldi", "brand:wikidata": "Q125054"}, "geometry": {"type": "Point", "coordinates": [-95.26108, 38.92907]}},
{"type": "Feature", "id": "rSoA5lYKONZdekWHnbmlfB4Z8Ec=", "properties": {"ref": "AFuVR9-ZZcqZFanc0w908Q==", "@spider": "aldi_us", "addr:street": "4650 South St.", "addr:city": "Titusville", "addr:state": "FL", "addr:postcode": "32780", "name": "ALDI", "opening_hours": "Sa 09:00-20:00; Su-Mo 09:00-20:00; Tu 08:30-20:00; We 09:00-20:00; Th 08:30-20:00; Fr 09:00-20:00; ", "brand": "Aldi", "brand:wikidata": "Q125054"}, "geometry": {"type": "Point", "coordinates": [-80.84758, 28.5567]}},
{"type": "Feature", "id": "xFvAj3DmsPk0qYEN-iejvGfWssc=", "properties": {"ref": "JC-o1pt4m03bG5kTV-doNA==", "@spider": "aldi_us", "addr:street": "3670 Marketplace Drive", "addr:city": "Phenix City", "addr:state": "AL", "addr:postcode": "36867", "name": "ALDI", "opening_hours": "Sa 09:00-20:00; Su-Fr 09:00-20:00; ", "brand": "Aldi", "brand:wikidata": "Q125054"}, "geometry": {"type": "Point", "coordinates": [-85.04411, 32.49688]}},
{"type": "Feature", "id": "6fMir863TwT4nlgmYXE50B55fs8=", "properties": {"ref": "G6mg--Tfia2voq_wAYbiDA==", "@spider": "aldi_us", "addr:street": "821 Clepper Ln", "addr:city": "Cincinnati", "addr:state": "OH", "addr:postcode": "45245", "name": "ALDI", "opening_hours": "Sa 09:00-20:00; Su-Mo 09:00-20:00; Tu 08:30-20:00; We 09:00-20:00; Th 08:30-20:00; Fr 09:00-20:00; ", "brand": "Aldi", "brand:wikidata": "Q125054"}, "geometry": {"type": "Point", "coordinates": [-84.26522, 39.09173]}},
{"type": "Feature", "id": "QHsh4_mj6jJheWWqRhLNL-o3ayI=", "properties": {"ref": "B_E3hHJQx3lhMQzYV8LP7g==", "@spider": "aldi_us", "addr:street": "8594 Beechmont Ave", "addr:city": "Cincinnati", "addr:state": "OH", "addr:postcode": "45255", "name": "ALDI", "opening_hours": "Sa 09:00-20:00; Su-Mo 09:00-20:00; Tu 08:30-20:00; We 09:00-20:00; Th 08:30-20:00; Fr 09:00-20:00; ", "brand": "Aldi", "brand:wikidata": "Q125054"}, "geometry": {"type": "Point", "coordinates": [-84.31548, 39.07347]}},
{"type": "Feature", "id": "3VFWswcfM2UbbzFYMJKZnD1dbtM=", "properties": {"ref": "ScUKBV9xJZ-2UU3GIA8tcA==", "@spider": "aldi_us", "addr:street": "N80 W12540 Leon Rd", "addr:city": "Menomonee Falls", "addr:state": "WI", "addr:postcode": "53051", "name": "ALDI", "opening_hours": "Sa 09:00-20:00; Su-Mo 09:00-20:00; Tu 08:30-20:00; We 09:00-20:00; Th 08:30-20:00; Fr 09:00-20:00; ", "brand": "Aldi", "brand:wikidata": "Q125054"}, "geometry": {"type": "Point", "coordinates": [-88.06473, 43.16359]}},
{"type": "Feature", "id": "VfWwqP4nGCPdkX26abkbkFHIR0c=", "properties": {"ref": "HqljBAOwWEKGHeuRQkrkiw==", "@spider": "aldi_us", "addr:street": "321 Speen Street", "addr:city": "Natick", "addr:state": "MA", "addr:postcode": "01760", "name": "ALDI", "opening_hours": "Sa 09:00-20:00; Su-Fr 09:00-20:00; ", "brand": "Aldi", "brand:wikidata": "Q125054"}, "geometry": {"type": "Point", "coordinates": [-71.37962, 42.30406]}},
{"type": "Feature", "id": "MWKK2XriQPzPQVXrdi_-rNSqnIM=", "properties": {"ref": "9TBJrUBpJ7utx_r4GWguUQ==", "@spider": "aldi_us", "addr:street": "4111 Harbor Town Lane", "addr:city": "Manitowoc", "addr:state": "WI", "addr:postcode": "54220", "name": "ALDI", "opening_hours": "Sa 09:00-20:00; Su-Mo 09:00-20:00; Tu 08:30-20:00; We 09:00-20:00; Th 08:30-20:00; Fr 09:00-20:00; ", "brand": "Aldi", "brand:wikidata": "Q125054"}, "geometry": {"type": "Point", "coordinates": [-87.69996, 44.07713]}},
{"type": "Feature", "id": "LwLrhs1IL51dBFucshfXMrAj-Ig=", "properties": {"ref": "ENiSXCsfXqh45spSCpQ50Q==", "@spider": "aldi_us", "addr:street": "61240 Southgate Rd", "addr:city": "Cambridge", "addr:state": "OH", "addr:postcode": "43725", "name": "ALDI", "opening_hours": "Sa 09:00-20:00; Su-Mo 09:00-20:00; Tu 08:30-20:00; We 09:00-20:00; Th 08:30-20:00; Fr 09:00-20:00; ", "brand": "Aldi", "brand:wikidata": "Q125054"}, "geometry": {"type": "Point", "coordinates": [-81.57251, 39.98963]}},
{"type": "Feature", "id": "rvan8Thh51ruDMo2ebtrUDtW37g=", "properties": {"ref": "2AP0YVmza1NcKOSxMwFddw==", "@spider": "aldi_us", "addr:street": "1890 W. Front Street", "addr:city": "Berwick", "addr:state": "PA", "addr:postcode": "18603", "name": "ALDI", "opening_hours": "Sa 09:00-20:00; Su-Fr 09:00-20:00; ", "brand": "Aldi", "brand:wikidata": "Q125054"}, "geometry": {"type": "Point", "coordinates": [-76.26621, 41.04787]}},
{"type": "Feature", "id": "oL_N_a8uLl6jvuTxxdjFor9-yyk=", "properties": {"ref": "lOVPZqsf0LLEkgWwhEIMBg==", "@spider": "aldi_us", "addr:street": "134 Vestal Parkway West", "addr:city": "Vestal", "addr:state": "NY", "addr:postcode": "13850", "name": "ALDI", "opening_hours": "Sa 08:30-20:00; Su-Fr 08:30-20:00; ", "brand": "Aldi", "brand:wikidata": "Q125054"}, "geometry": {"type": "Point", "coordinates": [-76.0547, 42.08672]}},
{"type": "Feature", "id": "7r5aYMBujePOajL8JnABHB72GEo=", "properties": {"ref": "MZD8OPtON3gd_lUNx9lw7Q==", "@spider": "aldi_us", "addr:street": "5505 Ridge Ave", "addr:city": "Cincinnati", "addr:state": "OH", "addr:postcode": "45213", "name": "ALDI", "opening_hours": "Sa 09:00-20:00; Su-Mo 09:00-20:00; Tu 08:30-20:00; We 09:00-20:00; Th 08:30-20:00; Fr 09:00-20:00; ", "brand": "Aldi", "brand:wikidata": "Q125054"}, "geometry": {"type": "Point", "coordinates": [-84.4276, 39.172]}},
{"type": "Feature", "id": "XyTz0xqNDRfc8jjDbHB9Spi6Rr8=", "properties": {"ref": "Bur9TS1HbWjAdLhsZnrGCQ==", "@spider": "aldi_us", "addr:street": "828 Central Avenue", "addr:city": "Dover", "addr:state": "NH", "addr:postcode": "03820", "name": "ALDI", "opening_hours": "Sa 09:00-20:00; Su-Fr 09:00-20:00; ", "brand": "Aldi", "brand:wikidata": "Q125054"}, "geometry": {"type": "Point", "coordinates": [-70.88023, 43.21616]}},
{"type": "Feature", "id": "2gs3UZUHlwbYjJI0wApyxnTvH3w=", "properties": {"ref": "mfz4npe5WJ5hU1EvJKmnyg==", "@spider": "aldi_us", "addr:street": "30 Manchester Road", "addr:city": "Derry", "addr:state": "NH", "addr:postcode": "03038", "name": "ALDI", "opening_hours": "Sa 09:00-20:00; Su-Fr 09:00-20:00; ", "brand": "Aldi", "brand:wikidata": "Q125054"}, "geometry": {"type": "Point", "coordinates": [-71.332, 42.8969]}},
{"type": "Feature", "id": "4yGSBUk49mbQjRUdREeIOPQ1sNM=", "properties": {"ref": "U-Pwj2XDHMOjG5VFHWu4Gg==", "@spider": "aldi_us", "addr:street": "541 South Broadway", "addr:city": "Salem", "addr:state": "NH", "addr:postcode": "03079", "name": "ALDI", "opening_hours": "Sa 09:00-20:00; Su-Fr 09:00-20:00; ", "brand": "Aldi", "brand:wikidata": "Q125054"}, "geometry": {"type": "Point", "coordinates": [-71.20085, 42.74606]}},
{"type": "Feature", "id": "0d4HMSV9aDBIqKP9z2hWgQfQGU0=", "properties": {"ref": "kChNkYhihJMorMOc_3KRjw==", "@spider": "aldi_us", "addr:street": "N96W18838 County Line Road", "addr:city": "Germantown", "addr:state": "WI", "addr:postcode": "53022", "name": "ALDI", "opening_hours": "Sa 09:00-20:00; Su-Mo 09:00-20:00; Tu 08:30-20:00; We 09:00-20:00; Th 08:30-20:00; Fr 09:00-20:00; ", "brand": "Aldi", "brand:wikidata": "Q125054"}, "geometry": {"type": "Point", "coordinates": [-88.14342, 43.19298]}},
{"type": "Feature", "id": "08-I_EoBm-hUu12K6etc9xTiL2s=", "properties": {"ref": "_up5xriGe7ffE3CFkh545Q==", "@spider": "aldi_us", "addr:street": "6720 W. Brown Deer Road", "addr:city": "Brown Deer", "addr:state": "WI", "addr:postcode": "53223", "name": "ALDI", "opening_hours": "Sa 09:00-20:00; Su-Mo 09:00-20:00; Tu 08:30-20:00; We 09:00-20:00; Th 08:30-20:00; Fr 09:00-20:00; ", "brand": "Aldi", "brand:wikidata": "Q125054"}, "geometry": {"type": "Point", "coordinates": [-87.99321, 43.17879]}},
{"type": "Feature", "id": "AHBGzW9g5PHexWGxrY0uzI7lj-I=", "properties": {"ref": "TifwhqIulfszWq4rPbJlJw==", "@spider": "aldi_us", "addr:street": "919 South Taylor", "addr:city": "Sheboygan", "addr:state": "WI", "addr:postcode": "53081", "name": "ALDI", "opening_hours": "Sa 09:00-20:00; Su-Mo 09:00-20:00; Tu 08:30-20:00; We 09:00-20:00; Th 08:30-20:00; Fr 09:00-20:00; ", "brand": "Aldi", "brand:wikidata": "Q125054"}, "geometry": {"type": "Point", "coordinates": [-87.74268, 43.74473]}},
{"type": "Feature", "id": "wWpfa0PwnwRkUjqCLE-EMc48DHI=", "properties": {"ref": "eRxNYscnJa1FbG6CRy0ifw==", "@spider": "aldi_us", "addr:street": "10400 Reading Rd", "addr:city": "Evendale", "addr:state": "OH", "addr:postcode": "45241", "name": "ALDI", "opening_hours": "Sa 09:00-20:00; Su-Mo 09:00-20:00; Tu 08:30-20:00; We 09:00-20:00; Th 08:30-20:00; Fr 09:00-20:00; ", "brand": "Aldi", "brand:wikidata": "Q125054"}, "geometry": {"type": "Point", "coordinates": [-84.42078, 39.25292]}},
{"type": "Feature", "id": "H45cukkZ0eX8y7ZbQz9PYy3PW28=", "properties": {"ref": "jCME1kkD-_S7K0_Q5ujDhg==", "@spider": "aldi_us", "addr:street": "425 E Kemper Road", "addr:city": "Springdale", "addr:state": "OH", "addr:postcode": "45246", "name": "ALDI", "opening_hours": "Sa 09:00-20:00; Su-Mo 09:00-20:00; Tu 08:30-20:00; We 09:00-20:00; Th 08:30-20:00; Fr 09:00-20:00; ", "brand": "Aldi", "brand:wikidata": "Q125054"}, "geometry": {"type": "Point", "coordinates": [-84.46279, 39.28652]}},
{"type": "Feature", "id": "biiBp4-nvSY4R_04VGNIrRREWB8=", "properties": {"ref": "gGnxnf6MnOo6d6vQ1eh_NA==", "@spider": "aldi_us", "addr:street": "2024 Woodbury Avenue", "addr:city": "Newington", "addr:state": "NH", "addr:postcode": "03801", "name": "ALDI", "opening_hours": "Sa 09:00-20:00; Su-Fr 09:00-20:00; ", "brand": "Aldi", "brand:wikidata": "Q125054"}, "geometry": {"type": "Point", "coordinates": [-70.7967, 43.09543]}},
{"type": "Feature", "id": "6hM7izkTxkZ9S5KOQIO1JHEPj_g=", "properties": {"ref": "xP9eFf0kEa066OBcsNDPEA==", "@spider": "aldi_us", "addr:street": "270 Amherst Street", "addr:city": "Nashua", "addr:state": "NH", "addr:postcode": "03063", "name": "ALDI", "opening_hours": "Sa 09:00-20:00; Su-Fr 09:00-20:00; ", "brand": "Aldi", "brand:wikidata": "Q125054"}, "geometry": {"type": "Point", "coordinates": [-71.4949, 42.77753]}},
{"type": "Feature", "id": "hqfjJnxueTg8CLhmj5ojefUejLs=", "properties": {"ref": "UlQO0ujdcFfBxkx1mLg_vQ==", "@spider": "aldi_us", "addr:street": "1111 South Willow Street", "addr:city": "Manchester", "addr:state": "NH", "addr:postcode": "03103", "name": "ALDI", "opening_hours": "Sa 09:00-20:00; Su-Fr 09:00-20:00; ", "brand": "Aldi", "brand:wikidata": "Q125054"}, "geometry": {"type": "Point", "coordinates": [-71.4389, 42.96037]}},
{"type": "Feature", "id": "WKiWzU5gB5LuZeZvwlp-aT6zQYs=", "properties": {"ref": "-ue3vNKjrau1Y8MKCAe0WA==", "@spider": "aldi_us", "addr:street": "12120 W. Burleigh Street", "addr:city": "Wauwatosa", "addr:state": "WI", "addr:postcode": "53222", "name": "ALDI", "opening_hours": "Sa 09:00-20:00; Su-Mo 09:00-20:00; Tu 08:30-20:00; We 09:00-20:00; Th 08:30-20:00; Fr 09:00-20:00; ", "brand": "Aldi", "brand:wikidata": "Q125054"}, "geometry": {"type": "Point", "coordinates": [-88.06457, 43.07594]}},
{"type": "Feature", "id": "ArrfTohUIT7QsUnat09zegdK0hY=", "properties": {"ref": "PdeG1X8fPRRtnMxNwWgT_A==", "@spider": "aldi_us", "addr:street": "6700 W. Capitol Drive", "addr:city": "Milwaukee", "addr:state": "WI", "addr:postcode": "53216", "name": "ALDI", "opening_hours": "Sa 09:00-20:00; Su-Mo 09:00-20:00; Tu 08:30-20:00; We 09:00-20:00; Th 08:30-20:00; Fr 09:00-20:00; ", "brand": "Aldi", "brand:wikidata": "Q125054"}, "geometry": {"type": "Point", "coordinates": [-87.9964, 43.09059]}},
{"type": "Feature", "id": "JYbE2xxkN5ubMoDDQVu8vxxx0lo=", "properties": {"ref": "h-wXgHwiFtWlxnJ3kkeHHw==", "@spider": "aldi_us", "addr:street": "5301 N. Hopkins", "addr:city": "Milwaukee", "addr:state": "WI", "addr:postcode": "53209", "name": "ALDI", "opening_hours": "Sa 09:00-20:00; Su-Mo 09:00-20:00; Tu 08:30-20:00; We 09:00-20:00; Th 08:30-20:00; Fr 09:00-20:00; ", "brand": "Aldi", "brand:wikidata": "Q125054"}, "geometry": {"type": "Point", "coordinates": [-87.96571, 43.1142]}},
{"type": "Feature", "id": "nkwi1dgybFZYPtvdNgV3OZayxwA=", "properties": {"ref": "dpLph9RootxJn7x7bUkk4A==", "@spider": "aldi_us", "addr:street": "1700 County Road 64", "addr:city": "Horseheads", "addr:state": "NY", "addr:postcode": "14845", "name": "ALDI", "opening_hours": "Sa 09:00-20:00; Su-Mo 09:00-20:00; Tu 08:30-20:00; We 09:00-20:00; Th 08:30-20:00; Fr 09:00-20:00; ", "brand": "Aldi", "brand:wikidata": "Q125054"}, "geometry": {"type": "Point", "coordinates": [-76.85974, 42.15916]}},
{"type": "Feature", "id": "WAkip1pTHtA-MNSjAYnalA6WvBs=", "properties": {"ref": "Xj942YqcdxE3eyiZ_3D7YQ==", "@spider": "aldi_us", "addr:street": "100 W. Hudson Street", "addr:city": "Elmira", "addr:state": "NY", "addr:postcode": "14904", "name": "ALDI", "opening_hours": "Sa 09:00-20:00; Su-Mo 09:00-20:00; Tu 08:30-20:00; We 09:00-20:00; Th 08:30-20:00; Fr 09:00-20:00; ", "brand": "Aldi", "brand:wikidata": "Q125054"}, "geometry": {"type": "Point", "coordinates": [-76.80383, 42.08439]}},
{"type": "Feature", "id": "SXptYYpSU-Wy6d1KfvqWzcrS4eE=", "properties": {"ref": "_UgyFeqodtN9SFDlCifCCQ==", "@spider": "aldi_us", "addr:street": "6111 S. Salina Street", "addr:city": "Syracuse", "addr:state": "NY", "addr:postcode": "13205", "name": "ALDI", "opening_hours": "Sa 09:00-20:00; Su-Mo 09:00-20:00; Tu 08:30-20:00; We 09:00-20:00; Th 08:30-20:00; Fr 09:00-20:00; ", "brand": "Aldi", "brand:wikidata": "Q125054"}, "geometry": {"type": "Point", "coordinates": [-76.14174, 42.98209]}},
{"type": "Feature", "id": "rQ3WjRuJNNrYJCqjrGei5CRRE4A=", "properties": {"ref": "NQClNW2H5gJ_tKsocq7jGA==", "@spider": "aldi_us", "addr:street": "1055 West Genesee  Street", "addr:city": "Syracuse", "addr:state": "NY", "addr:postcode": "13204", "name": "ALDI", "opening_hours": "Sa 09:00-20:00; Su-Mo 09:00-20:00; Tu 08:30-20:00; We 09:00-20:00; Th 08:30-20:00; Fr 09:00-20:00; ", "brand": "Aldi", "brand:wikidata": "Q125054"}, "geometry": {"type": "Point", "coordinates": [-76.17283, 43.05338]}},
{"type": "Feature", "id": "L1l23tnO3CBno76P0gIajc_7g6k=", "properties": {"ref": "2vezdONcYYoEZiIZD_mrFw==", "@spider": "aldi_us", "addr:street": "2415 State Rt. 257", "addr:city": "Cranberry", "addr:state": "PA", "addr:postcode": "16319", "name": "ALDI", "opening_hours": "Sa 09:00-20:00; Su-Mo 09:00-20:00; Tu 08:30-20:00; We 09:00-20:00; Th 08:30-20:00; Fr 09:00-20:00; ", "brand": "Aldi", "brand:wikidata": "Q125054"}, "geometry": {"type": "Point", "coordinates": [-79.71254, 41.35148]}},
{"type": "Feature", "id": "Um2yRSypOYZby7G93AfP_LbTe1A=", "properties": {"ref": "74Yv-QoTVy8vwo1tFNaKCQ==", "@spider": "aldi_us", "addr:street": "2 Pine Grv Village Drive", "addr:city": "Grove City", "addr:state": "PA", "addr:postcode": "16127", "name": "ALDI", "opening_hours": "Sa 09:00-20:00; Su-Mo 09:00-20:00; Tu 08:30-20:00; We 09:00-20:00; Th 08:30-20:00; Fr 09:00-20:00; ", "brand": "Aldi", "brand:wikidata": "Q125054"}, "geometry": {"type": "Point", "coordinates": [-80.11049, 41.16689]}},
{"type": "Feature", "id": "eWeEeZ-vMjOUK_O4F856mZUEthI=", "properties": {"ref": "ufsicnQ2m0NuZ5VwvfRGjQ==", "@spider": "aldi_us", "addr:street": "2065 Routes 5 & 20", "addr:city": "Seneca Falls", "addr:state": "NY", "addr:postcode": "13148", "name": "ALDI", "opening_hours": "Sa 09:00-20:00; Su-Mo 09:00-20:00; Tu 08:30-20:00; We 09:00-20:00; Th 08:30-20:00; Fr 09:00-20:00; ", "brand": "Aldi", "brand:wikidata": "Q125054"}, "geometry": {"type": "Point", "coordinates": [-76.8283, 42.90475]}},
{"type": "Feature", "id": "ktM6LV2-TcsqxXmM-uD36c8hIi4=", "properties": {"ref": "nCvl8aFs9Xl_PDh0M1uu9g==", "@spider": "aldi_us", "addr:street": "6825 N. Port Washington Rd.", "addr:city": "Glendale", "addr:state": "WI", "addr:postcode": "53217", "name": "ALDI", "opening_hours": "Sa 09:00-20:00; Su-Mo 09:00-20:00; Tu 08:30-20:00; We 09:00-20:00; Th 08:30-20:00; Fr 09:00-20:00; ", "brand": "Aldi", "brand:wikidata": "Q125054"}, "geometry": {"type": "Point", "coordinates": [-87.91322, 43.14203]}},
{"type": "Feature", "id": "z_rTbANn3sLseSZE-zixuAu1yAg=", "properties": {"ref": "vB4yIPFauDfwytKXcq0A6Q==", "@spider": "aldi_us", "addr:street": "1201 George Towne Drive", "addr:city": "Pewaukee", "addr:state": "WI", "addr:postcode": "53072", "name": "ALDI", "opening_hours": "Sa 09:00-20:00; Su-Mo 09:00-20:00; Tu 08:30-20:00; We 09:00-20:00; Th 08:30-20:00; Fr 09:00-20:00; ", "brand": "Aldi", "brand:wikidata": "Q125054"}, "geometry": {"type": "Point", "coordinates": [-88.24025, 43.08455]}},
{"type": "Feature", "id": "9YZtAZdBJE4bpAAEdhH17dUWfAk=", "properties": {"ref": "_q1lXp8wS11q630KHSo-7w==", "@spider": "aldi_us", "addr:street": "225 East Capitol Drive", "addr:city": "Milwaukee", "addr:state": "WI", "addr:postcode": "53212", "name": "ALDI", "opening_hours": "Sa 09:00-20:00; Su-Mo 09:00-20:00; Tu 08:30-20:00; We 09:00-20:00; Th 08:30-20:00; Fr 09:00-20:00; ", "brand": "Aldi", "brand:wikidata": "Q125054"}, "geometry": {"type": "Point", "coordinates": [-87.90903, 43.08903]}},
{"type": "Feature", "id": "GdcMB1-3EmXXWyBXOjcCYDjxJxw=", "properties": {"ref": "gZIkhco4KZTqlaIppDJ8pQ==", "@spider": "aldi_us", "addr:street": "3747 Milton Ave.", "addr:city": "Camillus", "addr:state": "NY", "addr:postcode": "13031", "name": "ALDI", "opening_hours": "Sa 09:00-20:00; Su-Mo 09:00-20:00; Tu 08:30-20:00; We 09:00-20:00; Th 08:30-20:00; Fr 09:00-20:00; ", "brand": "Aldi", "brand:wikidata": "Q125054"}, "geometry": {"type": "Point", "coordinates": [-76.26353, 43.05191]}},
{"type": "Feature", "id": "2QWPlyV9Dm2giLtyqBwW06wLYjo=", "properties": {"ref": "HN_GQdYB37PlynpVzrrxSQ==", "@spider": "aldi_us", "addr:street": "2015 Erie Blvd.", "addr:city": "Syracuse", "addr:state": "NY", "addr:postcode": "13224", "name": "ALDI", "opening_hours": "Sa 09:00-20:00; Su-Mo 09:00-20:00; Tu 08:30-20:00; We 09:00-20:00; Th 08:30-20:00; Fr 09:00-20:00; ", "brand": "Aldi", "brand:wikidata": "Q125054"}, "geometry": {"type": "Point", "coordinates": [-76.11451, 43.05245]}},
{"type": "Feature", "id": "tnJcn20yWAtMxPAf6VfYfcx1I8E=", "properties": {"ref": "Gzm-qLLKKqhC5ByMtLjHTg==", "@spider": "aldi_us", "addr:street": "6820 East Genesee Street", "addr:city": "Fayetteville", "addr:state": "NY", "addr:postcode": "13066", "name": "ALDI", "opening_hours": "Sa 09:00-20:00; Su-Mo 09:00-20:00; Tu 08:30-20:00; We 09:00-20:00; Th 08:30-20:00; Fr 09:00-20:00; ", "brand": "Aldi", "brand:wikidata": "Q125054"}, "geometry": {"type": "Point", "coordinates": [-76.05085, 43.02996]}},
{"type": "Feature", "id": "mtqNoMdDNiQRKoLtA6VaxwVSpRw=", "properties": {"ref": "Ds55JJuMEIzrZygYUIlOaw==", "@spider": "aldi_us", "addr:street": "6633 Manlius Center Road", "addr:city": "E. Syracuse", "addr:state": "NY", "addr:postcode": "13057", "name": "ALDI", "opening_hours": "Sa 09:00-20:00; Su-Mo 09:00-20:00; Tu 08:30-20:00; We 09:00-20:00; Th 08:30-20:00; Fr 09:00-20:00; ", "brand": "Aldi", "brand:wikidata": "Q125054"}, "geometry": {"type": "Point", "coordinates": [-76.05977, 43.06415]}},
{"type": "Feature", "id": "zTo8d_7ZUsoXHNEZ4vC2yGkqOqE=", "properties": {"ref": "sVYAUUFavhmjkT8NbIfhtA==", "@spider": "aldi_us", "addr:street": "3138 County Road 10", "addr:city": "Canandaigua", "addr:state": "NY", "addr:postcode": "14424", "name": "ALDI", "opening_hours": "Sa 09:00-20:00; Su-Mo 09:00-20:00; Tu 08:30-20:00; We 09:00-20:00; Th 08:30-20:00; Fr 09:00-20:00; ", "brand": "Aldi", "brand:wikidata": "Q125054"}, "geometry": {"type": "Point", "coordinates": [-77.24689, 42.87737]}},
{"type": "Feature", "id": "eIzLeeJJDmtpkVSEsagVth91i_k=", "properties": {"ref": "FQduKNfA6-j-OIWvrVyC9Q==", "@spider": "aldi_us", "addr:street": "20 State Route 31", "addr:city": "Lyons", "addr:state": "NY", "addr:postcode": "14489", "name": "ALDI", "opening_hours": "Sa 09:00-20:00; Su-Mo 09:00-20:00; Tu 08:30-20:00; We 09:00-20:00; Th 08:30-20:00; Fr 09:00-20:00; ", "brand": "Aldi", "brand:wikidata": "Q125054"}, "geometry": {"type": "Point", "coordinates": [-77.00222, 43.05946]}},
{"type": "Feature", "id": "Fq1JtSA9HjYmZsLHYxrU7A5jm-g=", "properties": {"ref": "hofZ7GxJxeaiTsIj1gkgIA==", "@spider": "aldi_us", "addr:street": "204 Liberty Street", "addr:city": "Penn Yan", "addr:state": "NY", "addr:postcode": "14527", "name": "ALDI", "opening_hours": "Sa 09:00-20:00; Su-Mo 09:00-20:00; Tu 08:30-20:00; We 09:00-20:00; Th 08:30-20:00; Fr 09:00-20:00; ", "brand": "Aldi", "brand:wikidata": "Q125054"}, "geometry": {"type": "Point", "coordinates": [-77.05653, 42.65905]}},
{"type": "Feature", "id": "VrK9q39JGzqoFQoYvS40RXJnbDY=", "properties": {"ref": "okCvdca5JzCm01q7R5KY1w==", "@spider": "aldi_us", "addr:street": "1302 State Route 332", "addr:city": "Farmington", "addr:state": "NY", "addr:postcode": "14425", "name": "ALDI", "opening_hours": "Sa 09:00-20:00; Su-Mo 09:00-20:00; Tu 08:30-20:00; We 09:00-20:00; Th 08:30-20:00; Fr 09:00-20:00; ", "brand": "Aldi", "brand:wikidata": "Q125054"}, "geometry": {"type": "Point", "coordinates": [-77.35468, 42.97188]}},
{"type": "Feature", "id": "vtMq8rqBNkMPcG4OoWqx9Xr2Br4=", "properties": {"ref": "y6dmn2LPzfGfNzH-S1RRnA==", "@spider": "aldi_us", "addr:street": "20229 S Ellsworth Rd", "addr:city": "Queen Creek", "addr:state": "AZ", "addr:postcode": "85142", "name": "ALDI", "opening_hours": "Sa 09:00-21:00; Su-Mo 09:00-21:00; Tu 08:30-21:00; We 09:00-21:00; Th 08:30-21:00; Fr 09:00-21:00; ", "brand": "Aldi", "brand:wikidata": "Q125054"}, "geometry": {"type": "Point", "coordinates": [-111.63459, 33.26485]}},
{"type": "Feature", "id": "EsjyN5Chhxqpl5KRR_h6YI7XBEw=", "properties": {"ref": "KWSAKaKzEQdLnFXUft0EPg==", "@spider": "aldi_us", "addr:street": "1801 E Pecos Rd", "addr:city": "Gilbert", "addr:state": "AZ", "addr:postcode": "85295", "name": "ALDI", "opening_hours": "Sa 09:00-21:00; Su-Mo 09:00-21:00; Tu 08:30-21:00; We 09:00-21:00; Th 08:30-21:00; Fr 09:00-21:00; ", "brand": "Aldi", "brand:wikidata": "Q125054"}, "geometry": {"type": "Point", "coordinates": [-111.7511, 33.29523]}},
{"type": "Feature", "id": "bCYNgR0DAjOtOBD_wPUFPUbDMYM=", "properties": {"ref": "QzwUfEZLZqtR33EiYnnXRg==", "@spider": "aldi_us", "addr:street": "1995 South Koeller Street", "addr:city": "Oshkosh", "addr:state": "WI", "addr:postcode": "54902", "name": "ALDI", "opening_hours": "Sa 09:00-20:00; Su-Mo 09:00-20:00; Tu 08:30-20:00; We 09:00-20:00; Th 08:30-20:00; Fr 09:00-20:00; ", "brand": "Aldi", "brand:wikidata": "Q125054"}, "geometry": {"type": "Point", "coordinates": [-88.57954, 43.9971]}},
{"type": "Feature", "id": "Rg_POYbfEbAeNOygGrk4qKVN5Pg=", "properties": {"ref": "W4Uan2TfrDD-skJhQBGjRw==", "@spider": "aldi_us", "addr:street": "N6666 Rolling Meadows Drive", "addr:city": "Fond du Lac", "addr:state": "WI", "addr:postcode": "54937", "name": "ALDI", "opening_hours": "Sa 09:00-20:00; Su-Mo 09:00-20:00; Tu 08:30-20:00; We 09:00-20:00; Th 08:30-20:00; Fr 09:00-20:00; ", "brand": "Aldi", "brand:wikidata": "Q125054"}, "geometry": {"type": "Point", "coordinates": [-88.48633, 43.78308]}},
{"type": "Feature", "id": "IrIVQQZCqJf-mVGc5fdqDCx3Zjg=", "properties": {"ref": "DtkFxKOgeiFAPG-xtNo27g==", "@spider": "aldi_us", "addr:street": "2756 Elmira St.", "addr:city": "Sayre", "addr:state": "PA", "addr:postcode": "18840", "name": "ALDI", "opening_hours": "Sa 09:00-20:00; Su-Mo 09:00-20:00; Tu 08:30-20:00; We 09:00-20:00; Th 08:30-20:00; Fr 09:00-20:00; ", "brand": "Aldi", "brand:wikidata": "Q125054"}, "geometry": {"type": "Point", "coordinates": [-76.5453, 41.98755]}},
{"type": "Feature", "id": "4nX8npjvPwuCty3cR-8CJNSyc_c=", "properties": {"ref": "kPzB4Zd8udVBR9A9dUv6DA==", "@spider": "aldi_us", "addr:street": "811 Hunter Highway", "addr:city": "Tunkhannock", "addr:state": "PA", "addr:postcode": "18657", "name": "ALDI", "opening_hours": "Sa 09:00-20:00; Su-Fr 09:00-20:00; ", "brand": "Aldi", "brand:wikidata": "Q125054"}, "geometry": {"type": "Point", "coordinates": [-75.95164, 41.52439]}},
{"type": "Feature", "id": "MR482rTyIGf5rH0aq3jGj4xWcbw=", "properties": {"ref": "1SlsJTLJWeI6noWvH8LbfA==", "@spider": "aldi_us", "addr:street": "2826 S. Seneca", "addr:city": "Wichita", "addr:state": "KS", "addr:postcode": "67217", "name": "ALDI", "opening_hours": "Sa 09:00-20:00; Su-Fr 09:00-20:00; ", "brand": "Aldi", "brand:wikidata": "Q125054"}, "geometry": {"type": "Point", "coordinates": [-97.35145, 37.6434]}},
{"type": "Feature", "id": "mjvBfcDLsOIMYnIHUeNppTmWivU=", "properties": {"ref": "av9Bh-vsn1AgFA_bB9BWfA==", "@spider": "aldi_us", "addr:street": "8011 East Kellogg Ave", "addr:city": "Wichita", "addr:state": "KS", "addr:postcode": "67207", "name": "ALDI", "opening_hours": "Sa 09:00-20:00; Su-Fr 09:00-20:00; ", "brand": "Aldi", "brand:wikidata": "Q125054"}, "geometry": {"type": "Point", "coordinates": [-97.24318, 37.67804]}},
{"type": "Feature", "id": "naqg_oIet8SJFdUbCk07Cp2EEKY=", "properties": {"ref": "DQtQZGZIU9IKe4mqn39YIg==", "@spider": "aldi_us", "addr:street": "2323 N. Amidon", "addr:city": "Wichita", "addr:state": "KS", "addr:postcode": "67204", "name": "ALDI", "opening_hours": "Sa 09:00-20:00; Su-Fr 09:00-20:00; ", "brand": "Aldi", "brand:wikidata": "Q125054"}, "geometry": {"type": "Point", "coordinates": [-97.36382, 37.72551]}},
{"type": "Feature", "id": "w2GaP2_RlGCEGtctvB332g7aW7E=", "properties": {"ref": "xPkwEWsSHpJMjWGzB-COhQ==", "@spider": "aldi_us", "addr:street": "6835 E. 21st Street", "addr:city": "Wichita", "addr:state": "KS", "addr:postcode": "67206", "name": "ALDI", "opening_hours": "Sa 09:00-20:00; Su-Fr 09:00-20:00; ", "brand": "Aldi", "brand:wikidata": "Q125054"}, "geometry": {"type": "Point", "coordinates": [-97.25816, 37.72219]}},
{"type": "Feature", "id": "8yJqfOSDvUJvJtGCOOXdqSdZ6GY=", "properties": {"ref": "XgO31q5GLwEWU6elfN-1lg==", "@spider": "aldi_us", "addr:street": "1719 N. Rock Road", "addr:city": "Derby", "addr:state": "KS", "addr:postcode": "67037", "name": "ALDI", "opening_hours": "Sa 09:00-20:00; Su-Fr 09:00-20:00; ", "brand": "Aldi", "brand:wikidata": "Q125054"}, "geometry": {"type": "Point", "coordinates": [-97.24448, 37.56477]}},
{"type": "Feature", "id": "UPeiq23B2Qz-CwrpsVmN0S5Y998=", "properties": {"ref": "vk7Zob8TkIY7VVk72tn0lA==", "@spider": "aldi_us", "addr:street": "765 N Maize Rd", "addr:city": "Wichita", "addr:state": "KS", "addr:postcode": "67212", "name": "ALDI", "opening_hours": "Sa 09:00-20:00; Su-Fr 09:00-20:00; ", "brand": "Aldi", "brand:wikidata": "Q125054"}, "geometry": {"type": "Point", "coordinates": [-97.46361, 37.69661]}},
{"type": "Feature", "id": "W7O-9fx45F0q7xLFpn6dWSDRV_U=", "properties": {"ref": "Nv7H0nv_SOGvookg9xk8zQ==", "@spider": "aldi_us", "addr:street": "4664 Sawmill Rd", "addr:city": "Columbus", "addr:state": "OH", "addr:postcode": "43220", "name": "ALDI", "opening_hours": "Sa 09:00-20:00; Su-Mo 09:00-20:00; Tu 08:30-20:00; We 09:00-20:00; Th 08:30-20:00; Fr 09:00-20:00; ", "brand": "Aldi", "brand:wikidata": "Q125054"}, "geometry": {"type": "Point", "coordinates": [-83.09247, 40.06335]}},
{"type": "Feature", "id": "-T6c9G3SNiUYnGoZ2WOZ9poX4yI=", "properties": {"ref": "XhlAa7nyf_KHOKf56_lQ9A==", "@spider": "aldi_us", "addr:street": "845 N Estrella Pkwy", "addr:city": "Goodyear", "addr:state": "AZ", "addr:postcode": "85338", "name": "ALDI", "opening_hours": "Sa 09:00-21:00; Su-Mo 09:00-21:00; Tu 08:30-21:00; We 09:00-21:00; Th 08:30-21:00; Fr 09:00-21:00; ", "brand": "Aldi", "brand:wikidata": "Q125054"}, "geometry": {"type": "Point", "coordinates": [-112.39175, 33.45623]}},
{"type": "Feature", "id": "XDRhUqGxjLt0tpECbz_t-MZzHkg=", "properties": {"ref": "dCWaiLktAlyW9lVkjt5rEw==", "@spider": "aldi_us", "addr:street": "4041 Gantz Rd", "addr:city": "Grove City", "addr:state": "OH", "addr:postcode": "43123", "name": "ALDI", "opening_hours": "Sa 09:00-20:00; Su-Mo 09:00-20:00; Tu 08:30-20:00; We 09:00-20:00; Th 08:30-20:00; Fr 09:00-20:00; ", "brand": "Aldi", "brand:wikidata": "Q125054"}, "geometry": {"type": "Point", "coordinates": [-83.05631, 39.88]}},
{"type": "Feature", "id": "Y19N6NFvoyFZ_eYPm_XUb0Mqmls=", "properties": {"ref": "czFRqiF6TfdFaElfpr4aRw==", "@spider": "aldi_us", "addr:street": "3600 S High St", "addr:city": "Columbus", "addr:state": "OH", "addr:postcode": "43207", "name": "ALDI", "opening_hours": "Sa 09:00-20:00; Su-Mo 09:00-20:00; Tu 08:30-20:00; We 09:00-20:00; Th 08:30-20:00; Fr 09:00-20:00; ", "brand": "Aldi", "brand:wikidata": "Q125054"}, "geometry": {"type": "Point", "coordinates": [-82.99694, 39.8874]}},
{"type": "Feature", "id": "eG-anpKBIuPEpkgYgtFkLb9TZBE=", "properties": {"ref": "cXt5SIPx0b-5oakXu7U_LQ==", "@spider": "aldi_us", "addr:street": "6250 Wilmington Pike", "addr:city": "Centerville", "addr:state": "OH", "addr:postcode": "45459", "name": "ALDI", "opening_hours": "Sa 09:00-20:00; Su-Mo 09:00-20:00; Tu 08:30-20:00; We 09:00-20:00; Th 08:30-20:00; Fr 09:00-20:00; ", "brand": "Aldi", "brand:wikidata": "Q125054"}, "geometry": {"type": "Point", "coordinates": [-84.10798, 39.64666]}},
{"type": "Feature", "id": "91LO5BCOks6I4yYTManNZF4TMmw=", "properties": {"ref": "WS0WSnsH2T_Hz2nHwJo7Wg==", "@spider": "aldi_us", "addr:street": "1940 E Dorothy Ln", "addr:city": "Kettering", "addr:state": "OH", "addr:postcode": "45420", "name": "ALDI", "opening_hours": "Sa 09:00-20:00; Su-Mo 09:00-20:00; Tu 08:30-20:00; We 09:00-20:00; Th 08:30-20:00; Fr 09:00-20:00; ", "brand": "Aldi", "brand:wikidata": "Q125054"}, "geometry": {"type": "Point", "coordinates": [-84.12917, 39.70256]}},
{"type": "Feature", "id": "2XPdBhYcVGpIeQiIxFYr_NgKPLw=", "properties": {"ref": "ZeJTD6boo5-rNgxzSDiyAQ==", "@spider": "aldi_us", "addr:street": "4489 Cemetery Rd", "addr:city": "Hilliard", "addr:state": "OH", "addr:postcode": "43026", "name": "ALDI", "opening_hours": "Sa 09:00-20:00; Su-Mo 09:00-20:00; Tu 08:30-20:00; We 09:00-20:00; Th 08:30-20:00; Fr 09:00-20:00; ", "brand": "Aldi", "brand:wikidata": "Q125054"}, "geometry": {"type": "Point", "coordinates": [-83.13627, 40.03073]}},
{"type": "Feature", "id": "vb8YDQUnocleECd42fghcUatfso=", "properties": {"ref": "O2JyoOU8IuiWotwIiqTrzQ==", "@spider": "aldi_us", "addr:street": "7390 State Route 161 E", "addr:city": "Plain City", "addr:state": "OH", "addr:postcode": "43064", "name": "ALDI", "opening_hours": "Sa 09:00-20:00; Su-Mo 09:00-20:00; Tu 08:30-20:00; We 09:00-20:00; Th 08:30-20:00; Fr 09:00-20:00; ", "brand": "Aldi", "brand:wikidata": "Q125054"}, "geometry": {"type": "Point", "coordinates": [-83.19081, 40.11009]}},
{"type": "Feature", "id": "1PlZz9VKBunrAndZ5L15nY19PBY=", "properties": {"ref": "xFY8w85KtZjfPsz1arudkg==", "@spider": "aldi_us", "addr:street": "3280 Tremont Road", "addr:city": "Upper Arlington", "addr:state": "OH", "addr:postcode": "43221", "name": "ALDI", "opening_hours": "Sa 09:00-20:00; Su-Mo 09:00-20:00; Tu 08:30-20:00; We 09:00-20:00; Th 08:30-20:00; Fr 09:00-20:00; ", "brand": "Aldi", "brand:wikidata": "Q125054"}, "geometry": {"type": "Point", "coordinates": [-83.05778, 40.02367]}},
{"type": "Feature", "id": "6ihlwfG9XNiWW3V4BFwScVh4Hog=", "properties": {"ref": "_arB6td4tlPBFs-UPKnFYw==", "@spider": "aldi_us", "addr:street": "9965 Sawmill Parkway", "addr:city": "Powell", "addr:state": "OH", "addr:postcode": "43065", "name": "ALDI", "opening_hours": "Sa 09:00-20:00; Su-Mo 09:00-20:00; Tu 08:30-20:00; We 09:00-20:00; Th 08:30-20:00; Fr 09:00-20:00; ", "brand": "Aldi", "brand:wikidata": "Q125054"}, "geometry": {"type": "Point", "coordinates": [-83.09156, 40.15398]}},
{"type": "Feature", "id": "hzKsn6IAg46iukYRmZybcMUV-0E=", "properties": {"ref": "BKQ2PAqei8apCv9cFJ1WCw==", "@spider": "aldi_us", "addr:street": "24665 N Lake Pleasant Pkwy", "addr:city": "Peoria", "addr:state": "AZ", "addr:postcode": "85383", "name": "ALDI", "opening_hours": "Sa 09:00-21:00; Su-Mo 09:00-21:00; Tu 08:30-21:00; We 09:00-21:00; Th 08:30-21:00; Fr 09:00-21:00; ", "brand": "Aldi", "brand:wikidata": "Q125054"}, "geometry": {"type": "Point", "coordinates": [-112.2711, 33.70758]}},
{"type": "Feature", "id": "4Jc5yPQGwKkospWpPzptLSNYQck=", "properties": {"ref": "asIHeClh0Nml0LxAUahlVA==", "@spider": "aldi_us", "addr:street": "2844 S Alma School Rd", "addr:city": "Chandler", "addr:state": "AZ", "addr:postcode": "85286", "name": "ALDI", "opening_hours": "Sa 09:00-21:00; Su-Mo 09:00-21:00; Tu 08:30-21:00; We 09:00-21:00; Th 08:30-21:00; Fr 09:00-21:00; ", "brand": "Aldi", "brand:wikidata": "Q125054"}, "geometry": {"type": "Point", "coordinates": [-111.86042, 33.26414]}},
{"type": "Feature", "id": "RaRisuLNIvwrV8e06UZWG1C-QBE=", "properties": {"ref": "WiiJBmn3ZZmJ8FFLc6Zm5A==", "@spider": "aldi_us", "addr:street": "203 Springboro Pike", "addr:city": "West Carrollton", "addr:state": "OH", "addr:postcode": "45449", "name": "ALDI", "opening_hours": "Sa 09:00-20:00; Su-Mo 09:00-20:00; Tu 08:30-20:00; We 09:00-20:00; Th 08:30-20:00; Fr 09:00-20:00; ", "brand": "Aldi", "brand:wikidata": "Q125054"}, "geometry": {"type": "Point", "coordinates": [-84.22684, 39.64083]}},
{"type": "Feature", "id": "3YkTmhGjIXe4-iAEE2tZu8E3SbU=", "properties": {"ref": "icGDGNu6OlEYrbbk8qnV8w==", "@spider": "aldi_us", "addr:street": "2451 Lakeview Drive", "addr:city": "Beavercreek", "addr:state": "OH", "addr:postcode": "45431", "name": "ALDI", "opening_hours": "Sa 09:00-20:00; Su-Mo 09:00-20:00; Tu 08:30-20:00; We 09:00-20:00; Th 08:30-20:00; Fr 09:00-20:00; ", "brand": "Aldi", "brand:wikidata": "Q125054"}, "geometry": {"type": "Point", "coordinates": [-84.05224, 39.75883]}},
{"type": "Feature", "id": "gveonTnqW-hC4X9E-A1EL6ukbGY=", "properties": {"ref": "iP9GvGSZbK2jhuvjRSnagg==", "@spider": "aldi_us", "addr:street": "37 Hospitality Drive", "addr:city": "Xenia", "addr:state": "OH", "addr:postcode": "45385", "name": "ALDI", "opening_hours": "Sa 09:00-20:00; Su-Mo 09:00-20:00; Tu 08:30-20:00; We 09:00-20:00; Th 08:30-20:00; Fr 09:00-20:00; ", "brand": "Aldi", "brand:wikidata": "Q125054"}, "geometry": {"type": "Point", "coordinates": [-83.96538, 39.69071]}},
{"type": "Feature", "id": "6rlC6zFDQGsakh8WohsTuUyrsdg=", "properties": {"ref": "g3sAIMgMw1hvG1Sat5apLw==", "@spider": "aldi_us", "addr:street": "1786 Hilliard Rome Rd", "addr:city": "Hilliard", "addr:state": "OH", "addr:postcode": "43026", "name": "ALDI", "opening_hours": "Sa 09:00-20:00; Su-Mo 09:00-20:00; Tu 08:30-20:00; We 09:00-20:00; Th 08:30-20:00; Fr 09:00-20:00; ", "brand": "Aldi", "brand:wikidata": "Q125054"}, "geometry": {"type": "Point", "coordinates": [-83.14874, 39.98848]}},
{"type": "Feature", "id": "DlZPyOPSrZw1DvCm8xqJMCpDDI4=", "properties": {"ref": "ODxkTJXo2OJqzfGf6DAzsQ==", "@spider": "aldi_us", "addr:street": "2395 Silver Dr.", "addr:city": "Columbus", "addr:state": "OH", "addr:postcode": "43211", "name": "ALDI", "opening_hours": "Sa 09:00-20:00; Su-Mo 09:00-20:00; Tu 08:30-20:00; We 09:00-20:00; Th 08:30-20:00; Fr 09:00-20:00; ", "brand": "Aldi", "brand:wikidata": "Q125054"}, "geometry": {"type": "Point", "coordinates": [-82.9952, 40.013]}},
{"type": "Feature", "id": "jm6w0oo0cYjMOXx0pUq9iOkVMZA=", "properties": {"ref": "XMP4IXv7Nvgg-HeeYhP7KQ==", "@spider": "aldi_us", "addr:street": "8156 Orange Centre Dr", "addr:city": "Lewis Center", "addr:state": "OH", "addr:postcode": "43035", "name": "ALDI", "opening_hours": "Sa 09:00-20:00; Su-Mo 09:00-20:00; Tu 08:30-20:00; We 09:00-20:00; Th 08:30-20:00; Fr 09:00-20:00; ", "brand": "Aldi", "brand:wikidata": "Q125054"}, "geometry": {"type": "Point", "coordinates": [-83.02052, 40.17334]}},
{"type": "Feature", "id": "TjGf7pYHNHVh89ohqJbIAFJVv5s=", "properties": {"ref": "DgSeIsw7cB0Pt1I7zHpZ3A==", "@spider": "aldi_us", "addr:street": "2296 Morse Rd", "addr:city": "Columbus", "addr:state": "OH", "addr:postcode": "43229", "name": "ALDI", "opening_hours": "Sa 09:00-20:00; Su-Mo 09:00-20:00; Tu 08:30-20:00; We 09:00-20:00; Th 08:30-20:00; Fr 09:00-20:00; ", "brand": "Aldi", "brand:wikidata": "Q125054"}, "geometry": {"type": "Point", "coordinates": [-82.9576, 40.06059]}},
{"type": "Feature", "id": "r5BG6MwSeAvZ2n0JGdFKfm5ENi4=", "properties": {"ref": "FE2gleW8SSAYhmAzRZoS7g==", "@spider": "aldi_us", "addr:street": "5487 W Broad St", "addr:city": "Columbus", "addr:state": "OH", "addr:postcode": "43228", "name": "ALDI", "opening_hours": "Sa 09:00-20:00; Su-Mo 09:00-20:00; Tu 08:30-20:00; We 09:00-20:00; Th 08:30-20:00; Fr 09:00-20:00; ", "brand": "Aldi", "brand:wikidata": "Q125054"}, "geometry": {"type": "Point", "coordinates": [-83.1463, 39.95054]}},
{"type": "Feature", "id": "cMJ0aon5TlAJhwN3eBVAhwWUFpw=", "properties": {"ref": "8xJp-rhUQXb12WZyHC05Zg==", "@spider": "aldi_us", "addr:street": "4132 N. Belt Hwy.", "addr:city": "St. Joseph", "addr:state": "MO", "addr:postcode": "64506", "name": "ALDI", "opening_hours": "Sa 09:00-20:00; Su-Fr 09:00-20:00; ", "brand": "Aldi", "brand:wikidata": "Q125054"}, "geometry": {"type": "Point", "coordinates": [-94.81665, 39.80746]}},
{"type": "Feature", "id": "HI8nclH3MhkXNkQ6HlArz6mxLLo=", "properties": {"ref": "isqW9sco5S-7yk8cK3rEjg==", "@spider": "aldi_us", "addr:street": "3201 South Belt Hwy", "addr:city": "St. Joseph", "addr:state": "MO", "addr:postcode": "64503", "name": "ALDI", "opening_hours": "Sa 09:00-20:00; Su-Fr 09:00-20:00; ", "brand": "Aldi", "brand:wikidata": "Q125054"}, "geometry": {"type": "Point", "coordinates": [-94.79974, 39.73628]}},
{"type": "Feature", "id": "2rMMbCIlg2vlNcnEs4RkGh4KGvk=", "properties": {"ref": "0ONh01MqbSjnGwwrPtve2Q==", "@spider": "aldi_us", "addr:street": "2290 Harding Highway", "addr:city": "Lima", "addr:state": "OH", "addr:postcode": "45804", "name": "ALDI", "opening_hours": "Sa 09:00-20:00; Su-Mo 09:00-20:00; Tu 08:30-20:00; We 09:00-20:00; Th 08:30-20:00; Fr 09:00-20:00; ", "brand": "Aldi", "brand:wikidata": "Q125054"}, "geometry": {"type": "Point", "coordinates": [-84.06368, 40.73014]}},
{"type": "Feature", "id": "ntsE_sQUAsxZ_m1Iqgzu79WrhaI=", "properties": {"ref": "UlhvLBpNWLQkLCrns3A3DQ==", "@spider": "aldi_us", "addr:street": "3285 Elida Rd", "addr:city": "Lima", "addr:state": "OH", "addr:postcode": "45805", "name": "ALDI", "opening_hours": "Sa 09:00-20:00; Su-Mo 09:00-20:00; Tu 08:30-20:00; We 09:00-20:00; Th 08:30-20:00; Fr 09:00-20:00; ", "brand": "Aldi", "brand:wikidata": "Q125054"}, "geometry": {"type": "Point", "coordinates": [-84.16388, 40.76927]}},
{"type": "Feature", "id": "xs7s5mCi36nRuBwNhoIssYhnZX4=", "properties": {"ref": "4o8EbdR7dkUa5Aur4FQ7fw==", "@spider": "aldi_us", "addr:street": "1246 Bellefontaine St", "addr:city": "Wapakoneta", "addr:state": "OH", "addr:postcode": "45895", "name": "ALDI", "opening_hours": "Sa 09:00-20:00; Su-Mo 09:00-20:00; Tu 08:30-20:00; We 09:00-20:00; Th 08:30-20:00; Fr 09:00-20:00; ", "brand": "Aldi", "brand:wikidata": "Q125054"}, "geometry": {"type": "Point", "coordinates": [-84.17795, 40.56501]}},
{"type": "Feature", "id": "cvkdSiRKidm4HQVP8IDt6gEGorE=", "properties": {"ref": "65cgh8goBEwc_qnd5kWuyw==", "@spider": "aldi_us", "addr:street": "955 N. Lexington-Springmill", "addr:city": "Ontario", "addr:state": "OH", "addr:postcode": "44906", "name": "ALDI", "opening_hours": "Sa 09:00-20:00; Su-Mo 09:00-20:00; Tu 08:30-20:00; We 09:00-20:00; Th 08:30-20:00; Fr 09:00-20:00; ", "brand": "Aldi", "brand:wikidata": "Q125054"}, "geometry": {"type": "Point", "coordinates": [-82.59106, 40.77871]}},
{"type": "Feature", "id": "9DLfrljLk6pp6-VQ6_M1pDImbwI=", "properties": {"ref": "rMbBS_eUd90E4sMopXshYw==", "@spider": "aldi_us", "addr:street": "4801 Roe Lane", "addr:city": "Roeland Park", "addr:state": "KS", "addr:postcode": "66205", "name": "ALDI", "opening_hours": "Sa 09:00-20:00; Su-Fr 09:00-20:00; ", "brand": "Aldi", "brand:wikidata": "Q125054"}, "geometry": {"type": "Point", "coordinates": [-94.63916, 39.04084]}},
{"type": "Feature", "id": "Xkk0SaJrbfCfwLnZwCZul06PioY=", "properties": {"ref": "1lGDiArxdWR7m8QjPqEUSw==", "@spider": "aldi_us", "addr:street": "1243 E Ash St Ste 100", "addr:city": "Piqua", "addr:state": "OH", "addr:postcode": "45356", "name": "ALDI", "opening_hours": "Sa 09:00-20:00; Su-Mo 09:00-20:00; Tu 08:30-20:00; We 09:00-20:00; Th 08:30-20:00; Fr 09:00-20:00; ", "brand": "Aldi", "brand:wikidata": "Q125054"}, "geometry": {"type": "Point", "coordinates": [-84.21218, 40.1498]}},
{"type": "Feature", "id": "IxwK-8789LBgqSrJtsh370PVobA=", "properties": {"ref": "5T5imRst-1KSbsswPZ_Lgw==", "@spider": "aldi_us", "addr:street": "932 E State St", "addr:city": "Athens", "addr:state": "OH", "addr:postcode": "45701", "name": "ALDI", "opening_hours": "Sa 09:00-20:00; Su-Mo 09:00-20:00; Tu 08:30-20:00; We 09:00-20:00; Th 08:30-20:00; Fr 09:00-20:00; ", "brand": "Aldi", "brand:wikidata": "Q125054"}, "geometry": {"type": "Point", "coordinates": [-82.0659, 39.3373]}},
{"type": "Feature", "id": "CFKunC9zxtgHpI27CLNLMTIsWeE=", "properties": {"ref": "iuC0soveM14z7BQSRY2b3A==", "@spider": "aldi_us", "addr:street": "3830 Prospect Ave.", "addr:city": "Kansas City", "addr:state": "MO", "addr:postcode": "64128", "name": "ALDI", "opening_hours": "Sa 09:00-20:00; Su-Fr 09:00-20:00; ", "brand": "Aldi", "brand:wikidata": "Q125054"}, "geometry": {"type": "Point", "coordinates": [-94.55416, 39.05658]}},
{"type": "Feature", "id": "lIc7YQuI8SFipD5rdwgCTrEdyNc=", "properties": {"ref": "Oret6OU1WP-G_2HIIaBtsA==", "@spider": "aldi_us", "addr:street": "6415 Troost", "addr:city": "Kansas City", "addr:state": "MO", "addr:postcode": "64131", "name": "ALDI", "opening_hours": "Sa 09:00-20:00; Su-Fr 09:00-20:00; ", "brand": "Aldi", "brand:wikidata": "Q125054"}, "geometry": {"type": "Point", "coordinates": [-94.57368, 39.01052]}},
{"type": "Feature", "id": "-rk35YEwXK0zm0UzzNm-CEGUM38=", "properties": {"ref": "QT-P3O5e_Oj9ZeXgN3eKtg==", "@spider": "aldi_us", "addr:street": "7511 Wornall Road", "addr:city": "Kansas City", "addr:state": "MO", "addr:postcode": "64114", "name": "ALDI", "opening_hours": "Sa 09:00-20:00; Su-Fr 09:00-20:00; ", "brand": "Aldi", "brand:wikidata": "Q125054"}, "geometry": {"type": "Point", "coordinates": [-94.59277, 38.99159]}},
{"type": "Feature", "id": "XD5XxQT2Z0fgk9xDjTxVPQJAi_8=", "properties": {"ref": "szpP6CKbznH1aWUeO4cF9A==", "@spider": "aldi_us", "addr:street": "2500 Michigan St", "addr:city": "Sidney", "addr:state": "OH", "addr:postcode": "45365", "name": "ALDI", "opening_hours": "Sa 09:00-20:00; Su-Mo 09:00-20:00; Tu 08:30-20:00; We 09:00-20:00; Th 08:30-20:00; Fr 09:00-20:00; ", "brand": "Aldi", "brand:wikidata": "Q125054"}, "geometry": {"type": "Point", "coordinates": [-84.19318, 40.28828]}},
{"type": "Feature", "id": "b2f3VfV1vvSI8exjxfgVHIv984M=", "properties": {"ref": "waYX7A18LbAkt6UhLuPN8A==", "@spider": "aldi_us", "addr:street": "2175 US Highway 68 S", "addr:city": "Bellefontaine", "addr:state": "OH", "addr:postcode": "43311", "name": "ALDI", "opening_hours": "Sa 09:00-20:00; Su-Mo 09:00-20:00; Tu 08:30-20:00; We 09:00-20:00; Th 08:30-20:00; Fr 09:00-20:00; ", "brand": "Aldi", "brand:wikidata": "Q125054"}, "geometry": {"type": "Point", "coordinates": [-83.76062, 40.33007]}},
{"type": "Feature", "id": "72MYCPgS7DPY7eDw2uQIP1iItWc=", "properties": {"ref": "56JTpL1wAJGC-oH2nvKSAA==", "@spider": "aldi_us", "addr:street": "2091 N Bechtle Ave", "addr:city": "Springfield", "addr:state": "OH", "addr:postcode": "45504", "name": "ALDI", "opening_hours": "Sa 09:00-20:00; Su-Mo 09:00-20:00; Tu 08:30-20:00; We 09:00-20:00; Th 08:30-20:00; Fr 09:00-20:00; ", "brand": "Aldi", "brand:wikidata": "Q125054"}, "geometry": {"type": "Point", "coordinates": [-83.82905, 39.95327]}},
{"type": "Feature", "id": "9apUxItc5GBBxk2NT0A4U9Nn9Mk=", "properties": {"ref": "BIZhUMTFuoWyCmmr-IQpyg==", "@spider": "aldi_us", "addr:street": "8301 E Broad St", "addr:city": "Reynoldsburg", "addr:state": "OH", "addr:postcode": "43068", "name": "ALDI", "opening_hours": "Sa 09:00-20:00; Su-Mo 09:00-20:00; Tu 08:30-20:00; We 09:00-20:00; Th 08:30-20:00; Fr 09:00-20:00; ", "brand": "Aldi", "brand:wikidata": "Q125054"}, "geometry": {"type": "Point", "coordinates": [-82.78147, 39.9857]}},
{"type": "Feature", "id": "W1CQMcIF72KLlK8eMKv3jJWHQEo=", "properties": {"ref": "MPqYbyyG6g6LZ9lN0vazUw==", "@spider": "aldi_us", "addr:street": "5531 N Hamilton Rd", "addr:city": "Columbus", "addr:state": "OH", "addr:postcode": "43230", "name": "ALDI", "opening_hours": "Sa 09:00-20:00; Su-Mo 09:00-20:00; Tu 08:30-20:00; We 09:00-20:00; Th 08:30-20:00; Fr 09:00-20:00; ", "brand": "Aldi", "brand:wikidata": "Q125054"}, "geometry": {"type": "Point", "coordinates": [-82.86373, 40.06934]}},
{"type": "Feature", "id": "Mlpa5cscHqwGEnoNOEzFhQSj4Zw=", "properties": {"ref": "F0PhL2doHgFwCYtkj0-UQg==", "@spider": "aldi_us", "addr:street": "3831 E Main St", "addr:city": "Whitehall", "addr:state": "OH", "addr:postcode": "43213", "name": "ALDI", "opening_hours": "Sa 09:00-20:00; Su-Mo 09:00-20:00; Tu 08:30-20:00; We 09:00-20:00; Th 08:30-20:00; Fr 09:00-20:00; ", "brand": "Aldi", "brand:wikidata": "Q125054"}, "geometry": {"type": "Point", "coordinates": [-82.89635, 39.95542]}},
{"type": "Feature", "id": "xmujJVwD7eERXtXhdV9yMGT70x4=", "properties": {"ref": "RyVQrQGEQ5c_m0TvRbXfxw==", "@spider": "aldi_us", "addr:street": "2249 Akron Rd", "addr:city": "Wooster", "addr:state": "OH", "addr:postcode": "44691", "name": "ALDI", "opening_hours": "Sa 09:00-20:00; Su-Mo 09:00-20:00; Tu 08:30-20:00; We 09:00-20:00; Th 08:30-20:00; Fr 09:00-20:00; ", "brand": "Aldi", "brand:wikidata": "Q125054"}, "geometry": {"type": "Point", "coordinates": [-81.90743, 40.82749]}},
{"type": "Feature", "id": "OnKU--u6Mf_R5a1ZwC7qFsz5o54=", "properties": {"ref": "znIqyJiHZBLt9EM99s_wQw==", "@spider": "aldi_us", "addr:street": "176 Upper River Rd", "addr:city": "Gallipolis", "addr:state": "OH", "addr:postcode": "45631", "name": "ALDI", "opening_hours": "Sa 09:00-20:00; Su-Mo 09:00-20:00; Tu 08:30-20:00; We 09:00-20:00; Th 08:30-20:00; Fr 09:00-20:00; ", "brand": "Aldi", "brand:wikidata": "Q125054"}, "geometry": {"type": "Point", "coordinates": [-82.16201, 38.83019]}},
{"type": "Feature", "id": "E2Xy2HP5qX3Zi34prgMAv9kl-FU=", "properties": {"ref": "F4Urf3yiq-BttR-1xW73Kg==", "@spider": "aldi_us", "addr:street": "721 Paseo Blvd.", "addr:city": "Kansas City", "addr:state": "MO", "addr:postcode": "64106", "name": "ALDI", "opening_hours": "Sa 09:00-20:00; Su-Fr 09:00-20:00; ", "brand": "Aldi", "brand:wikidata": "Q125054"}, "geometry": {"type": "Point", "coordinates": [-94.56317, 39.10446]}},
{"type": "Feature", "id": "9-TS6wzfxLKepCQ6D7rbt2XyKeM=", "properties": {"ref": "GHGNVVvV9LtOpfDX5hQf5Q==", "@spider": "aldi_us", "addr:street": "6300 Independence Ave", "addr:city": "Kansas City", "addr:state": "MO", "addr:postcode": "64125", "name": "ALDI", "opening_hours": "Sa 09:00-20:00; Su-Fr 09:00-20:00; ", "brand": "Aldi", "brand:wikidata": "Q125054"}, "geometry": {"type": "Point", "coordinates": [-94.50787, 39.10563]}},
{"type": "Feature", "id": "fUvMzsV0Usw-7m1y_u0NuqNn25I=", "properties": {"ref": "bHwAzOiljimLp9s4zoFAsQ==", "@spider": "aldi_us", "addr:street": "3743 Burbank Road", "addr:city": "Wooster", "addr:state": "OH", "addr:postcode": "44691", "name": "ALDI", "opening_hours": "Sa 09:00-20:00; Su-Mo 09:00-20:00; Tu 08:30-20:00; We 09:00-20:00; Th 08:30-20:00; Fr 09:00-20:00; ", "brand": "Aldi", "brand:wikidata": "Q125054"}, "geometry": {"type": "Point", "coordinates": [-81.94291, 40.84558]}},
{"type": "Feature", "id": "-sIk15SjWQI2Y3wfIWUS8KbWhto=", "properties": {"ref": "1B7SoW7EVeTYmzmLMd6WNQ==", "@spider": "aldi_us", "addr:street": "4805 State Ave", "addr:city": "Kansas City", "addr:state": "KS", "addr:postcode": "66102", "name": "ALDI", "opening_hours": "Sa 09:00-20:00; Su-Fr 09:00-20:00; ", "brand": "Aldi", "brand:wikidata": "Q125054"}, "geometry": {"type": "Point", "coordinates": [-94.68984, 39.11596]}},
{"type": "Feature", "id": "fGzlwfB4xXWnedlupMiXWqjOvSw=", "properties": {"ref": "_fznc9fzSIxoRRZa88eahA==", "@spider": "aldi_us", "addr:street": "9215 E. 350 Hwy.", "addr:city": "Raytown", "addr:state": "MO", "addr:postcode": "64133", "name": "ALDI", "opening_hours": "Sa 09:00-20:00; Su-Fr 09:00-20:00; ", "brand": "Aldi", "brand:wikidata": "Q125054"}, "geometry": {"type": "Point", "coordinates": [-94.4744, 38.99394]}},
{"type": "Feature", "id": "632mNBW0_oAuNrzLpIpDQSb-u60=", "properties": {"ref": "Q8qydkUcilYLbfnqpXQkJQ==", "@spider": "aldi_us", "addr:street": "720 W Waterloo St", "addr:city": "Canal Winchester", "addr:state": "OH", "addr:postcode": "43110", "name": "ALDI", "opening_hours": "Sa 09:00-20:00; Su-Mo 09:00-20:00; Tu 08:30-20:00; We 09:00-20:00; Th 08:30-20:00; Fr 09:00-20:00; ", "brand": "Aldi", "brand:wikidata": "Q125054"}, "geometry": {"type": "Point", "coordinates": [-82.82608, 39.85579]}},
{"type": "Feature", "id": "fFJ-kdlTpKp1s5arABXJqxtq8is=", "properties": {"ref": "MCj-UCYyUCrR2Dvjgc-pqA==", "@spider": "aldi_us", "addr:street": "9337 Atlantic Blvd. Unit #1", "addr:city": "Jacksonville", "addr:state": "FL", "addr:postcode": "32225", "name": "ALDI", "opening_hours": "Sa 09:00-20:00; Su-Mo 09:00-20:00; Tu 08:30-20:00; We 09:00-20:00; Th 08:30-20:00; Fr 09:00-20:00; ", "brand": "Aldi", "brand:wikidata": "Q125054"}, "geometry": {"type": "Point", "coordinates": [-81.55755, 30.31899]}},
{"type": "Feature", "id": "qgPFgzYroT6McdT72yUnqAHXMpE=", "properties": {"ref": "rUbF47OodwO9TIIlEdM4MQ==", "@spider": "aldi_us", "addr:street": "4444 Town Center Parkway", "addr:city": "Jacksonville", "addr:state": "FL", "addr:postcode": "32246", "name": "ALDI", "opening_hours": "Sa 09:00-20:00; Su-Mo 09:00-20:00; Tu 08:30-20:00; We 09:00-20:00; Th 08:30-20:00; Fr 09:00-20:00; ", "brand": "Aldi", "brand:wikidata": "Q125054"}, "geometry": {"type": "Point", "coordinates": [-81.52903, 30.2642]}},
{"type": "Feature", "id": "o7Ei4QrILXQqvXDNgiq8Vntae4g=", "properties": {"ref": "p0-7LCbEqQN01rMsU4Ij6Q==", "@spider": "aldi_us", "addr:street": "3650 Phillips Highway", "addr:city": "Jacksonville", "addr:state": "FL", "addr:postcode": "32207", "name": "ALDI", "opening_hours": "Sa 09:00-20:00; Su-Mo 09:00-20:00; Tu 08:30-20:00; We 09:00-20:00; Th 08:30-20:00; Fr 09:00-20:00; ", "brand": "Aldi", "brand:wikidata": "Q125054"}, "geometry": {"type": "Point", "coordinates": [-81.63648, 30.28776]}},
{"type": "Feature", "id": "PBHVWD8czP6rOrXRfy1_YOQmH0c=", "properties": {"ref": "vha-mVwtedyw83vo_Fx8SA==", "@spider": "aldi_us", "addr:street": "3773 NW 13th Street", "addr:city": "Gainesville", "addr:state": "FL", "addr:postcode": "32609", "name": "ALDI", "opening_hours": "Sa 09:00-20:00; Su-Mo 09:00-20:00; Tu 08:30-20:00; We 09:00-20:00; Th 08:30-20:00; Fr 09:00-20:00; ", "brand": "Aldi", "brand:wikidata": "Q125054"}, "geometry": {"type": "Point", "coordinates": [-82.3382, 29.68757]}},
{"type": "Feature", "id": "8uuACXzwhpah0EWHtRl_IKEvQzQ=", "properties": {"ref": "40MNzTjny2sTMovTXLgnsA==", "@spider": "aldi_us", "addr:street": "3003 Clark Butler Blvd.", "addr:city": "Gainesville", "addr:state": "FL", "addr:postcode": "32608", "name": "ALDI", "opening_hours": "Sa 09:00-20:00; Su-Mo 09:00-20:00; Tu 08:30-20:00; We 09:00-20:00; Th 08:30-20:00; Fr 09:00-20:00; ", "brand": "Aldi", "brand:wikidata": "Q125054"}, "geometry": {"type": "Point", "coordinates": [-82.38188, 29.62625]}},
{"type": "Feature", "id": "dxyZpKGPCD_Gn2VsIfZ0cZneJLE=", "properties": {"ref": "vJzg6NSEDiNMD0H6Ku-XRg==", "@spider": "aldi_us", "addr:street": "320 Park Ridge Road", "addr:city": "Sullivan", "addr:state": "MO", "addr:postcode": "63080", "name": "ALDI", "opening_hours": "Sa 09:00-20:00; Su-Mo 09:00-20:00; Tu 08:30-20:00; We 09:00-20:00; Th 08:30-20:00; Fr 09:00-20:00; ", "brand": "Aldi", "brand:wikidata": "Q125054"}, "geometry": {"type": "Point", "coordinates": [-91.1584, 38.2208]}},
{"type": "Feature", "id": "KlpKN7U2VLTenNI4TlHCOnSUTWY=", "properties": {"ref": "b69QqZmahhgXffEv-4xq8g==", "@spider": "aldi_us", "addr:street": "8333 W 95th", "addr:city": "Overland Park", "addr:state": "KS", "addr:postcode": "66212", "name": "ALDI", "opening_hours": "Sa 09:00-20:00; Su-Fr 09:00-20:00; ", "brand": "Aldi", "brand:wikidata": "Q125054"}, "geometry": {"type": "Point", "coordinates": [-94.68217, 38.95662]}},
{"type": "Feature", "id": "Oh8zd1yzjZVHI7pnaq_7OUXVs2s=", "properties": {"ref": "ptM_ydIu6LIYQxH4PhRCHw==", "@spider": "aldi_us", "addr:street": "11004 East US Hwy. 40", "addr:city": "Independence", "addr:state": "MO", "addr:postcode": "64055", "name": "ALDI", "opening_hours": "Sa 09:00-20:00; Su-Fr 09:00-20:00; ", "brand": "Aldi", "brand:wikidata": "Q125054"}, "geometry": {"type": "Point", "coordinates": [-94.44922, 39.05099]}},
{"type": "Feature", "id": "F5-rDlYmGYehDK7sUV6FlEMWDvw=", "properties": {"ref": "g6bGk-G5XW9w00GJFg7TIw==", "@spider": "aldi_us", "addr:street": "10475 Blue Ridge Blvd", "addr:city": "Kansas City", "addr:state": "MO", "addr:postcode": "64134", "name": "ALDI", "opening_hours": "Sa 09:00-20:00; Su-Fr 09:00-20:00; ", "brand": "Aldi", "brand:wikidata": "Q125054"}, "geometry": {"type": "Point", "coordinates": [-94.50707, 38.93442]}},
{"type": "Feature", "id": "TjTSONm-9jYgO_yX_UrmU3Zntek=", "properties": {"ref": "f-kERCfs4HoATdtC0FiO9A==", "@spider": "aldi_us", "addr:street": "7043 Normandy Blvd", "addr:city": "Jacksonville", "addr:state": "FL", "addr:postcode": "32205", "name": "ALDI", "opening_hours": "Sa 09:00-20:00; Su-Mo 09:00-20:00; Tu 08:30-20:00; We 09:00-20:00; Th 08:30-20:00; Fr 09:00-20:00; ", "brand": "Aldi", "brand:wikidata": "Q125054"}, "geometry": {"type": "Point", "coordinates": [-81.76382, 30.30175]}},
{"type": "Feature", "id": "_yu5hZICEZav_raSVSyuJJiZPdo=", "properties": {"ref": "G3k-kxBwe9wf9546EjF5Bw==", "@spider": "aldi_us", "addr:street": "3945 South Hamilton Rd", "addr:city": "Groveport", "addr:state": "OH", "addr:postcode": "43125", "name": "ALDI", "opening_hours": "Sa 09:00-20:00; Su-Mo 09:00-20:00; Tu 08:30-20:00; We 09:00-20:00; Th 08:30-20:00; Fr 09:00-20:00; ", "brand": "Aldi", "brand:wikidata": "Q125054"}, "geometry": {"type": "Point", "coordinates": [-82.88331, 39.89421]}},
{"type": "Feature", "id": "swhJfwd6gSmOjbJ8PfZuu0SR6Zk=", "properties": {"ref": "FuUcyUMV8ZO4Bk5Qq_Mkcg==", "@spider": "aldi_us", "addr:street": "3230 E. Colonial Drive", "addr:city": "Orlando", "addr:state": "FL", "addr:postcode": "32803", "name": "ALDI", "opening_hours": "Sa 09:00-20:00; Su-Mo 09:00-20:00; Tu 08:30-20:00; We 09:00-20:00; Th 08:30-20:00; Fr 09:00-20:00; ", "brand": "Aldi", "brand:wikidata": "Q125054"}, "geometry": {"type": "Point", "coordinates": [-81.34112, 28.5516]}},
{"type": "Feature", "id": "-qxnntWZmiacHvf7eYjOTiP-cb0=", "properties": {"ref": "qWcEJPI41IiuOBAlv230GA==", "@spider": "aldi_us", "addr:street": "15324 Max Leggett Pkwy #200", "addr:city": "Jacksonville", "addr:state": "FL", "addr:postcode": "32218", "name": "ALDI", "opening_hours": "Sa 09:00-20:00; Su-Mo 09:00-20:00; Tu 08:30-20:00; We 09:00-20:00; Th 08:30-20:00; Fr 09:00-20:00; ", "brand": "Aldi", "brand:wikidata": "Q125054"}, "geometry": {"type": "Point", "coordinates": [-81.63646, 30.4855]}},
{"type": "Feature", "id": "YasuXZRayOT5iqHGBIA5CLBgUdo=", "properties": {"ref": "nOhc-twuy4uPvu6-STv0Vg==", "@spider": "aldi_us", "addr:street": "668 S. Jefferson", "addr:city": "Lebanon", "addr:state": "MO", "addr:postcode": "65536", "name": "ALDI", "opening_hours": "Sa 09:00-20:00; Su-Fr 09:00-20:00; ", "brand": "Aldi", "brand:wikidata": "Q125054"}, "geometry": {"type": "Point", "coordinates": [-92.65654, 37.67617]}},
{"type": "Feature", "id": "fV5JHSxzriBD-aKzRO1erSC-eBo=", "properties": {"ref": "MWe2qjjmPzsDzhT1YDDj8g==", "@spider": "aldi_us", "addr:street": "1210 Missouri Ave", "addr:city": "West Plains", "addr:state": "MO", "addr:postcode": "65775", "name": "ALDI", "opening_hours": "Sa 09:00-20:00; Su-Fr 09:00-20:00; ", "brand": "Aldi", "brand:wikidata": "Q125054"}, "geometry": {"type": "Point", "coordinates": [-91.8703, 36.7432]}},
{"type": "Feature", "id": "LS8wTyYPUhBmLRVS5u3X-p97oMk=", "properties": {"ref": "LmCDNRLStSHkygk3hq5OZg==", "@spider": "aldi_us", "addr:street": "2413 Missouri Blvd.", "addr:city": "Jefferson City", "addr:state": "MO", "addr:postcode": "65109", "name": "ALDI", "opening_hours": "Sa 08:30-20:00; Su-Fr 08:30-20:00; ", "brand": "Aldi", "brand:wikidata": "Q125054"}, "geometry": {"type": "Point", "coordinates": [-92.21016, 38.58015]}},
{"type": "Feature", "id": "fgf1jQZqgXthOYpt0WAnT3SiSSw=", "properties": {"ref": "ddYkpBrvxRo2vDpgXpvqSQ==", "@spider": "aldi_us", "addr:street": "700 Aldi Drive", "addr:city": "Rolla", "addr:state": "MO", "addr:postcode": "65401", "name": "ALDI", "opening_hours": "Sa 09:00-20:00; Su-Mo 09:00-20:00; Tu 08:30-20:00; We 09:00-20:00; Th 08:30-20:00; Fr 09:00-20:00; ", "brand": "Aldi", "brand:wikidata": "Q125054"}, "geometry": {"type": "Point", "coordinates": [-91.7803, 37.931]}},
{"type": "Feature", "id": "E8LQ3UZpHul3a5DP_D576ln49DY=", "properties": {"ref": "rNKzllD-l16TNpJnd1BF9w==", "@spider": "aldi_us", "addr:street": "15105 W 67th", "addr:city": "Shawnee", "addr:state": "KS", "addr:postcode": "66217", "name": "ALDI", "opening_hours": "Sa 09:00-20:00; Su-Fr 09:00-20:00; ", "brand": "Aldi", "brand:wikidata": "Q125054"}, "geometry": {"type": "Point", "coordinates": [-94.76187, 39.00698]}},
{"type": "Feature", "id": "I0uGDygqkhy3FSirC5xoDZqcgCw=", "properties": {"ref": "ZUYcMTcyV5vORlXXzEE3xA==", "@spider": "aldi_us", "addr:street": "15751 W 87th Street Parkway", "addr:city": "Lenexa", "addr:state": "KS", "addr:postcode": "66219", "name": "ALDI", "opening_hours": "Sa 09:00-20:00; Su-Fr 09:00-20:00; ", "brand": "Aldi", "brand:wikidata": "Q125054"}, "geometry": {"type": "Point", "coordinates": [-94.76891, 38.96989]}},
{"type": "Feature", "id": "H2urizMxwjNQ1YXc7QXADceQAEY=", "properties": {"ref": "nv7DsgciWVuPkSYRBIrd9w==", "@spider": "aldi_us", "addr:street": "15290 W. 119th Street", "addr:city": "Olathe", "addr:state": "KS", "addr:postcode": "66062", "name": "ALDI", "opening_hours": "Sa 09:00-20:00; Su-Fr 09:00-20:00; ", "brand": "Aldi", "brand:wikidata": "Q125054"}, "geometry": {"type": "Point", "coordinates": [-94.76314, 38.91534]}},
{"type": "Feature", "id": "oBYsANAkrbLHHb5dzrI_xGYBVbE=", "properties": {"ref": "619AYYXSqVAr25qumqOJNg==", "@spider": "aldi_us", "addr:street": "10950 San Jose Blvd.", "addr:city": "Jacksonville", "addr:state": "FL", "addr:postcode": "32223", "name": "ALDI", "opening_hours": "Sa 09:00-20:00; Su-Mo 09:00-20:00; Tu 08:30-20:00; We 09:00-20:00; Th 08:30-20:00; Fr 09:00-20:00; ", "brand": "Aldi", "brand:wikidata": "Q125054"}, "geometry": {"type": "Point", "coordinates": [-81.62915, 30.17692]}},
{"type": "Feature", "id": "WKJGVKa7RnHovqNvjGjZAiz01GU=", "properties": {"ref": "KimWIuXwtceHO-g4N7XLLA==", "@spider": "aldi_us", "addr:street": "9445 Argyle Forest Blvd.", "addr:city": "Jacksonville", "addr:state": "FL", "addr:postcode": "32222", "name": "ALDI", "opening_hours": "Sa 09:00-20:00; Su-Mo 09:00-20:00; Tu 08:30-20:00; We 09:00-20:00; Th 08:30-20:00; Fr 09:00-20:00; ", "brand": "Aldi", "brand:wikidata": "Q125054"}, "geometry": {"type": "Point", "coordinates": [-81.82241, 30.19592]}},
{"type": "Feature", "id": "a2Fdw3ceIkBC4pnY6gQzzCcUkYc=", "properties": {"ref": "cj24OIoJ3CFaqE2ZH5fBeA==", "@spider": "aldi_us", "addr:street": "661 Blanding Blvd Suite 301", "addr:city": "Orange Park", "addr:state": "FL", "addr:postcode": "32073", "name": "ALDI", "opening_hours": "Sa 09:00-20:00; Su-Mo 09:00-20:00; Tu 08:30-20:00; We 09:00-20:00; Th 08:30-20:00; Fr 09:00-20:00; ", "brand": "Aldi", "brand:wikidata": "Q125054"}, "geometry": {"type": "Point", "coordinates": [-81.75299, 30.14887]}},
{"type": "Feature", "id": "GT8HByWRFmDS64EZzB2nZfvW8U8=", "properties": {"ref": "Eu7c_0NGtAg8aBXmgTc6SA==", "@spider": "aldi_us", "addr:street": "1900 S. Semoran Blvd", "addr:city": "Orlando", "addr:state": "FL", "addr:postcode": "32822", "name": "ALDI", "opening_hours": "Sa 09:00-20:00; Su-Mo 09:00-20:00; Tu 08:30-20:00; We 09:00-20:00; Th 08:30-20:00; Fr 09:00-20:00; ", "brand": "Aldi", "brand:wikidata": "Q125054"}, "geometry": {"type": "Point", "coordinates": [-81.31206, 28.51994]}},
{"type": "Feature", "id": "Sr6tdGd2ItXqQB64MTA4spic4xM=", "properties": {"ref": "Mi8_uQeHHcRk-YUFZl-6Iw==", "@spider": "aldi_us", "addr:street": "4607 S Orange Blossom Trail", "addr:city": "Orlando", "addr:state": "FL", "addr:postcode": "32839", "name": "ALDI", "opening_hours": "Sa 09:00-20:00; Su-Mo 09:00-20:00; Tu 08:30-20:00; We 09:00-20:00; Th 08:30-20:00; Fr 09:00-20:00; ", "brand": "Aldi", "brand:wikidata": "Q125054"}, "geometry": {"type": "Point", "coordinates": [-81.39605, 28.49789]}},
{"type": "Feature", "id": "lKlMwrhNivZF1ZFwdWL5U0LhLEs=", "properties": {"ref": "uf3Hnz9Jmh0gC8xzKRZpCg==", "@spider": "aldi_us", "addr:street": "765 W. Sandlake Rd", "addr:city": "Orlando", "addr:state": "FL", "addr:postcode": "32809", "name": "ALDI", "opening_hours": "Sa 09:00-20:00; Su-Mo 09:00-20:00; Tu 08:30-20:00; We 09:00-20:00; Th 08:30-20:00; Fr 09:00-20:00; ", "brand": "Aldi", "brand:wikidata": "Q125054"}, "geometry": {"type": "Point", "coordinates": [-81.3855, 28.45164]}},
{"type": "Feature", "id": "ogPRCYOAvgv7jZDwMlsYO3avSCY=", "properties": {"ref": "-jHJuFArgnIgPbopHaF_Fg==", "@spider": "aldi_us", "addr:street": "6766 Aloma Ave", "addr:city": "Winter Park", "addr:state": "FL", "addr:postcode": "32792", "name": "ALDI", "opening_hours": "Sa 09:00-20:00; Su-Mo 09:00-20:00; Tu 08:30-20:00; We 09:00-20:00; Th 08:30-20:00; Fr 09:00-20:00; ", "brand": "Aldi", "brand:wikidata": "Q125054"}, "geometry": {"type": "Point", "coordinates": [-81.298, 28.60526]}},
{"type": "Feature", "id": "CtDLTfE_WiVvEa0dB9DTf5dCTp8=", "properties": {"ref": "gdlaiUCFb3RpixjeAbPPjQ==", "@spider": "aldi_us", "addr:street": "3109 N. Broadway", "addr:city": "Pittsburg", "addr:state": "KS", "addr:postcode": "66762", "name": "ALDI", "opening_hours": "Sa 09:00-20:00; Su-Fr 09:00-20:00; ", "brand": "Aldi", "brand:wikidata": "Q125054"}, "geometry": {"type": "Point", "coordinates": [-94.70618, 37.43999]}},
{"type": "Feature", "id": "5_5jshHuZV0l87Tl3ikXvh3RlnA=", "properties": {"ref": "eRzzBkulRhoYgyt1AUj8-w==", "@spider": "aldi_us", "addr:street": "5524 W. Colonial Dr Suite B", "addr:city": "Orlando", "addr:state": "FL", "addr:postcode": "32808", "name": "ALDI", "opening_hours": "Sa 09:00-20:00; Su-Mo 09:00-20:00; Tu 08:30-20:00; We 09:00-20:00; Th 08:30-20:00; Fr 09:00-20:00; ", "brand": "Aldi", "brand:wikidata": "Q125054"}, "geometry": {"type": "Point", "coordinates": [-81.45535, 28.55136]}},
{"type": "Feature", "id": "s-9_UailFIAc1yOcAk7E0dSfHeo=", "properties": {"ref": "NMT3rCfpa4Lp81nuXsh4BQ==", "@spider": "aldi_us", "addr:street": "7031 Narcoossee Rd", "addr:city": "Orlando", "addr:state": "FL", "addr:postcode": "32822", "name": "ALDI", "opening_hours": "Sa 09:00-20:00; Su-Mo 09:00-20:00; Tu 08:30-20:00; We 09:00-20:00; Th 08:30-20:00; Fr 09:00-20:00; ", "brand": "Aldi", "brand:wikidata": "Q125054"}, "geometry": {"type": "Point", "coordinates": [-81.27372, 28.4643]}},
{"type": "Feature", "id": "tGedY69nQpc4XI_YeYis7pKDVro=", "properties": {"ref": "XpaJVhdcRrgyq-NyTgDqbQ==", "@spider": "aldi_us", "addr:street": "10401 Curry Ford Road", "addr:city": "Orlando", "addr:state": "FL", "addr:postcode": "32825", "name": "ALDI", "opening_hours": "Sa 09:00-20:00; Su-Mo 09:00-20:00; Tu 08:30-20:00; We 09:00-20:00; Th 08:30-20:00; Fr 09:00-20:00; ", "brand": "Aldi", "brand:wikidata": "Q125054"}, "geometry": {"type": "Point", "coordinates": [-81.23627, 28.51066]}},
{"type": "Feature", "id": "IEBlYH3_Wj36LmUAnYUR9w19E0M=", "properties": {"ref": "sIJofZUsANiL64XhpapDhg==", "@spider": "aldi_us", "addr:street": "10537 E. Colonial Dr", "addr:city": "Orlando", "addr:state": "FL", "addr:postcode": "32817", "name": "ALDI", "opening_hours": "Sa 09:00-20:00; Su-Mo 09:00-20:00; Tu 08:30-20:00; We 09:00-20:00; Th 08:30-20:00; Fr 09:00-20:00; ", "brand": "Aldi", "brand:wikidata": "Q125054"}, "geometry": {"type": "Point", "coordinates": [-81.23314, 28.571]}},
{"type": "Feature", "id": "GqZXP4JXMS3Ix3DsqZyqURHB6cA=", "properties": {"ref": "R2EhmIu1wxJRTi-2OSbdwQ==", "@spider": "aldi_us", "addr:street": "3701 W. Broadway", "addr:city": "Sedalia", "addr:state": "MO", "addr:postcode": "65301", "name": "ALDI", "opening_hours": "Sa 09:00-20:00; Su-Fr 09:00-20:00; ", "brand": "Aldi", "brand:wikidata": "Q125054"}, "geometry": {"type": "Point", "coordinates": [-93.27547, 38.71133]}},
{"type": "Feature", "id": "ecbwxBIRL3K1HbQxod2LWnlg9O0=", "properties": {"ref": "jvmnp7j8RnpwJlisghlyHQ==", "@spider": "aldi_us", "addr:street": "153 State Road 436", "addr:city": "Casselberry", "addr:state": "FL", "addr:postcode": "32730", "name": "ALDI", "opening_hours": "Sa 09:00-20:00; Su-Mo 09:00-20:00; Tu 08:30-20:00; We 09:00-20:00; Th 08:30-20:00; Fr 09:00-20:00; ", "brand": "Aldi", "brand:wikidata": "Q125054"}, "geometry": {"type": "Point", "coordinates": [-81.34031, 28.65875]}},
{"type": "Feature", "id": "VilZnsM8kb3GcApp32M0hqA3N2s=", "properties": {"ref": "U3TQYgoDH7kUaeDaFNL-zA==", "@spider": "aldi_us", "addr:street": "924 State Road 436 #1410", "addr:city": "Altamonte Springs", "addr:state": "FL", "addr:postcode": "32714", "name": "ALDI", "opening_hours": "Sa 09:00-20:00; Su-Mo 09:00-20:00; Tu 08:30-20:00; We 09:00-20:00; Th 08:30-20:00; Fr 09:00-20:00; ", "brand": "Aldi", "brand:wikidata": "Q125054"}, "geometry": {"type": "Point", "coordinates": [-81.42066, 28.66405]}},
{"type": "Feature", "id": "Wz1Q-SP9zIZkuh-fprATbfUgPUQ=", "properties": {"ref": "cg9GoH9Fb5jZdiwKfyq7jw==", "@spider": "aldi_us", "addr:street": "1268 Alafaya Trail", "addr:city": "Oviedo", "addr:state": "FL", "addr:postcode": "32765", "name": "ALDI", "opening_hours": "Sa 09:00-20:00; Su-Mo 09:00-20:00; Tu 08:30-20:00; We 09:00-20:00; Th 08:30-20:00; Fr 09:00-20:00; ", "brand": "Aldi", "brand:wikidata": "Q125054"}, "geometry": {"type": "Point", "coordinates": [-81.20925, 28.65276]}},
{"type": "Feature", "id": "PUBEed3OJEDgSjPGdzI1SNxRHLM=", "properties": {"ref": "4L1cJp8BoWH9diF5lZy-JQ==", "@spider": "aldi_us", "addr:street": "2875 S. Clark Street", "addr:city": "Mexico", "addr:state": "MO", "addr:postcode": "65265", "name": "ALDI", "opening_hours": "Sa 09:00-20:00; Su-Mo 09:00-20:00; Tu 08:30-20:00; We 09:00-20:00; Th 08:30-20:00; Fr 09:00-20:00; ", "brand": "Aldi", "brand:wikidata": "Q125054"}, "geometry": {"type": "Point", "coordinates": [-91.8916, 39.1466]}},
{"type": "Feature", "id": "qqqKF37zROyX3uJVEJdjDGRfVFo=", "properties": {"ref": "dylQ8NykacTgC4zegx0dUA==", "@spider": "aldi_us", "addr:street": "400 Hwy. 24 East", "addr:city": "Moberly", "addr:state": "MO", "addr:postcode": "65270", "name": "ALDI", "opening_hours": "Sa 09:00-20:00; Su-Mo 09:00-20:00; Tu 08:30-20:00; We 09:00-20:00; Th 08:30-20:00; Fr 09:00-20:00; ", "brand": "Aldi", "brand:wikidata": "Q125054"}, "geometry": {"type": "Point", "coordinates": [-92.4308, 39.4421]}},
{"type": "Feature", "id": "yeg6oI8t9gNGONsvEVh3qJwG4x8=", "properties": {"ref": "0jy2Q_NqXXcbScyw-1rEOA==", "@spider": "aldi_us", "addr:street": "3379 Main Street", "addr:city": "Keokuk", "addr:state": "IA", "addr:postcode": "52632", "name": "ALDI", "opening_hours": "Sa 09:00-20:00; Su-Mo 09:00-20:00; Tu 08:30-20:00; We 09:00-20:00; Th 08:30-20:00; Fr 09:00-20:00; ", "brand": "Aldi", "brand:wikidata": "Q125054"}, "geometry": {"type": "Point", "coordinates": [-91.4095, 40.4212]}},
{"type": "Feature", "id": "qr6GzBovRbOGtnd85iCrbXLu4u8=", "properties": {"ref": "iOEDSvAKtOra43FGr0z42A==", "@spider": "aldi_us", "addr:street": "1309 East Washington", "addr:city": "Mount Pleasant", "addr:state": "IA", "addr:postcode": "52641", "name": "ALDI", "opening_hours": "Sa 09:00-20:00; Su-Mo 09:00-20:00; Tu 08:30-20:00; We 09:00-20:00; Th 08:30-20:00; Fr 09:00-20:00; ", "brand": "Aldi", "brand:wikidata": "Q125054"}, "geometry": {"type": "Point", "coordinates": [-91.5336, 40.9639]}},
{"type": "Feature", "id": "4nN7o2eYD4oT_TpLOp1b2dwJVHA=", "properties": {"ref": "KZ22qgod3-fXh9sYuJH2ng==", "@spider": "aldi_us", "addr:street": "2115 N. Baltimore", "addr:city": "Kirksville", "addr:state": "MO", "addr:postcode": "63501", "name": "ALDI", "opening_hours": "Sa 09:00-20:00; Su-Mo 09:00-20:00; Tu 08:30-20:00; We 09:00-20:00; Th 08:30-20:00; Fr 09:00-20:00; ", "brand": "Aldi", "brand:wikidata": "Q125054"}, "geometry": {"type": "Point", "coordinates": [-92.5838, 40.2141]}},
{"type": "Feature", "id": "0L7-mTNduS2j7DE8B-G00-smhsw=", "properties": {"ref": "oiNYDMcIslW1U0B2fDGKJg==", "@spider": "aldi_us", "addr:street": "3511 Broadway", "addr:city": "Quincy", "addr:state": "IL", "addr:postcode": "62301", "name": "ALDI", "opening_hours": "Sa 09:00-20:00; Su-Mo 09:00-20:00; Tu 08:30-20:00; We 09:00-20:00; Th 08:30-20:00; Fr 09:00-20:00; ", "brand": "Aldi", "brand:wikidata": "Q125054"}, "geometry": {"type": "Point", "coordinates": [-91.3596, 39.9358]}},
{"type": "Feature", "id": "mBgfup9hgJmVde-g5mjMoWXa44M=", "properties": {"ref": "UBu40d4DhqzO58KWzrnt9Q==", "@spider": "aldi_us", "addr:street": "329 East Morton", "addr:city": "Jacksonville", "addr:state": "IL", "addr:postcode": "62650", "name": "ALDI", "opening_hours": "Sa 09:00-20:00; Su-Mo 09:00-20:00; Tu 08:30-20:00; We 09:00-20:00; Th 08:30-20:00; Fr 09:00-20:00; ", "brand": "Aldi", "brand:wikidata": "Q125054"}, "geometry": {"type": "Point", "coordinates": [-90.2254, 39.7228]}},
{"type": "Feature", "id": "WNs8dWm2dkRav-NCqJYU0dsvIeI=", "properties": {"ref": "uRNLfpIo0LsCumN52ft-uA==", "@spider": "aldi_us", "addr:street": "4419 McMasters Avenue", "addr:city": "Hannibal", "addr:state": "MO", "addr:postcode": "63401", "name": "ALDI", "opening_hours": "Sa 09:00-20:00; Su-Mo 09:00-20:00; Tu 08:30-20:00; We 09:00-20:00; Th 08:30-20:00; Fr 09:00-20:00; ", "brand": "Aldi", "brand:wikidata": "Q125054"}, "geometry": {"type": "Point", "coordinates": [-91.3948, 39.7224]}},
{"type": "Feature", "id": "4jbQCsq17cPf6s2XevtSge-5PgA=", "properties": {"ref": "04WmffvLUKlbAdUWJZoSPg==", "@spider": "aldi_us", "addr:street": "1191 County Road 66", "addr:city": "Hornell", "addr:state": "NY", "addr:postcode": "14843", "name": "ALDI", "opening_hours": "Sa 09:00-20:00; Su-Mo 09:00-20:00; Tu 08:30-20:00; We 09:00-20:00; Th 08:30-20:00; Fr 09:00-20:00; ", "brand": "Aldi", "brand:wikidata": "Q125054"}, "geometry": {"type": "Point", "coordinates": [-77.6726, 42.3667]}},
{"type": "Feature", "id": "592Nt0S6TrX6kw3Yi4oVHWRp83Q=", "properties": {"ref": "fRdjoevvbUYtjBD-70etCQ==", "@spider": "aldi_us", "addr:street": "1711 Waldron", "addr:city": "Hutchinson", "addr:state": "KS", "addr:postcode": "67502", "name": "ALDI", "opening_hours": "Sa 09:00-20:00; Su-Fr 09:00-20:00; ", "brand": "Aldi", "brand:wikidata": "Q125054"}, "geometry": {"type": "Point", "coordinates": [-97.89804, 38.07434]}},
{"type": "Feature", "id": "AEgIzIZzSmmg0UUU-HBlclEOzX8=", "properties": {"ref": "KgLm6S0bQm9iTwI4_Ge6ZA==", "@spider": "aldi_us", "addr:street": "2403 South 9th Street", "addr:city": "Salina", "addr:state": "KS", "addr:postcode": "67401", "name": "ALDI", "opening_hours": "Sa 09:00-20:00; Su-Fr 09:00-20:00; ", "brand": "Aldi", "brand:wikidata": "Q125054"}, "geometry": {"type": "Point", "coordinates": [-97.61222, 38.79755]}},
{"type": "Feature", "id": "G0tAQd_dNdp0WxIiBj1a2XEP94Y=", "properties": {"ref": "eaxmIzzs85vuI7ZUK7gWIA==", "@spider": "aldi_us", "addr:street": "7701 Olive Blvd", "addr:city": "University City", "addr:state": "MO", "addr:postcode": "63130", "name": "ALDI", "opening_hours": "Sa 09:00-20:00; Su-Mo 09:00-20:00; Tu 08:30-20:00; We 09:00-20:00; Th 08:30-20:00; Fr 09:00-20:00; ", "brand": "Aldi", "brand:wikidata": "Q125054"}, "geometry": {"type": "Point", "coordinates": [-90.3369, 38.6731]}},