{"type":"FeatureCollection","features":[{"type": "Feature", "id": "aOQ_M4L39jDxAkjeQOJ-X9gqzzE=", "properties": {"ref": "1652", "@spider": "davita", "addr:full": "30 Waterchase Dr", "addr:city": "Rocky Hill", "addr:state": "CT", "addr:postcode": "06067-2110", "name": "DaVita Pdi-rocky Hill", "phone": "1-800-424-6589", "website": "https://davita.com/locations/1652", "brand": "DaVita"}, "geometry": {"type": "Point", "coordinates": [-72.654002, 41.676726]}},
{"type": "Feature", "id": "d34sWXqxayC0ATZG-YUSjrJUB1o=", "properties": {"ref": "1653", "@spider": "davita", "addr:full": "100 Main St", "addr:city": "Middletown", "addr:state": "CT", "addr:postcode": "06457-3422", "name": "DaVita Pdi-middlesex Dialysis Center", "phone": "1-800-424-6589", "website": "https://davita.com/locations/1653", "brand": "DaVita"}, "geometry": {"type": "Point", "coordinates": [-72.6506488, 41.5623209]}},
{"type": "Feature", "id": "CYudAOD9YsE0ZPetb5R6o3ff2Ts=", "properties": {"ref": "1819", "@spider": "davita", "addr:full": "460 Hartford Tpke Ste C", "addr:city": "Vernon", "addr:state": "CT", "addr:postcode": "06066-4847", "name": "DaVita Vernon Dialysis Center", "phone": "1-800-424-6589", "website": "https://davita.com/locations/1819", "brand": "DaVita"}, "geometry": {"type": "Point", "coordinates": [-72.479401, 41.8296619]}},
{"type": "Feature", "id": "DL4n4CLTyFGNXyR5qew_QtZcbO4=", "properties": {"ref": "1820", "@spider": "davita", "addr:full": "375 Tuckie Rd", "addr:city": "North Windham", "addr:state": "CT", "addr:postcode": "06256-1345", "name": "DaVita Windham Dialysis Center", "phone": "1-800-424-6589", "website": "https://davita.com/locations/1820", "brand": "DaVita"}, "geometry": {"type": "Point", "coordinates": [-72.1827775, 41.7328338]}},
{"type": "Feature", "id": "u74g4Jgzw2mf_8O3Jc0Rm525KM4=", "properties": {"ref": "2345", "@spider": "davita", "addr:full": "150 Mattatuck Heights Rd", "addr:city": "Waterbury", "addr:state": "CT", "addr:postcode": "06705-3893", "name": "DaVita Waterbury Dialysis Center", "phone": "1-800-424-6589", "website": "https://davita.com/locations/2345", "brand": "DaVita"}, "geometry": {"type": "Point", "coordinates": [-72.984447, 41.540221]}},
{"type": "Feature", "id": "jOVHkBesIAOtIuWiVQ_FfnDn9Wk=", "properties": {"ref": "2501", "@spider": "davita", "addr:full": "900 Madison Ave", "addr:city": "Bridgeport", "addr:state": "CT", "addr:postcode": "06606-5534", "name": "DaVita Bridgeport Dialysis", "phone": "1-800-424-6589", "website": "https://davita.com/locations/2501", "brand": "DaVita"}, "geometry": {"type": "Point", "coordinates": [-73.2053724, 41.1934709]}},
{"type": "Feature", "id": "jGGKRWYucRaN-w78ZwB_aPKaK6M=", "properties": {"ref": "2503", "@spider": "davita", "addr:full": "209 Highland Ave", "addr:city": "Waterbury", "addr:state": "CT", "addr:postcode": "06708-3055", "name": "DaVita Greater Waterbury Dialysis", "phone": "1-800-424-6589", "website": "https://davita.com/locations/2503", "brand": "DaVita"}, "geometry": {"type": "Point", "coordinates": [-73.0587918, 41.5510401]}},
{"type": "Feature", "id": "eWbnX0tGdEdYSwYCPp96sdqvy0M=", "properties": {"ref": "2506", "@spider": "davita", "addr:full": "750 Bridgeport Ave", "addr:city": "Shelton", "addr:state": "CT", "addr:postcode": "06484-4734", "name": "DaVita Shelton Dialysis", "phone": "1-800-424-6589", "website": "https://davita.com/locations/2506", "brand": "DaVita"}, "geometry": {"type": "Point", "coordinates": [-73.1253862, 41.2735441]}},
{"type": "Feature", "id": "il-iZnmwX3Ie0oMSf5UAdCQPXHI=", "properties": {"ref": "2524", "@spider": "davita", "addr:full": "675 Tower Ave", "addr:city": "Hartford", "addr:state": "CT", "addr:postcode": "06112-1260", "name": "DaVita Hartford Dialysis", "phone": "1-800-424-6589", "website": "https://davita.com/locations/2524", "brand": "DaVita"}, "geometry": {"type": "Point", "coordinates": [-72.6936437, 41.8007171]}},
{"type": "Feature", "id": "mVOXbnRrZ6ZXO5TMpNgWAr7fXgE=", "properties": {"ref": "3043", "@spider": "davita", "addr:full": "15 Center St", "addr:city": "New Haven", "addr:state": "CT", "addr:postcode": "06510-3003", "name": "DaVita New Haven Dialysis", "phone": "1-800-424-6589", "website": "https://davita.com/locations/3043", "brand": "DaVita"}, "geometry": {"type": "Point", "coordinates": [-72.929473, 41.300554]}},
{"type": "Feature", "id": "UyE-jYaJi7PyrKhSR2iakCBsUjo=", "properties": {"ref": "3254", "@spider": "davita", "addr:full": "5 Shaws Cove", "addr:city": "New London", "addr:state": "CT", "addr:postcode": "06320-4974", "name": "DaVita New London Dialysis", "phone": "1-800-424-6589", "website": "https://davita.com/locations/3254", "brand": "DaVita"}, "geometry": {"type": "Point", "coordinates": [-72.1005387, 41.3457874]}},
{"type": "Feature", "id": "EjtZTu8-vO0AvER81Dzuqhgw2bA=", "properties": {"ref": "3342", "@spider": "davita", "addr:full": "30 Commerce Rd", "addr:city": "Stamford", "addr:state": "CT", "addr:postcode": "06902-4550", "name": "DaVita Stamford Dialysis", "phone": "1-800-424-6589", "website": "https://davita.com/locations/3342", "brand": "DaVita"}, "geometry": {"type": "Point", "coordinates": [-73.561626, 41.045954]}},
{"type": "Feature", "id": "sT9h9wpQM363dp3T_wQDZN_PbWA=", "properties": {"ref": "3352", "@spider": "davita", "addr:full": "113 Salem Tpke", "addr:city": "Norwich", "addr:state": "CT", "addr:postcode": "06360-6484", "name": "DaVita Norwich Dialysis", "phone": "1-800-424-6589", "website": "https://davita.com/locations/3352", "brand": "DaVita"}, "geometry": {"type": "Point", "coordinates": [-72.1119619, 41.5118018]}},
{"type": "Feature", "id": "s3pDkuRE_JUC1WlkEP5fThyNgyU=", "properties": {"ref": "3385", "@spider": "davita", "addr:full": "249 W Main St", "addr:city": "Branford", "addr:state": "CT", "addr:postcode": "06405-4048", "name": "DaVita Branford Dialysis", "phone": "1-800-424-6589", "website": "https://davita.com/locations/3385", "brand": "DaVita"}, "geometry": {"type": "Point", "coordinates": [-72.8540186, 41.278238]}},
{"type": "Feature", "id": "B9DtFoqnQccUO0SQ4mdJSSLv8EA=", "properties": {"ref": "3389", "@spider": "davita", "addr:full": "470 Bridgeport Ave", "addr:city": "Milford", "addr:state": "CT", "addr:postcode": "06460-4167", "name": "DaVita Milford Dialysis", "phone": "1-800-424-6589", "website": "https://davita.com/locations/3389", "brand": "DaVita"}, "geometry": {"type": "Point", "coordinates": [-73.0907743, 41.2062505]}},
{"type": "Feature", "id": "uMPUmcLPco_X_BO4-cJQpgZKNdM=", "properties": {"ref": "3422", "@spider": "davita", "addr:full": "666 West Ave", "addr:city": "Norwalk", "addr:state": "CT", "addr:postcode": "06850-4009", "name": "DaVita South Norwalk Dialysis", "phone": "1-800-424-6589", "website": "https://davita.com/locations/3422", "brand": "DaVita"}, "geometry": {"type": "Point", "coordinates": [-73.4220943, 41.1103207]}},
{"type": "Feature", "id": "WKqbBHCw1wSPZU7-kzsbB5B-Ej4=", "properties": {"ref": "3639", "@spider": "davita", "addr:full": "780 Litchfield St", "addr:city": "Torrington", "addr:state": "CT", "addr:postcode": "06790-6268", "name": "DaVita Torrington Dialysis", "phone": "1-800-424-6589", "website": "https://davita.com/locations/3639", "brand": "DaVita"}, "geometry": {"type": "Point", "coordinates": [-73.136516, 41.790887]}},
{"type": "Feature", "id": "jbOy-B34Dv5rW4eluP-e29JP_uA=", "properties": {"ref": "3643", "@spider": "davita", "addr:full": "29 Griffin Rd S", "addr:city": "Bloomfield", "addr:state": "CT", "addr:postcode": "06002-1351", "name": "DaVita Bloomfield Dialysis", "phone": "1-800-424-6589", "website": "https://davita.com/locations/3643", "brand": "DaVita"}, "geometry": {"type": "Point", "coordinates": [-72.737082, 41.8673079]}},
{"type": "Feature", "id": "dvqUxPGIr9ijQ3QnIJCJaP8Rc_w=", "properties": {"ref": "4332", "@spider": "davita", "addr:full": "427 Stillson Rd", "addr:city": "Fairfield", "addr:state": "CT", "addr:postcode": "06824-3153", "name": "DaVita Black Rock Dialysis", "phone": "1-800-424-6589", "website": "https://davita.com/locations/4332", "brand": "DaVita"}, "geometry": {"type": "Point", "coordinates": [-73.2521632, 41.1804197]}},
{"type": "Feature", "id": "aX6rolnKSm69HXBR08GvFRi7iyE=", "properties": {"ref": "5044", "@spider": "davita", "addr:full": "445e Willard Ave", "addr:city": "Newington", "addr:state": "CT", "addr:postcode": "06111-2318", "name": "DaVita Willard Avenue Dialysis", "phone": "1-800-424-6589", "website": "https://davita.com/locations/5044", "brand": "DaVita"}, "geometry": {"type": "Point", "coordinates": [-72.7354523, 41.7055783]}},
{"type": "Feature", "id": "8wM7bZxZzPQ2Ndexk5dCf3DInHM=", "properties": {"ref": "5157", "@spider": "davita", "addr:full": "3000 Dixwell Ave", "addr:city": "Hamden", "addr:state": "CT", "addr:postcode": "06518-3522", "name": "DaVita Hamden Dialysis", "phone": "1-800-424-6589", "website": "https://davita.com/locations/5157", "brand": "DaVita"}, "geometry": {"type": "Point", "coordinates": [-72.900031, 41.383586]}},
{"type": "Feature", "id": "6ACt3WKeSuLzoRyGdZu0LuqfWew=", "properties": {"ref": "5327", "@spider": "davita", "addr:full": "51 Palomba Dr", "addr:city": "Enfield", "addr:state": "CT", "addr:postcode": "06082-3801", "name": "DaVita Palomba Drive Dialysis", "phone": "1-800-424-6589", "website": "https://davita.com/locations/5327", "brand": "DaVita"}, "geometry": {"type": "Point", "coordinates": [-72.5722939, 41.9939854]}},
{"type": "Feature", "id": "xBn0UdNhqKa2uoT3iKlz0BO30-0=", "properties": {"ref": "5452", "@spider": "davita", "addr:full": "164 Mount Pleasant Rd", "addr:city": "Newtown", "addr:state": "CT", "addr:postcode": "06470-1408", "name": "DaVita Housatonic Dialysis", "phone": "1-800-424-6589", "website": "https://davita.com/locations/5452", "brand": "DaVita"}, "geometry": {"type": "Point", "coordinates": [-73.3705854, 41.4152415]}},
{"type": "Feature", "id": "-iPUUBdpDkZT76eV0Y1SBf2GIVY=", "properties": {"ref": "5765", "@spider": "davita", "addr:full": "111 Osborne St", "addr:city": "Danbury", "addr:state": "CT", "addr:postcode": "06810-6031", "name": "DaVita Danbury Dialysis", "phone": "1-800-424-6589", "website": "https://davita.com/locations/5765", "brand": "DaVita"}, "geometry": {"type": "Point", "coordinates": [-73.441888, 41.404527]}},
{"type": "Feature", "id": "CzHPtU9xzcE5DpqvftoQQ4D0G1Q=", "properties": {"ref": "6053", "@spider": "davita", "addr:full": "30 Commerce Rd", "addr:city": "Stamford", "addr:state": "CT", "addr:postcode": "06902-4506", "name": "DaVita Stamford At Home", "phone": "1-800-424-6589", "website": "https://davita.com/locations/6053", "brand": "DaVita"}, "geometry": {"type": "Point", "coordinates": [-73.561626, 41.045954]}},
{"type": "Feature", "id": "wOg0CoYR4777CtoklshKt3CrLGc=", "properties": {"ref": "6068", "@spider": "davita", "addr:full": "900 Madison Ave", "addr:city": "Bridgeport", "addr:state": "CT", "addr:postcode": "06606-5534", "name": "DaVita Bridgeport At Home", "phone": "1-800-424-6589", "website": "https://davita.com/locations/6068", "brand": "DaVita"}, "geometry": {"type": "Point", "coordinates": [-73.2053724, 41.1934709]}},
{"type": "Feature", "id": "6LjOr0e_RT9lS9yhMT5I91WVBZQ=", "properties": {"ref": "6088", "@spider": "davita", "addr:full": "15 Center St", "addr:city": "New Haven", "addr:state": "CT", "addr:postcode": "06510-3003", "name": "DaVita New Haven At Home", "phone": "1-800-424-6589", "website": "https://davita.com/locations/6088", "brand": "DaVita"}, "geometry": {"type": "Point", "coordinates": [-72.929473, 41.300554]}},
{"type": "Feature", "id": "RxjoLSgmXIQ7NEyBI6_sZawsDQM=", "properties": {"ref": "6129", "@spider": "davita", "addr:full": "30 Waterchase Dr", "addr:city": "Rocky Hill", "addr:state": "CT", "addr:postcode": "06067-2110", "name": "DaVita Pdi-rocky Hill At Home", "phone": "1-800-424-6589", "website": "https://davita.com/locations/6129", "brand": "DaVita"}, "geometry": {"type": "Point", "coordinates": [-72.654002, 41.676726]}},
{"type": "Feature", "id": "Ux5kgrkVfGsVxMCQxroFS4F0opM=", "properties": {"ref": "6249", "@spider": "davita", "addr:full": "150 Mattatuck Heights Rd", "addr:city": "Waterbury", "addr:state": "CT", "addr:postcode": "06705-3893", "name": "DaVita Waterbury At Home", "phone": "1-800-424-6589", "website": "https://davita.com/locations/6249", "brand": "DaVita"}, "geometry": {"type": "Point", "coordinates": [-72.984447, 41.540221]}},
{"type": "Feature", "id": "joZXdl3mo-N2jH3jZIS-POjD2MA=", "properties": {"ref": "6335", "@spider": "davita", "addr:full": "29 Griffin Rd S", "addr:city": "Bloomfield", "addr:state": "CT", "addr:postcode": "06002-1351", "name": "DaVita Bloomfield At Home", "phone": "1-800-424-6589", "website": "https://davita.com/locations/6335", "brand": "DaVita"}, "geometry": {"type": "Point", "coordinates": [-72.737074, 41.8672904]}},
{"type": "Feature", "id": "kVWwlQk42kuh3dgwW2Pu-qFvayQ=", "properties": {"ref": "9739", "@spider": "davita", "addr:full": "164 Mount Pleasant Rd", "addr:city": "Newtown", "addr:state": "CT", "addr:postcode": "06470-1408", "name": "DaVita Housatonic At Home", "phone": "1-800-424-6589", "website": "https://davita.com/locations/9739", "brand": "DaVita"}, "geometry": {"type": "Point", "coordinates": [-73.3705854, 41.4152415]}},
{"type": "Feature", "id": "Ehm7jO2tHBYJPB4PDU9RMjG4_Zk=", "properties": {"ref": "11071", "@spider": "davita", "addr:full": "425 Hawley Ln", "addr:city": "Stratford", "addr:state": "CT", "addr:postcode": "06614-1514", "name": "DaVita Hawley Lane Dialysis", "phone": "1-800-424-6589", "website": "https://davita.com/locations/11071", "brand": "DaVita"}, "geometry": {"type": "Point", "coordinates": [-73.1485258, 41.2344208]}},
{"type": "Feature", "id": "OrpIMYYF5fyxqpuNCev3wwUSc5I=", "properties": {"ref": "11180", "@spider": "davita", "addr:full": "112 Main St", "addr:city": "Norwalk", "addr:state": "CT", "addr:postcode": "06851-4617", "name": "DaVita Norwalk River Dialysis", "phone": "1-800-424-6589", "website": "https://davita.com/locations/11180", "brand": "DaVita"}, "geometry": {"type": "Point", "coordinates": [-73.4152566, 41.1232288]}},
{"type": "Feature", "id": "0o4pXF9kfcMYbLAD2zkmYv5vUVQ=", "properties": {"ref": "11810", "@spider": "davita", "addr:full": "7 Cambridge Dr", "addr:city": "Trumbull", "addr:state": "CT", "addr:postcode": "06611-4763", "name": "DaVita Trumbull Dialysis", "phone": "1-800-424-6589", "website": "https://davita.com/locations/11810", "brand": "DaVita"}, "geometry": {"type": "Point", "coordinates": [-73.2007027, 41.2300645]}},
{"type": "Feature", "id": "_T7Sm5FyF7OnmNLKqMKlPi_fukc=", "properties": {"ref": "12057", "@spider": "davita", "addr:full": "80 Seymour St", "addr:city": "Hartford", "addr:state": "CT", "addr:postcode": "06106-3300", "name": "DaVita Hartford Downtown Dialysis", "phone": "1-800-424-6589", "website": "https://davita.com/locations/12057", "brand": "DaVita"}, "geometry": {"type": "Point", "coordinates": [-72.6792339, 41.7545616]}},
{"type": "Feature", "id": "UGqJJ0H3qLZQ4Z-ljk-51lLz7Jo=", "properties": {"ref": "12058", "@spider": "davita", "addr:full": "100 Grand St", "addr:city": "New Britain", "addr:state": "CT", "addr:postcode": "06052-2016", "name": "DaVita New Britain Dialysis", "phone": "1-800-424-6589", "website": "https://davita.com/locations/12058", "brand": "DaVita"}, "geometry": {"type": "Point", "coordinates": [-72.7867516, 41.6613941]}},
{"type": "Feature", "id": "7G2tuCjc3H_Mr9cJCPPwPzOjwuM=", "properties": {"ref": "12729", "@spider": "davita", "addr:full": "7 Cambridge Dr", "addr:city": "Trumbull", "addr:state": "CT", "addr:postcode": "06611-4763", "name": "DaVita Trumbull At Home", "phone": "1-800-424-6589", "website": "https://davita.com/locations/12729", "brand": "DaVita"}, "geometry": {"type": "Point", "coordinates": [-73.20069, 41.2302518]}},
{"type": "Feature", "id": "t5mqW8Y7g-Y79FIpoDzDnJNqZXk=", "properties": {"ref": "1863", "@spider": "davita", "addr:full": "400 T P White Dr", "addr:city": "Jacksonville", "addr:state": "AR", "addr:postcode": "72076-3287", "name": "DaVita Jacksonville Central Dialysis Center", "phone": "1-800-424-6589", "website": "https://davita.com/locations/1863", "brand": "DaVita"}, "geometry": {"type": "Point", "coordinates": [-92.1241087, 34.8705647]}},
{"type": "Feature", "id": "xnMKVHSGKaDpAD-fZu3GqWeDVGY=", "properties": {"ref": "1864", "@spider": "davita", "addr:full": "4505 E Mccain Blvd", "addr:city": "North Little Rock", "addr:state": "AR", "addr:postcode": "72117-2902", "name": "DaVita North Little Rock Dialysis Center", "phone": "1-800-424-6589", "website": "https://davita.com/locations/1864", "brand": "DaVita"}, "geometry": {"type": "Point", "coordinates": [-92.2173974, 34.7892536]}},
{"type": "Feature", "id": "tMJvDaswmSBLPdKi8rQ0yeBXhXY=", "properties": {"ref": "1941", "@spider": "davita", "addr:full": "509 E Millsap Rd", "addr:city": "Fayetteville", "addr:state": "AR", "addr:postcode": "72703-4862", "name": "DaVita Fayetteville Dialysis", "phone": "1-800-424-6589", "website": "https://davita.com/locations/1941", "brand": "DaVita"}, "geometry": {"type": "Point", "coordinates": [-94.150231, 36.113662]}},
{"type": "Feature", "id": "7fac2W3_EuuPglMWggFJG6hhhds=", "properties": {"ref": "1942", "@spider": "davita", "addr:full": "1104 Se 30th St", "addr:city": "Bentonville", "addr:state": "AR", "addr:postcode": "72712-4290", "name": "DaVita Bentonville Dialysis", "phone": "1-800-424-6589", "website": "https://davita.com/locations/1942", "brand": "DaVita"}, "geometry": {"type": "Point", "coordinates": [-94.1959, 36.3395]}},
{"type": "Feature", "id": "RWtZlfp53IstL3PgkYj7V0hZ3TQ=", "properties": {"ref": "1944", "@spider": "davita", "addr:full": "2070 Mckenzie Rd", "addr:city": "Springdale", "addr:state": "AR", "addr:postcode": "72762-0870", "name": "DaVita Springdale Dialysis", "phone": "1-800-424-6589", "website": "https://davita.com/locations/1944", "brand": "DaVita"}, "geometry": {"type": "Point", "coordinates": [-94.1377164, 36.1788463]}},
{"type": "Feature", "id": "B3fBSeF9vQviGazt-fyHr7Sbw6s=", "properties": {"ref": "2347", "@spider": "davita", "addr:full": "1200 Crestwood Cir", "addr:city": "Mena", "addr:state": "AR", "addr:postcode": "71953-5516", "name": "DaVita Mena Dialysis Center", "phone": "1-800-424-6589", "website": "https://davita.com/locations/2347", "brand": "DaVita"}, "geometry": {"type": "Point", "coordinates": [-94.2196756, 34.588702]}},
{"type": "Feature", "id": "SKg4o17NOHkFb9jQnxJ4SYQBdkY=", "properties": {"ref": "3615", "@spider": "davita", "addr:full": "6 Freeway Dr", "addr:city": "Little Rock", "addr:state": "AR", "addr:postcode": "72204-2486", "name": "DaVita Central Little Rock Dialysis", "phone": "1-800-424-6589", "website": "https://davita.com/locations/3615", "brand": "DaVita"}, "geometry": {"type": "Point", "coordinates": [-92.3369994, 34.7430652]}},
{"type": "Feature", "id": "dXClcdU4SOZ1ZZYiMQCxV3QX-Bk=", "properties": {"ref": "4237", "@spider": "davita", "addr:full": "1900 Malvern Ave", "addr:city": "Hot Springs", "addr:state": "AR", "addr:postcode": "71901-7776", "name": "DaVita Ouachita Dialysis", "phone": "1-800-424-6589", "website": "https://davita.com/locations/4237", "brand": "DaVita"}, "geometry": {"type": "Point", "coordinates": [-93.035739, 34.4869]}},
{"type": "Feature", "id": "q1SY0pJRDsvyOm6azy19TFydMIc=", "properties": {"ref": "4238", "@spider": "davita", "addr:full": "115 Wrights St", "addr:city": "Hot Springs", "addr:state": "AR", "addr:postcode": "71913-6240", "name": "DaVita Hot Springs Dialysis", "phone": "1-800-424-6589", "website": "https://davita.com/locations/4238", "brand": "DaVita"}, "geometry": {"type": "Point", "coordinates": [-93.062, 34.472055]}},
{"type": "Feature", "id": "pJelU3sejVVPpYJkJACrUiDpXs8=", "properties": {"ref": "4239", "@spider": "davita", "addr:full": "620 W Grove St", "addr:city": "El Dorado", "addr:state": "AR", "addr:postcode": "71730-4462", "name": "DaVita South Arkansas Dialysis", "phone": "1-800-424-6589", "website": "https://davita.com/locations/4239", "brand": "DaVita"}, "geometry": {"type": "Point", "coordinates": [-92.6707706, 33.2183976]}},
{"type": "Feature", "id": "xW_hOvTTK1YcwLVGPXvWW6ZUp1M=", "properties": {"ref": "4240", "@spider": "davita", "addr:full": "1114 Washington St Nw", "addr:city": "Camden", "addr:state": "AR", "addr:postcode": "71701-3827", "name": "DaVita Ouachita Valley Dialysis", "phone": "1-800-424-6589", "website": "https://davita.com/locations/4240", "brand": "DaVita"}, "geometry": {"type": "Point", "coordinates": [-92.8489816, 33.58485]}},
{"type": "Feature", "id": "PBm8s-lyFchVbbYQgb4ZpxSnKy0=", "properties": {"ref": "4241", "@spider": "davita", "addr:full": "312 Professional Park Dr", "addr:city": "Arkadelphia", "addr:state": "AR", "addr:postcode": "71923-5355", "name": "DaVita Degray Dialysis", "phone": "1-800-424-6589", "website": "https://davita.com/locations/4241", "brand": "DaVita"}, "geometry": {"type": "Point", "coordinates": [-93.0887786, 34.1217865]}},
{"type": "Feature", "id": "Y9Q75bCewhBTTwLkABTXDrE5FB8=", "properties": {"ref": "4242", "@spider": "davita", "addr:full": "3121 W 2nd Ct", "addr:city": "Russellville", "addr:state": "AR", "addr:postcode": "72801-4504", "name": "DaVita River Valley Dialysis", "phone": "1-800-424-6589", "website": "https://davita.com/locations/4242", "brand": "DaVita"}, "geometry": {"type": "Point", "coordinates": [-93.167935, 35.285648]}},
{"type": "Feature", "id": "U5ZR_E6dXGQxx75EOUv_sfXwLrw=", "properties": {"ref": "4243", "@spider": "davita", "addr:full": "1019 Fred Lagrone Dr", "addr:city": "Crossett", "addr:state": "AR", "addr:postcode": "71635-4546", "name": "DaVita Ashley Dialysis", "phone": "1-800-424-6589", "website": "https://davita.com/locations/4243", "brand": "DaVita"}, "geometry": {"type": "Point", "coordinates": [-91.9398024, 33.1389249]}},
{"type": "Feature", "id": "ZOd8ry7KNNthHLFNB_jP0C2eyck=", "properties": {"ref": "4244", "@spider": "davita", "addr:full": "1590 Tanner St", "addr:city": "Rockport", "addr:state": "AR", "addr:postcode": "72104-2023", "name": "DaVita Malvern Dialysis", "phone": "1-800-424-6589", "website": "https://davita.com/locations/4244", "brand": "DaVita"}, "geometry": {"type": "Point", "coordinates": [-92.834365, 34.386082]}},
{"type": "Feature", "id": "oDevs-pxUxLKo7zEFa3kmM9dLYM=", "properties": {"ref": "4245", "@spider": "davita", "addr:full": "204 Bragg St", "addr:city": "Warren", "addr:state": "AR", "addr:postcode": "71671-2500", "name": "DaVita Bradley County Dialysis", "phone": "1-800-424-6589", "website": "https://davita.com/locations/4245", "brand": "DaVita"}, "geometry": {"type": "Point", "coordinates": [-92.0775277, 33.612735]}},
{"type": "Feature", "id": "xVuuZasvr1rOzd0qlnv2CqT2l6E=", "properties": {"ref": "4422", "@spider": "davita", "addr:full": "2630 Donaghey Ave", "addr:city": "Conway", "addr:state": "AR", "addr:postcode": "72032-2317", "name": "DaVita College City Dialysis", "phone": "1-800-424-6589", "website": "https://davita.com/locations/4422", "brand": "DaVita"}, "geometry": {"type": "Point", "coordinates": [-92.449164, 35.111564]}},
{"type": "Feature", "id": "ZyZ4Dst4BfvkyRaBJpONIwxSZ2o=", "properties": {"ref": "4430", "@spider": "davita", "addr:full": "1501 N Washington St", "addr:city": "Forrest City", "addr:state": "AR", "addr:postcode": "72335-2152", "name": "DaVita Forrest City Dialysis", "phone": "1-800-424-6589", "website": "https://davita.com/locations/4430", "brand": "DaVita"}, "geometry": {"type": "Point", "coordinates": [-90.7883557, 35.0246487]}},
{"type": "Feature", "id": "hUuRvXmBHe_pc9A5O94UdzsjtxY=", "properties": {"ref": "5351", "@spider": "davita", "addr:full": "404 Camp Rd", "addr:city": "Pocahontas", "addr:state": "AR", "addr:postcode": "72455-1487", "name": "DaVita Pocahontas Dialysis", "phone": "1-800-424-6589", "website": "https://davita.com/locations/5351", "brand": "DaVita"}, "geometry": {"type": "Point", "coordinates": [-90.9925522, 36.2895956]}},
{"type": "Feature", "id": "Zt81JYQEfEqZvbU4aFcUlmDqOGM=", "properties": {"ref": "5480", "@spider": "davita", "addr:full": "6115 Baseline Rd", "addr:city": "Little Rock", "addr:state": "AR", "addr:postcode": "72209-4725", "name": "DaVita South Little Rock Dialysis", "phone": "1-800-424-6589", "website": "https://davita.com/locations/5480", "brand": "DaVita"}, "geometry": {"type": "Point", "coordinates": [-92.346098, 34.668794]}},
{"type": "Feature", "id": "6LsEhpMki3pi7PO7uYsGHRITIPE=", "properties": {"ref": "5605", "@spider": "davita", "addr:full": "1700 Harrison St", "addr:city": "Batesville", "addr:state": "AR", "addr:postcode": "72501-7315", "name": "DaVita Independence County Dialysis", "phone": "1-800-424-6589", "website": "https://davita.com/locations/5605", "brand": "DaVita"}, "geometry": {"type": "Point", "coordinates": [-91.6347594, 35.7695657]}},
{"type": "Feature", "id": "2kM0T_RgFTOIuqfkbnRh5kck4hQ=", "properties": {"ref": "5606", "@spider": "davita", "addr:full": "1912 Mclain St", "addr:city": "Newport", "addr:state": "AR", "addr:postcode": "72112-3659", "name": "DaVita Jackson County Dialysis", "phone": "1-800-424-6589", "website": "https://davita.com/locations/5606", "brand": "DaVita"}, "geometry": {"type": "Point", "coordinates": [-91.2550362, 35.6085872]}},
{"type": "Feature", "id": "vpzlWkWga971rwt_a5c-0OtiAi4=", "properties": {"ref": "5607", "@spider": "davita", "addr:full": "3208 Langley Dr", "addr:city": "Searcy", "addr:state": "AR", "addr:postcode": "72143-6020", "name": "DaVita Searcy Dialysis", "phone": "1-800-424-6589", "website": "https://davita.com/locations/5607", "brand": "DaVita"}, "geometry": {"type": "Point", "coordinates": [-91.694881, 35.245497]}},
{"type": "Feature", "id": "-No8YGIFDRCwFddGp287pwjdHNA=", "properties": {"ref": "5608", "@spider": "davita", "addr:full": "3401 Springhill Dr", "addr:city": "North Little Rock", "addr:state": "AR", "addr:postcode": "72117-2925", "name": "DaVita Springhill Dialysis", "phone": "1-800-424-6589", "website": "https://davita.com/locations/5608", "brand": "DaVita"}, "geometry": {"type": "Point", "coordinates": [-92.220058, 34.784896]}},
{"type": "Feature", "id": "FPorLi2NFF0V-8Ahhpu0SCLmTDk=", "properties": {"ref": "5609", "@spider": "davita", "addr:full": "202 John Harden Dr", "addr:city": "Jacksonville", "addr:state": "AR", "addr:postcode": "72076-3775", "name": "DaVita Pulaski County Dialysis", "phone": "1-800-424-6589", "website": "https://davita.com/locations/5609", "brand": "DaVita"}, "geometry": {"type": "Point", "coordinates": [-92.1251712, 34.870709]}},
{"type": "Feature", "id": "YK7fqfXiKjpCyU073d83_qEA2FY=", "properties": {"ref": "5610", "@spider": "davita", "addr:full": "2 Lile Ct", "addr:city": "Little Rock", "addr:state": "AR", "addr:postcode": "72205-6241", "name": "DaVita Little Rock Midtown Dialysis", "phone": "1-800-424-6589", "website": "https://davita.com/locations/5610", "brand": "DaVita"}, "geometry": {"type": "Point", "coordinates": [-92.3784252, 34.7461652]}},
{"type": "Feature", "id": "eS8n_9mhS8gx9nro_BkAj77ZIZw=", "properties": {"ref": "5611", "@spider": "davita", "addr:full": "1200 N Main St", "addr:city": "Benton", "addr:state": "AR", "addr:postcode": "72015-3341", "name": "DaVita Saline County Dialysis", "phone": "1-800-424-6589", "website": "https://davita.com/locations/5611", "brand": "DaVita"}, "geometry": {"type": "Point", "coordinates": [-92.587452, 34.574079]}},
{"type": "Feature", "id": "RBFa7GS8_Up6OLkaOkPE9TCTdNU=", "properties": {"ref": "5612", "@spider": "davita", "addr:full": "2445 Christina Ln", "addr:city": "Conway", "addr:state": "AR", "addr:postcode": "72034-6798", "name": "DaVita Conway Dialysis", "phone": "1-800-424-6589", "website": "https://davita.com/locations/5612", "brand": "DaVita"}, "geometry": {"type": "Point", "coordinates": [-92.461933, 35.0673109]}},
{"type": "Feature", "id": "k7ewQuflF6jylcRhmvtA_2ms9hs=", "properties": {"ref": "5616", "@spider": "davita", "addr:full": "3401 Springhill Dr", "addr:city": "North Little Rock", "addr:state": "AR", "addr:postcode": "72117-2945", "name": "DaVita Springhill Home Training", "phone": "1-800-424-6589", "website": "https://davita.com/locations/5616", "brand": "DaVita"}, "geometry": {"type": "Point", "coordinates": [-92.220058, 34.784896]}},
{"type": "Feature", "id": "B6yWitgtlwgdtaRE2aWW1WFcXp4=", "properties": {"ref": "5702", "@spider": "davita", "addr:full": "405 N Frederick", "addr:city": "Magnolia", "addr:state": "AR", "addr:postcode": "71753-3116", "name": "DaVita Southwest Arkansas Dialysis", "phone": "1-800-424-6589", "website": "https://davita.com/locations/5702", "brand": "DaVita"}, "geometry": {"type": "Point", "coordinates": [-93.2053932, 33.2973296]}},
{"type": "Feature", "id": "qLSd0FgYwyOvd3uovztizsziDiU=", "properties": {"ref": "5703", "@spider": "davita", "addr:full": "1301 N Hervey St", "addr:city": "Hope", "addr:state": "AR", "addr:postcode": "71801-2523", "name": "DaVita Hempstead County Dialysis", "phone": "1-800-424-6589", "website": "https://davita.com/locations/5703", "brand": "DaVita"}, "geometry": {"type": "Point", "coordinates": [-93.585911, 33.6508212]}},
{"type": "Feature", "id": "pRhYuJzSQywmpftyZOLhru8-uTw=", "properties": {"ref": "5704", "@spider": "davita", "addr:full": "816 East St", "addr:city": "Texarkana", "addr:state": "AR", "addr:postcode": "71854-6808", "name": "DaVita Miller County Dialysis", "phone": "1-800-424-6589", "website": "https://davita.com/locations/5704", "brand": "DaVita"}, "geometry": {"type": "Point", "coordinates": [-94.0302026, 33.4134474]}},
{"type": "Feature", "id": "bBuvcyhPaA81rXDqX9qM9w9Q09M=", "properties": {"ref": "5822", "@spider": "davita", "addr:full": "115 Wrights St", "addr:city": "Hot Springs", "addr:state": "AR", "addr:postcode": "71913-6240", "name": "DaVita Hot Springs At Home", "phone": "1-800-424-6589", "website": "https://davita.com/locations/5822", "brand": "DaVita"}, "geometry": {"type": "Point", "coordinates": [-93.062, 34.472055]}},
{"type": "Feature", "id": "HIp75eg8Xg9yN87W_cgRq4FSdts=", "properties": {"ref": "5853", "@spider": "davita", "addr:full": "1501 North Washington St", "addr:city": "Forrest City", "addr:state": "AR", "addr:postcode": "72335-2152", "name": "DaVita Forrest City At Home", "phone": "1-800-424-6589", "website": "https://davita.com/locations/5853", "brand": "DaVita"}, "geometry": {"type": "Point", "coordinates": [-90.7883653, 35.0246487]}},
{"type": "Feature", "id": "7XFl6K8D4MAV3bjxIHFFadeVdXQ=", "properties": {"ref": "6258", "@spider": "davita", "addr:full": "6 Freeway Dr", "addr:city": "Little Rock", "addr:state": "AR", "addr:postcode": "72204-2486", "name": "DaVita Central Little Rock At Home", "phone": "1-800-424-6589", "website": "https://davita.com/locations/6258", "brand": "DaVita"}, "geometry": {"type": "Point", "coordinates": [-92.3369994, 34.7430652]}},
{"type": "Feature", "id": "lBxtsRY25W6L0BIZP6qTe4LZBNE=", "properties": {"ref": "6365", "@spider": "davita", "addr:full": "1120 Hwy 77", "addr:city": "Marion", "addr:state": "AR", "addr:postcode": "72364-9046", "name": "DaVita Renal Care Marion At Home", "phone": "1-800-424-6589", "website": "https://davita.com/locations/6365", "brand": "DaVita"}, "geometry": {"type": "Point", "coordinates": [-90.1965941, 35.2130607]}},
{"type": "Feature", "id": "LSeV_oRIDUqqQICbpHNiFovhstg=", "properties": {"ref": "6802", "@spider": "davita", "addr:full": "1120 State Highway 77", "addr:city": "Marion", "addr:state": "AR", "addr:postcode": "72364-9046", "name": "DaVita Renal Care Of Marion", "phone": "1-800-424-6589", "website": "https://davita.com/locations/6802", "brand": "DaVita"}, "geometry": {"type": "Point", "coordinates": [-90.1965941, 35.2130607]}},
{"type": "Feature", "id": "MV8YaLGZLt5LgUTe6dga4vbQtSI=", "properties": {"ref": "6803", "@spider": "davita", "addr:full": "1332 W Keiser Ave", "addr:city": "Osceola", "addr:state": "AR", "addr:postcode": "72370-2919", "name": "DaVita Osceola Dialysis", "phone": "1-800-424-6589", "website": "https://davita.com/locations/6803", "brand": "DaVita"}, "geometry": {"type": "Point", "coordinates": [-89.991917, 35.698135]}},
{"type": "Feature", "id": "vFRE4CqqWM66U5DmUrv7WER65dE=", "properties": {"ref": "9608", "@spider": "davita", "addr:full": "1104 Se 30th St", "addr:city": "Bentonville", "addr:state": "AR", "addr:postcode": "72712-4290", "name": "DaVita Bentonville At Home", "phone": "1-800-424-6589", "website": "https://davita.com/locations/9608", "brand": "DaVita"}, "geometry": {"type": "Point", "coordinates": [-94.19588, 36.339508]}},
{"type": "Feature", "id": "nixGJHnN_9TD5yda-W-8A7Q9ZpU=", "properties": {"ref": "9647", "@spider": "davita", "addr:full": "6115 Baseline Rd", "addr:city": "Little Rock", "addr:state": "AR", "addr:postcode": "72209-4725", "name": "DaVita South Little Rock At Home", "phone": "1-800-424-6589", "website": "https://davita.com/locations/9647", "brand": "DaVita"}, "geometry": {"type": "Point", "coordinates": [-92.346098, 34.668794]}},
{"type": "Feature", "id": "VQB2bNTX-eF8Hd_YR_ZBfW779IM=", "properties": {"ref": "11479", "@spider": "davita", "addr:full": "9022 Landers Rd", "addr:city": "North Little Rock", "addr:state": "AR", "addr:postcode": "72117-1599", "name": "DaVita Diamond State Dialysis", "phone": "1-800-424-6589", "website": "https://davita.com/locations/11479", "brand": "DaVita"}, "geometry": {"type": "Point", "coordinates": [-92.168201, 34.834804]}},
{"type": "Feature", "id": "vXfhPdg_--BX6i918-L-xFPM2y4=", "properties": {"ref": "11818", "@spider": "davita", "addr:full": "2325 Trinity Blvd", "addr:city": "Texarkana", "addr:state": "AR", "addr:postcode": "71854-8406", "name": "DaVita Twin Cities Dialysis", "phone": "1-800-424-6589", "website": "https://davita.com/locations/11818", "brand": "DaVita"}, "geometry": {"type": "Point", "coordinates": [-94.017875, 33.4749785]}},
{"type": "Feature", "id": "yGxRkWfnjH_ECGWbhs-QO3j7Zyc=", "properties": {"ref": "12502", "@spider": "davita", "addr:full": "200 E 8th St", "addr:city": "Mountain Home", "addr:state": "AR", "addr:postcode": "72653-4402", "name": "DaVita Renal Center Of Mountain Home", "phone": "1-800-424-6589", "website": "https://davita.com/locations/12502", "brand": "DaVita"}, "geometry": {"type": "Point", "coordinates": [-92.3836126, 36.3340047]}},
{"type": "Feature", "id": "wuUzBQd1rlvCXhm6JDtd-3n9KSs=", "properties": {"ref": "419", "@spider": "davita", "addr:full": "482 S Chambers Rd", "addr:city": "Aurora", "addr:state": "CO", "addr:postcode": "80017-2092", "name": "DaVita East Aurora Dialysis", "phone": "1-800-424-6589", "website": "https://davita.com/locations/419", "brand": "DaVita"}, "geometry": {"type": "Point", "coordinates": [-104.809859, 39.7070461]}},
{"type": "Feature", "id": "4zKyqmvimsWrZ-bXm-hHZ5ojRtc=", "properties": {"ref": "427", "@spider": "davita", "addr:full": "1057 S Wadsworth Blvd", "addr:city": "Lakewood", "addr:state": "CO", "addr:postcode": "80226-4361", "name": "DaVita Lakewood Crossing Dialysis", "phone": "1-800-424-6589", "website": "https://davita.com/locations/427", "brand": "DaVita"}, "geometry": {"type": "Point", "coordinates": [-105.0821519, 39.697924]}},
{"type": "Feature", "id": "xnagYNQaC5azu6U-GZcCWtcF9RI=", "properties": {"ref": "428", "@spider": "davita", "addr:full": "7465 E 1st Ave", "addr:city": "Denver", "addr:state": "CO", "addr:postcode": "80230-6877", "name": "DaVita Lowry Dialysis Center", "phone": "1-800-424-6589", "website": "https://davita.com/locations/428", "brand": "DaVita"}, "geometry": {"type": "Point", "coordinates": [-104.900482, 39.719536]}},
{"type": "Feature", "id": "ThJLU9TWNN7hlnUXlLqdy-MQCek=", "properties": {"ref": "429", "@spider": "davita", "addr:full": "3247 S Lincoln St", "addr:city": "Englewood", "addr:state": "CO", "addr:postcode": "80113-2505", "name": "DaVita Englewood Dialysis Center", "phone": "1-800-424-6589", "website": "https://davita.com/locations/429", "brand": "DaVita"}, "geometry": {"type": "Point", "coordinates": [-104.986732, 39.657634]}},
{"type": "Feature", "id": "mDeV1Gu4XxFk0ifPLNDJynh_GEs=", "properties": {"ref": "538", "@spider": "davita", "addr:full": "1715 Iron Horse Dr", "addr:city": "Longmont", "addr:state": "CO", "addr:postcode": "80501-9617", "name": "DaVita Longmont Dialysis Center", "phone": "1-800-424-6589", "website": "https://davita.com/locations/538", "brand": "DaVita"}, "geometry": {"type": "Point", "coordinates": [-105.061403, 40.158795]}},
{"type": "Feature", "id": "FrIiTuoaA5Jncosalha6HApfKKk=", "properties": {"ref": "539", "@spider": "davita", "addr:full": "6320 Holly St", "addr:city": "Commerce City", "addr:state": "CO", "addr:postcode": "80022-3325", "name": "DaVita Commerce City Dialysis", "phone": "1-800-424-6589", "website": "https://davita.com/locations/539", "brand": "DaVita"}, "geometry": {"type": "Point", "coordinates": [-104.921643, 39.811283]}},
{"type": "Feature", "id": "-k6ieIfVRSUFq7gBuGSY7aCL0BA=", "properties": {"ref": "541", "@spider": "davita", "addr:full": "1750 Pierce St", "addr:city": "Lakewood", "addr:state": "CO", "addr:postcode": "80214-1434", "name": "DaVita Lakewood Dialysis Center", "phone": "1-800-424-6589", "website": "https://davita.com/locations/541", "brand": "DaVita"}, "geometry": {"type": "Point", "coordinates": [-105.071384, 39.745144]}},
{"type": "Feature", "id": "gkelragb1ZKFKLXFzn7tbC7ZbNw=", "properties": {"ref": "542", "@spider": "davita", "addr:full": "8800 Fox Dr", "addr:city": "Thornton", "addr:state": "CO", "addr:postcode": "80260-6880", "name": "DaVita Thornton Dialysis Center", "phone": "1-800-424-6589", "website": "https://davita.com/locations/542", "brand": "DaVita"}, "geometry": {"type": "Point", "coordinates": [-104.993551, 39.856906]}},
{"type": "Feature", "id": "Jl515wini-c9jTzOx-dh_oXx5Wc=", "properties": {"ref": "543", "@spider": "davita", "addr:full": "2880 Folsom St", "addr:city": "Boulder", "addr:state": "CO", "addr:postcode": "80304-3769", "name": "DaVita Boulder Dialysis Center", "phone": "1-800-424-6589", "website": "https://davita.com/locations/543", "brand": "DaVita"}, "geometry": {"type": "Point", "coordinates": [-105.262618, 40.028396]}},
{"type": "Feature", "id": "PHv0Dpm4a54CS5GI4aUbMRBG2Y4=", "properties": {"ref": "544", "@spider": "davita", "addr:full": "9950 W 80th Ave", "addr:city": "Arvada", "addr:state": "CO", "addr:postcode": "80005-3914", "name": "DaVita Arvada Dialysis Center", "phone": "1-800-424-6589", "website": "https://davita.com/locations/544", "brand": "DaVita"}, "geometry": {"type": "Point", "coordinates": [-105.109177, 39.841325]}},
{"type": "Feature", "id": "MJ-_05FRD8HX6U7GXXkGDdZIM7g=", "properties": {"ref": "545", "@spider": "davita", "addr:full": "2002 Lelaray St", "addr:city": "Colorado Springs", "addr:state": "CO", "addr:postcode": "80909-2804", "name": "DaVita Pikes Peak Dialysis Center", "phone": "1-800-424-6589", "website": "https://davita.com/locations/545", "brand": "DaVita"}, "geometry": {"type": "Point", "coordinates": [-104.790843, 38.857468]}},
{"type": "Feature", "id": "3CPMygGoOcefiazD3M6XvKYmaRE=", "properties": {"ref": "546", "@spider": "davita", "addr:full": "2802 International Cir", "addr:city": "Colorado Springs", "addr:state": "CO", "addr:postcode": "80910-3127", "name": "DaVita Printers Place Dialysis Center", "phone": "1-800-424-6589", "website": "https://davita.com/locations/546", "brand": "DaVita"}, "geometry": {"type": "Point", "coordinates": [-104.7868341, 38.8275748]}},
{"type": "Feature", "id": "_looWYOP49LRsm9XVX-dYID9AsI=", "properties": {"ref": "654", "@spider": "davita", "addr:full": "610 E Main St", "addr:city": "Cortez", "addr:state": "CO", "addr:postcode": "81321-3308", "name": "DaVita Cortez Dialysis Center", "phone": "1-800-424-6589", "website": "https://davita.com/locations/654", "brand": "DaVita"}, "geometry": {"type": "Point", "coordinates": [-108.576743, 37.349793]}},
{"type": "Feature", "id": "ovyQGqYTwnkBYBbGLs3F1IWieio=", "properties": {"ref": "900", "@spider": "davita", "addr:full": "2900 N Downing St", "addr:city": "Denver", "addr:state": "CO", "addr:postcode": "80205-4699", "name": "DaVita Denver Dialysis Center", "phone": "1-800-424-6589", "website": "https://davita.com/locations/900", "brand": "DaVita"}, "geometry": {"type": "Point", "coordinates": [-104.972993, 39.758632]}},
{"type": "Feature", "id": "C6vtmQc3uYf0l2z7B-pFjYqxjPQ=", "properties": {"ref": "901", "@spider": "davita", "addr:full": "1411 S Potomac St", "addr:city": "Aurora", "addr:state": "CO", "addr:postcode": "80012-4536", "name": "DaVita Aurora Dialysis Center", "phone": "1-800-424-6589", "website": "https://davita.com/locations/901", "brand": "DaVita"}, "geometry": {"type": "Point", "coordinates": [-104.8311796, 39.6892444]}},
{"type": "Feature", "id": "GxPmZdbI4_a8Yu1UkGAAqXvTBrk=", "properties": {"ref": "903", "@spider": "davita", "addr:full": "209 W County Line Rd", "addr:city": "Littleton", "addr:state": "CO", "addr:postcode": "80129-1901", "name": "DaVita Littleton Dialysis Center", "phone": "1-800-424-6589", "website": "https://davita.com/locations/903", "brand": "DaVita"}, "geometry": {"type": "Point", "coordinates": [-104.9917793, 39.5661762]}},
{"type": "Feature", "id": "SbOtMrCLPJtvTPPZjFNP5LPjVOc=", "properties": {"ref": "1506", "@spider": "davita", "addr:full": "1750 Pierce St", "addr:city": "Lakewood", "addr:state": "CO", "addr:postcode": "80214-1434", "name": "DaVita Mile High Home Dialysis", "phone": "1-800-424-6589", "website": "https://davita.com/locations/1506", "brand": "DaVita"}, "geometry": {"type": "Point", "coordinates": [-105.071384, 39.745144]}},
{"type": "Feature", "id": "ju_xtNSk4RZyBmXsX1_jS_V_T2U=", "properties": {"ref": "1712", "@spider": "davita", "addr:full": "612 Del Sol Dr", "addr:city": "Alamosa", "addr:state": "CO", "addr:postcode": "81101-8548", "name": "DaVita Alamosa Dialysis", "phone": "1-800-424-6589", "website": "https://davita.com/locations/1712", "brand": "DaVita"}, "geometry": {"type": "Point", "coordinates": [-105.9027192, 37.4802511]}},
{"type": "Feature", "id": "t5S4yVJuhHOGKQ-WuYfNtTRy3As=", "properties": {"ref": "1846", "@spider": "davita", "addr:full": "710 Wellington Ave", "addr:city": "Grand Junction", "addr:state": "CO", "addr:postcode": "81501-6100", "name": "DaVita Grand Junction Dialysis Center", "phone": "1-800-424-6589", "website": "https://davita.com/locations/1846", "brand": "DaVita"}, "geometry": {"type": "Point", "coordinates": [-108.5609283, 39.0900051]}},
{"type": "Feature", "id": "nVphDtrMDm5AmG-8Gqj-V5m_FQk=", "properties": {"ref": "1869", "@spider": "davita", "addr:full": "7465 E 1st Ave", "addr:city": "Denver", "addr:state": "CO", "addr:postcode": "80230-6877", "name": "DaVita Lowry Dialysis Center Pd", "phone": "1-800-424-6589", "website": "https://davita.com/locations/1869", "brand": "DaVita"}, "geometry": {"type": "Point", "coordinates": [-104.900482, 39.719536]}},
{"type": "Feature", "id": "hsZPVh6wGxHDQxql8FPnil8Zw9o=", "properties": {"ref": "2054", "@spider": "davita", "addr:full": "9777 Pyramid Ct", "addr:city": "Englewood", "addr:state": "CO", "addr:postcode": "80112-6017", "name": "DaVita Lonetree Dialysis Center", "phone": "1-800-424-6589", "website": "https://davita.com/locations/2054", "brand": "DaVita"}, "geometry": {"type": "Point", "coordinates": [-104.865789, 39.537162]}},
{"type": "Feature", "id": "5RXFvrOUhFm5Yl8igqgNOqkagIA=", "properties": {"ref": "2063", "@spider": "davita", "addr:full": "755 S Colorado Blvd", "addr:city": "Denver", "addr:state": "CO", "addr:postcode": "80246-8005", "name": "DaVita Belcaro Dialysis Center", "phone": "1-800-424-6589", "website": "https://davita.com/locations/2063", "brand": "DaVita"}, "geometry": {"type": "Point", "coordinates": [-104.9407847, 39.7023442]}},
{"type": "Feature", "id": "MYjpp5JV0oOMPbtbQ9DFV5vqcso=", "properties": {"ref": "2065", "@spider": "davita", "addr:full": "8601 W Cross Dr", "addr:city": "Littleton", "addr:state": "CO", "addr:postcode": "80123-2200", "name": "DaVita South West Denver Dialysis", "phone": "1-800-424-6589", "website": "https://davita.com/locations/2065", "brand": "DaVita"}, "geometry": {"type": "Point", "coordinates": [-105.0964609, 39.6147308]}},
{"type": "Feature", "id": "psW32c-V1M2BFnyu1JnaNTkqwoI=", "properties": {"ref": "2067", "@spider": "davita", "addr:full": "4700 E Bromley Ln", "addr:city": "Brighton", "addr:state": "CO", "addr:postcode": "80601-7821", "name": "DaVita Brighton Dialysis", "phone": "1-800-424-6589", "website": "https://davita.com/locations/2067", "brand": "DaVita"}, "geometry": {"type": "Point", "coordinates": [-104.758722, 39.971325]}},
{"type": "Feature", "id": "JvzHAFbx4dUnAa7fQpm33-XoCGs=", "properties": {"ref": "2109", "@spider": "davita", "addr:full": "72 Suttle Street", "addr:city": "Durango", "addr:state": "CO", "addr:postcode": "81303-6829", "name": "DaVita Durango Dialysis Center", "phone": "1-800-424-6589", "website": "https://davita.com/locations/2109", "brand": "DaVita"}, "geometry": {"type": "Point", "coordinates": [-107.876633, 37.247979]}},
{"type": "Feature", "id": "gYI2_rud4zOK9taT4pwpu49RHsA=", "properties": {"ref": "2441", "@spider": "davita", "addr:full": "10371 S Parkglenn Way", "addr:city": "Parker", "addr:state": "CO", "addr:postcode": "80138-3871", "name": "DaVita Parker Dialysis Center", "phone": "1-800-424-6589", "website": "https://davita.com/locations/2441", "brand": "DaVita"}, "geometry": {"type": "Point", "coordinates": [-104.765896, 39.531299]}},
{"type": "Feature", "id": "kabYXbP-UDEUsymcCUKdIR2lJx8=", "properties": {"ref": "2493", "@spider": "davita", "addr:full": "12365 Huron St", "addr:city": "Westminster", "addr:state": "CO", "addr:postcode": "80234-3498", "name": "DaVita North Metro Dialysis Center", "phone": "1-800-424-6589", "website": "https://davita.com/locations/2493", "brand": "DaVita"}, "geometry": {"type": "Point", "coordinates": [-104.9968658, 39.920397]}},
{"type": "Feature", "id": "ejUu8zE2OyWRKu1k8uVYW1QueIQ=", "properties": {"ref": "4367", "@spider": "davita", "addr:full": "6071 E Woodmen Rd", "addr:city": "Colorado Springs", "addr:state": "CO", "addr:postcode": "80923-2610", "name": "DaVita North Colorado Springs Dialysis", "phone": "1-800-424-6589", "website": "https://davita.com/locations/4367", "brand": "DaVita"}, "geometry": {"type": "Point", "coordinates": [-104.717259, 38.939384]}},
{"type": "Feature", "id": "kYNjzVQ8HdPD8hSyW7P-WqqkDqw=", "properties": {"ref": "4489", "@spider": "davita", "addr:full": "561 25 Rd", "addr:city": "Grand Junction", "addr:state": "CO", "addr:postcode": "81505-1360", "name": "DaVita Mesa County Dialysis", "phone": "1-800-424-6589", "website": "https://davita.com/locations/4489", "brand": "DaVita"}, "geometry": {"type": "Point", "coordinates": [-108.590217, 39.085785]}},
{"type": "Feature", "id": "XenfTBvvFA5T3MfO324HlNf5Bgo=", "properties": {"ref": "4490", "@spider": "davita", "addr:full": "3421 S Rio Grande Ave", "addr:city": "Montrose", "addr:state": "CO", "addr:postcode": "81401-4840", "name": "DaVita Black Canyon Dialysis", "phone": "1-800-424-6589", "website": "https://davita.com/locations/4490", "brand": "DaVita"}, "geometry": {"type": "Point", "coordinates": [-107.87004, 38.446847]}},
{"type": "Feature", "id": "P8x6pdGhprRbuH1np1WMIuSrKQQ=", "properties": {"ref": "5073", "@spider": "davita", "addr:full": "4348 Woodlands Blvd", "addr:city": "Castle Rock", "addr:state": "CO", "addr:postcode": "80104-2800", "name": "DaVita Red Hawk Dialysis", "phone": "1-800-424-6589", "website": "https://davita.com/locations/5073", "brand": "DaVita"}, "geometry": {"type": "Point", "coordinates": [-104.852259, 39.406394]}},
{"type": "Feature", "id": "7X1JQQAZnnSsy4_DrgvTAfmwNPE=", "properties": {"ref": "5140", "@spider": "davita", "addr:full": "509 N Sable Blvd", "addr:city": "Aurora", "addr:state": "CO", "addr:postcode": "80011-0801", "name": "DaVita Sable Dialysis", "phone": "1-800-424-6589", "website": "https://davita.com/locations/5140", "brand": "DaVita"}, "geometry": {"type": "Point", "coordinates": [-104.8195298, 39.7239679]}},
{"type": "Feature", "id": "0g-8oEbEUtJfJaGPArT7Wyj0J3o=", "properties": {"ref": "5284", "@spider": "davita", "addr:full": "11700 West 2nd Pl", "addr:city": "Lakewood", "addr:state": "CO", "addr:postcode": "80228-1755", "name": "DaVita West Lakewood Dialysis", "phone": "1-800-424-6589", "website": "https://davita.com/locations/5284", "brand": "DaVita"}, "geometry": {"type": "Point", "coordinates": [-105.1299977, 39.7155391]}},
{"type": "Feature", "id": "-5Ps9en8BqsOlXz2qd9JnbH8FOY=", "properties": {"ref": "5424", "@spider": "davita", "addr:full": "1453 Denver Ave", "addr:city": "Loveland", "addr:state": "CO", "addr:postcode": "80538-5226", "name": "DaVita Loveland Central Dialysis", "phone": "1-800-424-6589", "website": "https://davita.com/locations/5424", "brand": "DaVita"}, "geometry": {"type": "Point", "coordinates": [-105.0446973, 40.4078497]}},
{"type": "Feature", "id": "JJg3kMWcE71qAPrdw_cIsgXpajU=", "properties": {"ref": "5678", "@spider": "davita", "addr:full": "603 Holly Dr", "addr:city": "Sterling", "addr:state": "CO", "addr:postcode": "80751-4539", "name": "DaVita Northeastern Colorado Dialysis", "phone": "1-800-424-6589", "website": "https://davita.com/locations/5678", "brand": "DaVita"}, "geometry": {"type": "Point", "coordinates": [-103.2198493, 40.6112158]}},
{"type": "Feature", "id": "ao0F5sHb4o62mzfxNIzNFhY7NaA=", "properties": {"ref": "5940", "@spider": "davita", "addr:full": "561 25 Rd", "addr:city": "Grand Junction", "addr:state": "CO", "addr:postcode": "81505-1360", "name": "DaVita Mesa County At Home", "phone": "1-800-424-6589", "website": "https://davita.com/locations/5940", "brand": "DaVita"}, "geometry": {"type": "Point", "coordinates": [-108.590217, 39.085785]}},
{"type": "Feature", "id": "k6Yy7r9alnVD3TTFbrbQe6kdEBw=", "properties": {"ref": "5968", "@spider": "davita", "addr:full": "10371 S Parkglenn Way", "addr:city": "Parker", "addr:state": "CO", "addr:postcode": "80138-3871", "name": "DaVita Parker At Home", "phone": "1-800-424-6589", "website": "https://davita.com/locations/5968", "brand": "DaVita"}, "geometry": {"type": "Point", "coordinates": [-104.765896, 39.531299]}},
{"type": "Feature", "id": "L-EDwVTpUCYfx7Lv21pUskT-CMU=", "properties": {"ref": "6015", "@spider": "davita", "addr:full": "7465 E 1st Ave", "addr:city": "Denver", "addr:state": "CO", "addr:postcode": "80230-6877", "name": "DaVita Lowry At Home", "phone": "1-800-424-6589", "website": "https://davita.com/locations/6015", "brand": "DaVita"}, "geometry": {"type": "Point", "coordinates": [-104.900482, 39.719536]}},
{"type": "Feature", "id": "86UJqSGOpxdwRx25Gsin06f48lc=", "properties": {"ref": "6033", "@spider": "davita", "addr:full": "2002 Lelaray St", "addr:city": "Colorado Springs", "addr:state": "CO", "addr:postcode": "80909-2804", "name": "DaVita Pikes Peak At Home", "phone": "1-800-424-6589", "website": "https://davita.com/locations/6033", "brand": "DaVita"}, "geometry": {"type": "Point", "coordinates": [-104.790843, 38.857468]}},
{"type": "Feature", "id": "XIO4l9H4yOEO6RMtVjxIMzUL4r4=", "properties": {"ref": "843", "@spider": "davita", "addr:full": "4391 Riverchase Dr", "addr:city": "Phenix City", "addr:state": "AL", "addr:postcode": "36867-7519", "name": "DaVita Phenix City Dialysis Center", "phone": "1-800-424-6589", "website": "https://davita.com/locations/843", "brand": "DaVita"}, "geometry": {"type": "Point", "coordinates": [-85.0268011, 32.4785984]}},
{"type": "Feature", "id": "WgSBrieWRHfBqvfjRJfKfeFSHDY=", "properties": {"ref": "1646", "@spider": "davita", "addr:full": "1001 Forest Ave", "addr:city": "Montgomery", "addr:state": "AL", "addr:postcode": "36106-1181", "name": "DaVita Pdi-montgomery", "phone": "1-800-424-6589", "website": "https://davita.com/locations/1646", "brand": "DaVita"}, "geometry": {"type": "Point", "coordinates": [-86.285965, 32.369326]}},
{"type": "Feature", "id": "_YLoh5xEodBTjsVRln5EHueSLIA=", "properties": {"ref": "1648", "@spider": "davita", "addr:full": "600 Mcqueen Smith Rd S", "addr:city": "Prattville", "addr:state": "AL", "addr:postcode": "36066-5716", "name": "DaVita Pdi-prattville", "phone": "1-800-424-6589", "website": "https://davita.com/locations/1648", "brand": "DaVita"}, "geometry": {"type": "Point", "coordinates": [-86.422053, 32.4615859]}},
{"type": "Feature", "id": "7fjHD7FR_iqfg7yg9wcOBYe_ozE=", "properties": {"ref": "1649", "@spider": "davita", "addr:full": "125 Hospital Dr", "addr:city": "Wetumpka", "addr:state": "AL", "addr:postcode": "36092-1626", "name": "DaVita Pdi-elmore County", "phone": "1-800-424-6589", "website": "https://davita.com/locations/1649", "brand": "DaVita"}, "geometry": {"type": "Point", "coordinates": [-86.1897556, 32.5512785]}},
{"type": "Feature", "id": "eD9xjXL4wP6fTQ1UDj08mxUT77g=", "properties": {"ref": "1755", "@spider": "davita", "addr:full": "807 E Craig St", "addr:city": "Atmore", "addr:state": "AL", "addr:postcode": "36502-3017", "name": "DaVita Atmore Dialysis Center", "phone": "1-800-424-6589", "website": "https://davita.com/locations/1755", "brand": "DaVita"}, "geometry": {"type": "Point", "coordinates": [-87.4797345, 31.0173777]}},
{"type": "Feature", "id": "HAg1C2yY0sqPmCUYFYKAcrF06hg=", "properties": {"ref": "1756", "@spider": "davita", "addr:full": "150 W Peachtree Ave", "addr:city": "Foley", "addr:state": "AL", "addr:postcode": "36535-2244", "name": "DaVita South Baldwin Dialysis Center", "phone": "1-800-424-6589", "website": "https://davita.com/locations/1756", "brand": "DaVita"}, "geometry": {"type": "Point", "coordinates": [-87.6854927, 30.4288028]}},
{"type": "Feature", "id": "IjrkMC9oi5J_75SN7LAohhQ9JJs=", "properties": {"ref": "2249", "@spider": "davita", "addr:full": "726 Battle St E", "addr:city": "Talladega", "addr:state": "AL", "addr:postcode": "35160-2583", "name": "DaVita Talladega Dialysis", "phone": "1-800-424-6589", "website": "https://davita.com/locations/2249", "brand": "DaVita"}, "geometry": {"type": "Point", "coordinates": [-86.1142575, 33.4326]}},
{"type": "Feature", "id": "eayTQFX55Io7nYmoNsJcfuhr7Rw=", "properties": {"ref": "2371", "@spider": "davita", "addr:full": "2337 1st St Ne", "addr:city": "Center Point", "addr:state": "AL", "addr:postcode": "35215-3619", "name": "DaVita Center Point Dialysis", "phone": "1-800-424-6589", "website": "https://davita.com/locations/2371", "brand": "DaVita"}, "geometry": {"type": "Point", "coordinates": [-86.6818955, 33.646348]}},
{"type": "Feature", "id": "iyotLXp8g86yY0V1TylEHfgXc4o=", "properties": {"ref": "2393", "@spider": "davita", "addr:full": "2340 Pepperell Pkwy", "addr:city": "Opelika", "addr:state": "AL", "addr:postcode": "36801-6240", "name": "DaVita Opelika Dialysis Center", "phone": "1-800-424-6589", "website": "https://davita.com/locations/2393", "brand": "DaVita"}, "geometry": {"type": "Point", "coordinates": [-85.4138219, 32.6374778]}},
{"type": "Feature", "id": "G8bvJK_bi7YSKVB0KgdP_VMsxkc=", "properties": {"ref": "2601", "@spider": "davita", "addr:full": "2800 Rainbow Dr", "addr:city": "Rainbow City", "addr:state": "AL", "addr:postcode": "35906-5811", "name": "DaVita Rainbow City Dialysis", "phone": "1-800-424-6589", "website": "https://davita.com/locations/2601", "brand": "DaVita"}, "geometry": {"type": "Point", "coordinates": [-86.0272062, 33.9658011]}},
{"type": "Feature", "id": "lKdgFUd_YUH8YKrdR6TT-37jRtg=", "properties": {"ref": "2604", "@spider": "davita", "addr:full": "409 S 1st St", "addr:city": "Gadsden", "addr:state": "AL", "addr:postcode": "35901-5358", "name": "DaVita Gadsden Dialysis", "phone": "1-800-424-6589", "website": "https://davita.com/locations/2604", "brand": "DaVita"}, "geometry": {"type": "Point", "coordinates": [-86.0026907, 34.0070282]}},
{"type": "Feature", "id": "s3apjD-G8OMYddYiaHQYciCtKUY=", "properties": {"ref": "2609", "@spider": "davita", "addr:full": "216 Graceland Dr", "addr:city": "Dothan", "addr:state": "AL", "addr:postcode": "36305-7346", "name": "DaVita Dothan Dialysis", "phone": "1-800-424-6589", "website": "https://davita.com/locations/2609", "brand": "DaVita"}, "geometry": {"type": "Point", "coordinates": [-85.4524, 31.2319]}},
{"type": "Feature", "id": "mumYc8pMrw0PJhzlkCHaC_hL2MQ=", "properties": {"ref": "2614", "@spider": "davita", "addr:full": "1105 E Park Dr", "addr:city": "Birmingham", "addr:state": "AL", "addr:postcode": "35235-2560", "name": "DaVita Birmingham East Dialysis", "phone": "1-800-424-6589", "website": "https://davita.com/locations/2614", "brand": "DaVita"}, "geometry": {"type": "Point", "coordinates": [-86.680471, 33.587499]}},
{"type": "Feature", "id": "0Uzi0ZGDrfS6M3iUW0wD1j2qFOs=", "properties": {"ref": "2615", "@spider": "davita", "addr:full": "805 Old Mill St", "addr:city": "Tuscaloosa", "addr:state": "AL", "addr:postcode": "35401-7132", "name": "DaVita Tuscaloosa Dialysis", "phone": "1-800-424-6589", "website": "https://davita.com/locations/2615", "brand": "DaVita"}, "geometry": {"type": "Point", "coordinates": [-87.5479, 33.1786]}},
{"type": "Feature", "id": "OOn8SzXhWPyOs6dkSOs6prr75WQ=", "properties": {"ref": "2616", "@spider": "davita", "addr:full": "305 S Cedar Ave", "addr:city": "Demopolis", "addr:state": "AL", "addr:postcode": "36732-2231", "name": "DaVita Demopolis Dialysis", "phone": "1-800-424-6589", "website": "https://davita.com/locations/2616", "brand": "DaVita"}, "geometry": {"type": "Point", "coordinates": [-87.8352125, 32.5119769]}},
{"type": "Feature", "id": "xPqXcKgBtN7_RvcrjdTLsNvSs6A=", "properties": {"ref": "3038", "@spider": "davita", "addr:full": "1120 S Jackson Hwy", "addr:city": "Sheffield", "addr:state": "AL", "addr:postcode": "35660-5770", "name": "DaVita Sheffield Dialysis", "phone": "1-800-424-6589", "website": "https://davita.com/locations/3038", "brand": "DaVita"}, "geometry": {"type": "Point", "coordinates": [-87.7020096, 34.746895]}},
{"type": "Feature", "id": "Tf_HVSpcGs5jXUedop0vsDRq3fQ=", "properties": {"ref": "3092", "@spider": "davita", "addr:full": "195 Bunting Dr", "addr:city": "Ozark", "addr:state": "AL", "addr:postcode": "36360-1101", "name": "DaVita Ozark Dialysis", "phone": "1-800-424-6589", "website": "https://davita.com/locations/3092", "brand": "DaVita"}, "geometry": {"type": "Point", "coordinates": [-85.6309907, 31.4507718]}},
{"type": "Feature", "id": "CfoUXRYugmGNttfgavWf7116_p8=", "properties": {"ref": "11073", "@spider": "davita", "addr:full": "2812 W 10th St", "addr:city": "Greeley", "addr:state": "CO", "addr:postcode": "80634-5425", "name": "DaVita Greeley Dialysis", "phone": "1-800-424-6589", "website": "https://davita.com/locations/11073", "brand": "DaVita"}, "geometry": {"type": "Point", "coordinates": [-104.7260581, 40.4228199]}},
{"type": "Feature", "id": "inrWHMdBPkF60H96I3POTwOaaV4=", "properties": {"ref": "11226", "@spider": "davita", "addr:full": "4834 Chambers Rd", "addr:city": "Denver", "addr:state": "CO", "addr:postcode": "80239-5152", "name": "DaVita Montbello Dialysis", "phone": "1-800-424-6589", "website": "https://davita.com/locations/11226", "brand": "DaVita"}, "geometry": {"type": "Point", "coordinates": [-104.8094907, 39.7850957]}},
{"type": "Feature", "id": "AUV0iJXb8fSONuaC-c0hesqUL34=", "properties": {"ref": "11248", "@spider": "davita", "addr:full": "1601 Prospect Pkwy", "addr:city": "Fort Collins", "addr:state": "CO", "addr:postcode": "80525-1076", "name": "DaVita Fort Collins Dialysis", "phone": "1-800-424-6589", "website": "https://davita.com/locations/11248", "brand": "DaVita"}, "geometry": {"type": "Point", "coordinates": [-105.0490456, 40.5670366]}},
{"type": "Feature", "id": "FuGTW6sra5O3aClHCqMhIvH9mQI=", "properties": {"ref": "11450", "@spider": "davita", "addr:full": "1321 S 4th Ave", "addr:city": "Brighton", "addr:state": "CO", "addr:postcode": "80601-6809", "name": "DaVita Platte Valley Dialysis", "phone": "1-800-424-6589", "website": "https://davita.com/locations/11450", "brand": "DaVita"}, "geometry": {"type": "Point", "coordinates": [-104.8183127, 39.9667615]}},
{"type": "Feature", "id": "eHccDXM6TgDlTpekr2sZn2miwqM=", "properties": {"ref": "12679", "@spider": "davita", "addr:full": "1750 Pierce St", "addr:city": "Lakewood", "addr:state": "CO", "addr:postcode": "80214-1434", "name": "DaVita Mile High Home At Home", "phone": "1-800-424-6589", "website": "https://davita.com/locations/12679", "brand": "DaVita"}, "geometry": {"type": "Point", "coordinates": [-105.0713134, 39.7452269]}},
{"type": "Feature", "id": "A5gwAXjXAc57qS2anNabU9p7Doc=", "properties": {"ref": "3131", "@spider": "davita", "addr:full": "422 E Dr Hicks Blvd", "addr:city": "Florence", "addr:state": "AL", "addr:postcode": "35630-5730", "name": "DaVita Florence Dialysis", "phone": "1-800-424-6589", "website": "https://davita.com/locations/3131", "brand": "DaVita"}, "geometry": {"type": "Point", "coordinates": [-87.6698508, 34.7993312]}},
{"type": "Feature", "id": "ZJ4XJRFhQegfa6rpKD0_k-TBlAw=", "properties": {"ref": "3204", "@spider": "davita", "addr:full": "544 Us Highway 43", "addr:city": "Eutaw", "addr:state": "AL", "addr:postcode": "35462-4017", "name": "DaVita Greene County Dialysis", "phone": "1-800-424-6589", "website": "https://davita.com/locations/3204", "brand": "DaVita"}, "geometry": {"type": "Point", "coordinates": [-87.8816722, 32.8405168]}},
{"type": "Feature", "id": "sPF5pbzBvfO_imaus75P4iZf2mo=", "properties": {"ref": "3205", "@spider": "davita", "addr:full": "2450 Temple Ave N", "addr:city": "Fayette", "addr:state": "AL", "addr:postcode": "35555-1160", "name": "DaVita Fayette Dialysis", "phone": "1-800-424-6589", "website": "https://davita.com/locations/3205", "brand": "DaVita"}, "geometry": {"type": "Point", "coordinates": [-87.8161298, 33.7217112]}},
{"type": "Feature", "id": "VKsbnkueiFYVtvT0mihsBfwYMVI=", "properties": {"ref": "3206", "@spider": "davita", "addr:full": "220 15th St", "addr:city": "Tuscaloosa", "addr:state": "AL", "addr:postcode": "35401-3523", "name": "DaVita Tuscaloosa University Dialysis", "phone": "1-800-424-6589", "website": "https://davita.com/locations/3206", "brand": "DaVita"}, "geometry": {"type": "Point", "coordinates": [-87.538, 33.1992]}},
{"type": "Feature", "id": "N0QwI3gPSW96MgT1a5IlMQoflFE=", "properties": {"ref": "497", "@spider": "davita", "addr:full": "4145 Union Rd", "addr:city": "Saint Louis", "addr:state": "MO", "addr:postcode": "63129-1064", "name": "DaVita South County Dialysis", "phone": "1-800-424-6589", "website": "https://davita.com/locations/497", "brand": "DaVita"}, "geometry": {"type": "Point", "coordinates": [-90.3345622, 38.5070601]}},
{"type": "Feature", "id": "qJwG5uG8wlBiiwQnv4GxZN_i0UY=", "properties": {"ref": "947", "@spider": "davita", "addr:full": "2610 Clark Ave", "addr:city": "Saint Louis", "addr:state": "MO", "addr:postcode": "63103-2502", "name": "DaVita St Louis Dialysis Center", "phone": "1-800-424-6589", "website": "https://davita.com/locations/947", "brand": "DaVita"}, "geometry": {"type": "Point", "coordinates": [-90.2180207, 38.6289084]}},
{"type": "Feature", "id": "rbiJVoGeu1l1iGZKXFtlN3Lm_qI=", "properties": {"ref": "949", "@spider": "davita", "addr:full": "960 S Truman Blvd", "addr:city": "Festus", "addr:state": "MO", "addr:postcode": "63028-3714", "name": "DaVita Crystal City Dialysis Center", "phone": "1-800-424-6589", "website": "https://davita.com/locations/949", "brand": "DaVita"}, "geometry": {"type": "Point", "coordinates": [-90.3790094, 38.2211656]}},
{"type": "Feature", "id": "YYZCuU6Kda6_LoPf6XNHILo9gQ0=", "properties": {"ref": "951", "@spider": "davita", "addr:full": "1207 State Route Vv", "addr:city": "Kennett", "addr:state": "MO", "addr:postcode": "63857-3823", "name": "DaVita Hope Again Dialysis Center", "phone": "1-800-424-6589", "website": "https://davita.com/locations/951", "brand": "DaVita"}, "geometry": {"type": "Point", "coordinates": [-90.0702117, 36.2254943]}},
{"type": "Feature", "id": "psagHj4BOS_7j7RHm_YJ-x5oiuA=", "properties": {"ref": "1576", "@spider": "davita", "addr:full": "9560 Watson Rd", "addr:city": "Saint Louis", "addr:state": "MO", "addr:postcode": "63126-1541", "name": "DaVita Crestwood Dialysis", "phone": "1-800-424-6589", "website": "https://davita.com/locations/1576", "brand": "DaVita"}, "geometry": {"type": "Point", "coordinates": [-90.39205, 38.557636]}},
{"type": "Feature", "id": "QwjhjWgqwY0EKFLRYiBRZyvLNBU=", "properties": {"ref": "2025", "@spider": "davita", "addr:full": "1425 Hampton Ave", "addr:city": "Saint Louis", "addr:state": "MO", "addr:postcode": "63139-3115", "name": "DaVita Hampton Avenue Dialysis", "phone": "1-800-424-6589", "website": "https://davita.com/locations/2025", "brand": "DaVita"}, "geometry": {"type": "Point", "coordinates": [-90.288386, 38.624518]}},
{"type": "Feature", "id": "1v8QDTD881fvYlyeFV3A5D0KL8Q=", "properties": {"ref": "2051", "@spider": "davita", "addr:full": "12654 Lamplighter Square Shpg Ctr", "addr:city": "Saint Louis", "addr:state": "MO", "addr:postcode": "63128-2746", "name": "DaVita Lamplighter Dialysis", "phone": "1-800-424-6589", "website": "https://davita.com/locations/2051", "brand": "DaVita"}, "geometry": {"type": "Point", "coordinates": [-90.3787905, 38.5041032]}},
{"type": "Feature", "id": "vNPq3vcs7ejJGsiZm9iFa-PAUcg=", "properties": {"ref": "2136", "@spider": "davita", "addr:full": "1701 E Broadway", "addr:city": "Columbia", "addr:state": "MO", "addr:postcode": "65201-8029", "name": "DaVita Rtc-columbia Dialysis", "phone": "1-800-424-6589", "website": "https://davita.com/locations/2136", "brand": "DaVita"}, "geometry": {"type": "Point", "coordinates": [-92.314012, 38.950547]}},
{"type": "Feature", "id": "HsZkb3GBumo5m0i_7EgDjmURg2Q=", "properties": {"ref": "2176", "@spider": "davita", "addr:full": "13812 S Us Highway 71", "addr:city": "Grandview", "addr:state": "MO", "addr:postcode": "64030-3685", "name": "DaVita Grandview Dialysis", "phone": "1-800-424-6589", "website": "https://davita.com/locations/2176", "brand": "DaVita"}, "geometry": {"type": "Point", "coordinates": [-94.5263334, 38.8737975]}},
{"type": "Feature", "id": "t7abvVW2uKXGnoxPFG0AKOHmO_c=", "properties": {"ref": "2383", "@spider": "davita", "addr:full": "13015 New Halls Ferry Rd", "addr:city": "Florissant", "addr:state": "MO", "addr:postcode": "63033-3228", "name": "DaVita North St Louis County Dialysis", "phone": "1-800-424-6589", "website": "https://davita.com/locations/2383", "brand": "DaVita"}, "geometry": {"type": "Point", "coordinates": [-90.2895374, 38.79531]}},
{"type": "Feature", "id": "TU4qpIK8v3-3O6I7ysEj2x6xe_Y=", "properties": {"ref": "3343", "@spider": "davita", "addr:full": "16 Central Henderson Rd", "addr:city": "Boaz", "addr:state": "AL", "addr:postcode": "35957-5922", "name": "DaVita Boaz Dialysis", "phone": "1-800-424-6589", "website": "https://davita.com/locations/3343", "brand": "DaVita"}, "geometry": {"type": "Point", "coordinates": [-86.1648838, 34.2223158]}},
{"type": "Feature", "id": "bgH19l8qqoFtOnPpmQZZb1LCflA=", "properties": {"ref": "3377", "@spider": "davita", "addr:full": "728 Richard Arrington Jr Blvd S", "addr:city": "Birmingham", "addr:state": "AL", "addr:postcode": "35233-2106", "name": "DaVita Birmingham Central Dialysis", "phone": "1-800-424-6589", "website": "https://davita.com/locations/3377", "brand": "DaVita"}, "geometry": {"type": "Point", "coordinates": [-86.7981, 33.50558]}},
{"type": "Feature", "id": "qojGcCAT7KsAvZS6JK3ZBmK17us=", "properties": {"ref": "3379", "@spider": "davita", "addr:full": "1917 32nd Ave N", "addr:city": "Birmingham", "addr:state": "AL", "addr:postcode": "35207-3333", "name": "DaVita Birmingham North Dialysis", "phone": "1-800-424-6589", "website": "https://davita.com/locations/3379", "brand": "DaVita"}, "geometry": {"type": "Point", "coordinates": [-86.8282843, 33.5509339]}},
{"type": "Feature", "id": "4viDkdOgK3YfoatUfmXNGaMOx5k=", "properties": {"ref": "3382", "@spider": "davita", "addr:full": "2630 Avenue E", "addr:city": "Birmingham", "addr:state": "AL", "addr:postcode": "35218-2163", "name": "DaVita Ensley Dialysis", "phone": "1-800-424-6589", "website": "https://davita.com/locations/3382", "brand": "DaVita"}, "geometry": {"type": "Point", "coordinates": [-86.9018824, 33.5068699]}},
{"type": "Feature", "id": "j5MN-fLakbn7rdBqg6L1Jwud9E4=", "properties": {"ref": "3383", "@spider": "davita", "addr:full": "331 James Payton Blvd", "addr:city": "Sylacauga", "addr:state": "AL", "addr:postcode": "35150-8064", "name": "DaVita Sylacauga Dialysis", "phone": "1-800-424-6589", "website": "https://davita.com/locations/3383", "brand": "DaVita"}, "geometry": {"type": "Point", "coordinates": [-86.2900972, 33.1755551]}},
{"type": "Feature", "id": "gYrj57Z_gA6GzCv16SIhi43f6T8=", "properties": {"ref": "3485", "@spider": "davita", "addr:full": "14897 Highway 43", "addr:city": "Russellville", "addr:state": "AL", "addr:postcode": "35653-1954", "name": "DaVita Russellville Dialysis", "phone": "1-800-424-6589", "website": "https://davita.com/locations/3485", "brand": "DaVita"}, "geometry": {"type": "Point", "coordinates": [-87.7172582, 34.5074165]}},
{"type": "Feature", "id": "lysB_e2ZdcMCt4nms6pxCO_PDtM=", "properties": {"ref": "3610", "@spider": "davita", "addr:full": "220 S Orange Ave", "addr:city": "Eufaula", "addr:state": "AL", "addr:postcode": "36027-1612", "name": "DaVita Eufaula Dialysis", "phone": "1-800-424-6589", "website": "https://davita.com/locations/3610", "brand": "DaVita"}, "geometry": {"type": "Point", "coordinates": [-85.1421485, 31.8905046]}},
{"type": "Feature", "id": "k_3jfkJUWcSigcDPp4hRDx_sGsg=", "properties": {"ref": "3619", "@spider": "davita", "addr:full": "2401 Hospital Dr", "addr:city": "Northport", "addr:state": "AL", "addr:postcode": "35476-3392", "name": "DaVita Northport Dialysis", "phone": "1-800-424-6589", "website": "https://davita.com/locations/3619", "brand": "DaVita"}, "geometry": {"type": "Point", "coordinates": [-87.5692, 33.2316]}},
{"type": "Feature", "id": "rk7bpjz81mTwl8_619ZwZlUyViY=", "properties": {"ref": "3862", "@spider": "davita", "addr:full": "289 William E Hill Dr", "addr:city": "Carrollton", "addr:state": "AL", "addr:postcode": "35447-3247", "name": "DaVita Pickens County Dialysis", "phone": "1-800-424-6589", "website": "https://davita.com/locations/3862", "brand": "DaVita"}, "geometry": {"type": "Point", "coordinates": [-88.0950263, 33.2617871]}},
{"type": "Feature", "id": "zy7_EA79enAkNb3eaRAhCHxh474=", "properties": {"ref": "4036", "@spider": "davita", "addr:full": "15953 Athens Limestone Dr", "addr:city": "Athens", "addr:state": "AL", "addr:postcode": "35613-2214", "name": "DaVita Athens Dialysis", "phone": "1-800-424-6589", "website": "https://davita.com/locations/4036", "brand": "DaVita"}, "geometry": {"type": "Point", "coordinates": [-86.9421137, 34.7862804]}},
{"type": "Feature", "id": "ffysy0h64ZwMTSv7Jl2XUg8helQ=", "properties": {"ref": "4343", "@spider": "davita", "addr:full": "1450 Ross Clark Cir", "addr:city": "Dothan", "addr:state": "AL", "addr:postcode": "36301-4770", "name": "DaVita Wiregrass Kidney Center", "phone": "1-800-424-6589", "website": "https://davita.com/locations/4343", "brand": "DaVita"}, "geometry": {"type": "Point", "coordinates": [-85.3707, 31.1995]}},
{"type": "Feature", "id": "xQFvIZtYSUWrFASSUREx3rJJGsY=", "properties": {"ref": "4376", "@spider": "davita", "addr:full": "1840 Darby Dr", "addr:city": "Florence", "addr:state": "AL", "addr:postcode": "35630-2623", "name": "DaVita Renaissance Dialysis", "phone": "1-800-424-6589", "website": "https://davita.com/locations/4376", "brand": "DaVita"}, "geometry": {"type": "Point", "coordinates": [-87.6563423, 34.8216613]}},
{"type": "Feature", "id": "8QaAdjLa0qD8DD2sa9WfuaBfLkI=", "properties": {"ref": "4399", "@spider": "davita", "addr:full": "712 State St", "addr:city": "Muscle Shoals", "addr:state": "AL", "addr:postcode": "35661-2940", "name": "DaVita Muscle Shoals Dialysis", "phone": "1-800-424-6589", "website": "https://davita.com/locations/4399", "brand": "DaVita"}, "geometry": {"type": "Point", "coordinates": [-87.6654833, 34.743821]}},
{"type": "Feature", "id": "v_WFaMzV0t-Kcn-AXjYT1irazBk=", "properties": {"ref": "4402", "@spider": "davita", "addr:full": "3947 Gulf Shores Pkwy", "addr:city": "Gulf Shores", "addr:state": "AL", "addr:postcode": "36542-2859", "name": "DaVita Gulf Shores Dialysis Center", "phone": "1-800-424-6589", "website": "https://davita.com/locations/4402", "brand": "DaVita"}, "geometry": {"type": "Point", "coordinates": [-87.683526, 30.310106]}},
{"type": "Feature", "id": "skSoAXLtUBCNEyL8LFxpZqk_9VY=", "properties": {"ref": "5052", "@spider": "davita", "addr:full": "6002 Boll Weevil Cir", "addr:city": "Enterprise", "addr:state": "AL", "addr:postcode": "36330-9420", "name": "DaVita Enterprise Dialysis", "phone": "1-800-424-6589", "website": "https://davita.com/locations/5052", "brand": "DaVita"}, "geometry": {"type": "Point", "coordinates": [-85.8705141, 31.2947365]}},
{"type": "Feature", "id": "UXjqdAXi9JEpfVCFjgNt6NmZZfQ=", "properties": {"ref": "5063", "@spider": "davita", "addr:full": "16236 Lucas Ferry Rd", "addr:city": "Athens", "addr:state": "AL", "addr:postcode": "35611-3931", "name": "DaVita Limestone County Dialysis", "phone": "1-800-424-6589", "website": "https://davita.com/locations/5063", "brand": "DaVita"}, "geometry": {"type": "Point", "coordinates": [-87.0011051, 34.7942649]}},
{"type": "Feature", "id": "UAjRuXkc7Q1-g9xqSvML5g7PcLg=", "properties": {"ref": "5081", "@spider": "davita", "addr:full": "514 W Town Plz", "addr:city": "Bessemer", "addr:state": "AL", "addr:postcode": "35020-5346", "name": "DaVita Jewel Dialysis", "phone": "1-800-424-6589", "website": "https://davita.com/locations/5081", "brand": "DaVita"}, "geometry": {"type": "Point", "coordinates": [-86.9765304, 33.3896898]}},
{"type": "Feature", "id": "HhfD9kUEdQhVuyVk9GoF_lpoPaU=", "properties": {"ref": "5082", "@spider": "davita", "addr:full": "3007 27th St N", "addr:city": "Birmingham", "addr:state": "AL", "addr:postcode": "35207-4549", "name": "DaVita Crown Dialysis", "phone": "1-800-424-6589", "website": "https://davita.com/locations/5082", "brand": "DaVita"}, "geometry": {"type": "Point", "coordinates": [-86.8081003, 33.5497175]}},
{"type": "Feature", "id": "ADoXcHvM_5qfKo3jeX5yi-tCAO4=", "properties": {"ref": "416", "@spider": "davita", "addr:full": "Hwy 264 Mile Marker 388", "addr:city": "Polacca", "addr:state": "AZ", "addr:postcode": "86042-0964", "name": "DaVita Hopi Dialysis Center", "phone": "1-800-424-6589", "website": "https://davita.com/locations/416", "brand": "DaVita"}, "geometry": {"type": "Point", "coordinates": [-110.3815198, 35.8366716]}},
{"type": "Feature", "id": "o7HEPl-maiU-5iySfozrhs6uHJo=", "properties": {"ref": "626", "@spider": "davita", "addr:full": "500 Edgewater Dr", "addr:city": "Tuba City", "addr:state": "AZ", "addr:postcode": "86045-2905", "name": "DaVita Tuba City Dialysis", "phone": "1-800-424-6589", "website": "https://davita.com/locations/626", "brand": "DaVita"}, "geometry": {"type": "Point", "coordinates": [-111.2320953, 36.1294391]}},
{"type": "Feature", "id": "kNhkQqIAmzw7Tgp6J3xyti_IJdc=", "properties": {"ref": "637", "@spider": "davita", "addr:full": "9220 E Mountain View Rd", "addr:city": "Scottsdale", "addr:state": "AZ", "addr:postcode": "85258-5134", "name": "DaVita Desert Mountain Dialysis Center", "phone": "1-800-424-6589", "website": "https://davita.com/locations/637", "brand": "DaVita"}, "geometry": {"type": "Point", "coordinates": [-111.879887, 33.576405]}},
{"type": "Feature", "id": "dJdxXm78Yf20Bj8gmQAPIthR9ZU=", "properties": {"ref": "638", "@spider": "davita", "addr:full": "Us Hwy 191", "addr:city": "Chinle", "addr:state": "AZ", "addr:postcode": "86503-0879", "name": "DaVita Chinle Dialysis", "phone": "1-800-424-6589", "website": "https://davita.com/locations/638", "brand": "DaVita"}, "geometry": {"type": "Point", "coordinates": [-109.6001079, 36.2360946]}},
{"type": "Feature", "id": "w-BR1TNTyJrq9ISTvdS40s9DS-0=", "properties": {"ref": "655", "@spider": "davita", "addr:full": "Highway 163 Box 217", "addr:city": "Kayenta", "addr:state": "AZ", "addr:postcode": "86033-9997", "name": "DaVita Kayenta Dialysis", "phone": "1-800-424-6589", "website": "https://davita.com/locations/655", "brand": "DaVita"}, "geometry": {"type": "Point", "coordinates": [-110.2545767, 36.7277769]}},
{"type": "Feature", "id": "QVp8yUDi32uOsNkMOYsvOnGefcA=", "properties": {"ref": "657", "@spider": "davita", "addr:full": "5115 E Thomas Rd", "addr:city": "Phoenix", "addr:state": "AZ", "addr:postcode": "85018-7914", "name": "DaVita Papago Dialysis Center", "phone": "1-800-424-6589", "website": "https://davita.com/locations/657", "brand": "DaVita"}, "geometry": {"type": "Point", "coordinates": [-112.029666, 33.464259]}},
{"type": "Feature", "id": "cjGEG_oNcT7ITMfSY3L2du1ufMk=", "properties": {"ref": "1936", "@spider": "davita", "addr:full": "8410 W Thomas Rd", "addr:city": "Phoenix", "addr:state": "AZ", "addr:postcode": "85037-3356", "name": "DaVita Estrella Dialysis Center", "phone": "1-800-424-6589", "website": "https://davita.com/locations/1936", "brand": "DaVita"}, "geometry": {"type": "Point", "coordinates": [-112.2414, 33.480773]}},
{"type": "Feature", "id": "9DWRQXEMtDlnnIgEafEyebbm9Is=", "properties": {"ref": "1937", "@spider": "davita", "addr:full": "5222 E Baseline Rd", "addr:city": "Gilbert", "addr:state": "AZ", "addr:postcode": "85234-2963", "name": "DaVita Gilbert Dialysis Center", "phone": "1-800-424-6589", "website": "https://davita.com/locations/1937", "brand": "DaVita"}, "geometry": {"type": "Point", "coordinates": [-111.718814, 33.380239]}},
{"type": "Feature", "id": "zUZJao_m8GJROoOc23vqOFd_Gt8=", "properties": {"ref": "1938", "@spider": "davita", "addr:full": "2149 E Warner Rd", "addr:city": "Tempe", "addr:state": "AZ", "addr:postcode": "85284-3496", "name": "DaVita Tempe Dialysis Center", "phone": "1-800-424-6589", "website": "https://davita.com/locations/1938", "brand": "DaVita"}, "geometry": {"type": "Point", "coordinates": [-111.894765, 33.333941]}},
{"type": "Feature", "id": "sZB1JdvXVshRPj6gbYF07Iw_PA8=", "properties": {"ref": "1939", "@spider": "davita", "addr:full": "337 E Coronado Rd", "addr:city": "Phoenix", "addr:state": "AZ", "addr:postcode": "85004-1582", "name": "DaVita Phoenix Dialysis Center", "phone": "1-800-424-6589", "website": "https://davita.com/locations/1939", "brand": "DaVita"}, "geometry": {"type": "Point", "coordinates": [-112.067634, 33.467052]}},
{"type": "Feature", "id": "rM181Tag2ucvo1aqU4iZnqjPngM=", "properties": {"ref": "1949", "@spider": "davita", "addr:full": "20325 N 51st Ave", "addr:city": "Glendale", "addr:state": "AZ", "addr:postcode": "85308-4625", "name": "DaVita Arrowhead Lakes Dialysis Center", "phone": "1-800-424-6589", "website": "https://davita.com/locations/1949", "brand": "DaVita"}, "geometry": {"type": "Point", "coordinates": [-112.168995, 33.669737]}},
{"type": "Feature", "id": "8PNuTG_3yocupkvdySYDIbmvZOg=", "properties": {"ref": "1952", "@spider": "davita", "addr:full": "10238 E Hampton Ave", "addr:city": "Mesa", "addr:state": "AZ", "addr:postcode": "85209-3317", "name": "DaVita Mountain Vista Dialysis Center Of Arizona", "phone": "1-800-424-6589", "website": "https://davita.com/locations/1952", "brand": "DaVita"}, "geometry": {"type": "Point", "coordinates": [-111.6099234, 33.3909819]}},
{"type": "Feature", "id": "lwTF6ukuHLd3HkKqsZWhMk9U_hY=", "properties": {"ref": "2038", "@spider": "davita", "addr:full": "14664 N Del Webb Blvd", "addr:city": "Sun City", "addr:state": "AZ", "addr:postcode": "85351-2137", "name": "DaVita Palm Brook Dialysis Center", "phone": "1-800-424-6589", "website": "https://davita.com/locations/2038", "brand": "DaVita"}, "geometry": {"type": "Point", "coordinates": [-112.292191, 33.618597]}},
{"type": "Feature", "id": "VVHZ_Ylf6yKymHv8I5_5UW_aw_M=", "properties": {"ref": "2207", "@spider": "davita", "addr:full": "13907 W Camino Del Sol", "addr:city": "Sun City West", "addr:state": "AZ", "addr:postcode": "85375-4405", "name": "DaVita Westbrook Dialysis", "phone": "1-800-424-6589", "website": "https://davita.com/locations/2207", "brand": "DaVita"}, "geometry": {"type": "Point", "coordinates": [-112.362304, 33.657423]}},
{"type": "Feature", "id": "CB60otdlj8YYBlA1EMcUGgdDwhg=", "properties": {"ref": "2325", "@spider": "davita", "addr:full": "2945 W Ina Rd", "addr:city": "Tucson", "addr:state": "AZ", "addr:postcode": "85741-2366", "name": "DaVita Northwest Tucson Dialysis", "phone": "1-800-424-6589", "website": "https://davita.com/locations/2325", "brand": "DaVita"}, "geometry": {"type": "Point", "coordinates": [-111.030265, 32.336672]}},
{"type": "Feature", "id": "f1MZt-Am0DjGSiaIOEpPp1qTUYI=", "properties": {"ref": "2399", "@spider": "davita", "addr:full": "809 W Longhorn Rd", "addr:city": "Payson", "addr:state": "AZ", "addr:postcode": "85541-4280", "name": "DaVita Rim Country Dialysis", "phone": "1-800-424-6589", "website": "https://davita.com/locations/2399", "brand": "DaVita"}, "geometry": {"type": "Point", "coordinates": [-111.3424299, 34.240359]}},
{"type": "Feature", "id": "LlnZaoS6vHt4y6uYYnPBuQNsxq8=", "properties": {"ref": "2427", "@spider": "davita", "addr:full": "2901 E Grant Rd", "addr:city": "Tucson", "addr:state": "AZ", "addr:postcode": "85716-2717", "name": "DaVita Tucson Central Dialysis", "phone": "1-800-424-6589", "website": "https://davita.com/locations/2427", "brand": "DaVita"}, "geometry": {"type": "Point", "coordinates": [-110.9295248, 32.2504128]}},
{"type": "Feature", "id": "XCZ8eSzeORndCqGJPjESZ8NRfNw=", "properties": {"ref": "2456", "@spider": "davita", "addr:full": "14671 W Mountain View Blvd", "addr:city": "Surprise", "addr:state": "AZ", "addr:postcode": "85374-4840", "name": "DaVita Grand Home Dialysis", "phone": "1-800-424-6589", "website": "https://davita.com/locations/2456", "brand": "DaVita"}, "geometry": {"type": "Point", "coordinates": [-112.378399, 33.655227]}},
{"type": "Feature", "id": "5kkgpAUzMOytjhxW5uXQE42d-fQ=", "properties": {"ref": "2508", "@spider": "davita", "addr:full": "2130 W 24th St", "addr:city": "Yuma", "addr:state": "AZ", "addr:postcode": "85364-6122", "name": "DaVita Yuma Dialysis", "phone": "1-800-424-6589", "website": "https://davita.com/locations/2508", "brand": "DaVita"}, "geometry": {"type": "Point", "coordinates": [-114.646109, 32.6840041]}},
{"type": "Feature", "id": "m4qXsdwXmpz_xokT4o2X2YS793s=", "properties": {"ref": "3030", "@spider": "davita", "addr:full": "1605 N Industrial Park Dr", "addr:city": "Nogales", "addr:state": "AZ", "addr:postcode": "85621-4577", "name": "DaVita Nogales Dialysis", "phone": "1-800-424-6589", "website": "https://davita.com/locations/3030", "brand": "DaVita"}, "geometry": {"type": "Point", "coordinates": [-110.9597743, 31.3412155]}},
{"type": "Feature", "id": "slQPzoQhjTLekXlMOm6eO8V0t3Y=", "properties": {"ref": "3046", "@spider": "davita", "addr:full": "Hwy 86 Milepost 113", "addr:city": "Sells", "addr:state": "AZ", "addr:postcode": "85634-3030", "name": "DaVita Sells Dialysis", "phone": "1-800-424-6589", "website": "https://davita.com/locations/3046", "brand": "DaVita"}, "geometry": {"type": "Point", "coordinates": [-111.881234, 31.9120215]}},
{"type": "Feature", "id": "5JP1CvVMQ3QKaC1mOVXl3Wq0hgk=", "properties": {"ref": "2384", "@spider": "davita", "addr:full": "19101 E Valley View Pkwy", "addr:city": "Independence", "addr:state": "MO", "addr:postcode": "64055-6907", "name": "DaVita Eastland Dialysis", "phone": "1-800-424-6589", "website": "https://davita.com/locations/2384", "brand": "DaVita"}, "geometry": {"type": "Point", "coordinates": [-94.3370247, 39.0321471]}},
{"type": "Feature", "id": "N_7YDBcG8xcEU5S0okqJI6ey_48=", "properties": {"ref": "2445", "@spider": "davita", "addr:full": "419 Meramec Blvd", "addr:city": "Eureka", "addr:state": "MO", "addr:postcode": "63025-3906", "name": "DaVita Eureka Dialysis Center", "phone": "1-800-424-6589", "website": "https://davita.com/locations/2445", "brand": "DaVita"}, "geometry": {"type": "Point", "coordinates": [-90.6347629, 38.5063821]}},
{"type": "Feature", "id": "Itiju3BA83u0B4MZCU2iDmrHAEk=", "properties": {"ref": "3115", "@spider": "davita", "addr:full": "1503 E 10th St", "addr:city": "Rolla", "addr:state": "MO", "addr:postcode": "65401-3696", "name": "DaVita Rolla Dialysis", "phone": "1-800-424-6589", "website": "https://davita.com/locations/3115", "brand": "DaVita"}, "geometry": {"type": "Point", "coordinates": [-91.7452349, 37.9514875]}},
{"type": "Feature", "id": "dHZqCaaHDABCQtJGkNgpglzt_Z0=", "properties": {"ref": "3202", "@spider": "davita", "addr:full": "900 E 21st St", "addr:city": "Kansas City", "addr:state": "MO", "addr:postcode": "64108-2703", "name": "DaVita Hospital Hill Dialysis", "phone": "1-800-424-6589", "website": "https://davita.com/locations/3202", "brand": "DaVita"}, "geometry": {"type": "Point", "coordinates": [-94.5762, 39.0854]}},
{"type": "Feature", "id": "g-IRYUKrUrwEXpa-Sp9jZMxqJYY=", "properties": {"ref": "3278", "@spider": "davita", "addr:full": "1112 Washington Sq", "addr:city": "Washington", "addr:state": "MO", "addr:postcode": "63090-5336", "name": "DaVita Washington Square Dialysis", "phone": "1-800-424-6589", "website": "https://davita.com/locations/3278", "brand": "DaVita"}, "geometry": {"type": "Point", "coordinates": [-91.0041808, 38.5364131]}},
{"type": "Feature", "id": "PRrfbn8XB2D8N6-EL_lg24pvigA=", "properties": {"ref": "3279", "@spider": "davita", "addr:full": "10887 W Florissant Ave", "addr:city": "Saint Louis", "addr:state": "MO", "addr:postcode": "63136-2405", "name": "DaVita Florissant Dialysis", "phone": "1-800-424-6589", "website": "https://davita.com/locations/3279", "brand": "DaVita"}, "geometry": {"type": "Point", "coordinates": [-90.280748, 38.779159]}},
{"type": "Feature", "id": "gcSskAxZKi_VxC-BGJyENM0fOW8=", "properties": {"ref": "3386", "@spider": "davita", "addr:full": "7303 Watson Rd", "addr:city": "Saint Louis", "addr:state": "MO", "addr:postcode": "63119-4405", "name": "DaVita Shrewsbury Dialysis", "phone": "1-800-424-6589", "website": "https://davita.com/locations/3386", "brand": "DaVita"}, "geometry": {"type": "Point", "coordinates": [-90.327389, 38.579502]}},
{"type": "Feature", "id": "6d7tQuYI1Rapyy6BQcca14SIEEc=", "properties": {"ref": "3418", "@spider": "davita", "addr:full": "400 N Lindbergh Blvd", "addr:city": "Saint Louis", "addr:state": "MO", "addr:postcode": "63141-7814", "name": "DaVita St. Louis West Dialysis", "phone": "1-800-424-6589", "website": "https://davita.com/locations/3418", "brand": "DaVita"}, "geometry": {"type": "Point", "coordinates": [-90.404549, 38.662619]}},
{"type": "Feature", "id": "ktOUY90ZeU7fj_LD2mSuaAUMQKM=", "properties": {"ref": "3465", "@spider": "davita", "addr:full": "9632 Olive Blvd", "addr:city": "Olivette", "addr:state": "MO", "addr:postcode": "63132-3002", "name": "DaVita St. Louis West Home Training (pd)", "phone": "1-800-424-6589", "website": "https://davita.com/locations/3465", "brand": "DaVita"}, "geometry": {"type": "Point", "coordinates": [-90.404524, 38.663231]}},
{"type": "Feature", "id": "ytZI9NvSQZAyyY1o5Bp8VYHRjXI=", "properties": {"ref": "3475", "@spider": "davita", "addr:full": "324 De Baliviere Ave", "addr:city": "Saint Louis", "addr:state": "MO", "addr:postcode": "63112-1804", "name": "DaVita De Baliviere Dialysis", "phone": "1-800-424-6589", "website": "https://davita.com/locations/3475", "brand": "DaVita"}, "geometry": {"type": "Point", "coordinates": [-90.284979, 38.6495914]}},
{"type": "Feature", "id": "ZA4OgbQkdUxkzemzWA896_mIu68=", "properties": {"ref": "3499", "@spider": "davita", "addr:full": "637 Dunn Rd", "addr:city": "Hazelwood", "addr:state": "MO", "addr:postcode": "63042-1757", "name": "DaVita Hazelwood Dialysis", "phone": "1-800-424-6589", "website": "https://davita.com/locations/3499", "brand": "DaVita"}, "geometry": {"type": "Point", "coordinates": [-90.36386, 38.7806629]}},
{"type": "Feature", "id": "LR9eUAToqcrHf2qxAitPpiAyrvU=", "properties": {"ref": "3504", "@spider": "davita", "addr:full": "2525 Glenn Hendren Dr", "addr:city": "Liberty", "addr:state": "MO", "addr:postcode": "64068-9625", "name": "DaVita Liberty Dialysis", "phone": "1-800-424-6589", "website": "https://davita.com/locations/3504", "brand": "DaVita"}, "geometry": {"type": "Point", "coordinates": [-94.4253935, 39.2760605]}},
{"type": "Feature", "id": "hDxtaVt_Fueh32OdRuyxh2VpuTI=", "properties": {"ref": "3513", "@spider": "davita", "addr:full": "2750 Clay Edwards Dr", "addr:city": "North Kansas City", "addr:state": "MO", "addr:postcode": "64116-3257", "name": "DaVita Northland Dialysis", "phone": "1-800-424-6589", "website": "https://davita.com/locations/3513", "brand": "DaVita"}, "geometry": {"type": "Point", "coordinates": [-94.5500758, 39.1496448]}},
{"type": "Feature", "id": "EvvQ3FdH43d7F6FR0xa5jjYMzlc=", "properties": {"ref": "3516", "@spider": "davita", "addr:full": "200 Brevco Plz", "addr:city": "Lake Saint Louis", "addr:state": "MO", "addr:postcode": "63367-2950", "name": "DaVita Lake St. Louis Dialysis", "phone": "1-800-424-6589", "website": "https://davita.com/locations/3516", "brand": "DaVita"}, "geometry": {"type": "Point", "coordinates": [-90.78454, 38.803329]}},
{"type": "Feature", "id": "HpG_cGbxZuihVVC4VkbOfSA6MRw=", "properties": {"ref": "3525", "@spider": "davita", "addr:full": "588 E Business 36", "addr:city": "Chillicothe", "addr:state": "MO", "addr:postcode": "64601-3721", "name": "DaVita Chillicothe Dialysis", "phone": "1-800-424-6589", "website": "https://davita.com/locations/3525", "brand": "DaVita"}, "geometry": {"type": "Point", "coordinates": [-93.5524358, 39.7952946]}},
{"type": "Feature", "id": "SUla4XXu4aXSdJF3-d0i45yzhRs=", "properties": {"ref": "3536", "@spider": "davita", "addr:full": "5514 Corporate Dr", "addr:city": "Saint Joseph", "addr:state": "MO", "addr:postcode": "64507-7754", "name": "DaVita St. Joseph Dialysis", "phone": "1-800-424-6589", "website": "https://davita.com/locations/3536", "brand": "DaVita"}, "geometry": {"type": "Point", "coordinates": [-94.766924, 39.753587]}},
{"type": "Feature", "id": "uTnc1CulKh0PE-hQl4tlsHaJsOM=", "properties": {"ref": "3589", "@spider": "davita", "addr:full": "300 First Executive Ave", "addr:city": "Saint Peters", "addr:state": "MO", "addr:postcode": "63376-1655", "name": "DaVita St. Peters Dialysis", "phone": "1-800-424-6589", "website": "https://davita.com/locations/3589", "brand": "DaVita"}, "geometry": {"type": "Point", "coordinates": [-90.584987, 38.793773]}},
{"type": "Feature", "id": "cdnV7su6kK8fU8P_5RMD9WuRfDA=", "properties": {"ref": "3591", "@spider": "davita", "addr:full": "7667 Nw Prairie View Rd", "addr:city": "Kansas City", "addr:state": "MO", "addr:postcode": "64151-1544", "name": "DaVita Platte Woods Dialysis", "phone": "1-800-424-6589", "website": "https://davita.com/locations/3591", "brand": "DaVita"}, "geometry": {"type": "Point", "coordinates": [-94.6586092, 39.2334776]}},
{"type": "Feature", "id": "YALpxT6FUeyZVAATPrkcnVTxk2k=", "properties": {"ref": "3993", "@spider": "davita", "addr:full": "200 Brevco Plz", "addr:city": "Lake St Louis", "addr:state": "MO", "addr:postcode": "63367-2950", "name": "DaVita Lake St Louis Home (pd)", "phone": "1-800-424-6589", "website": "https://davita.com/locations/3993", "brand": "DaVita"}, "geometry": {"type": "Point", "coordinates": [-90.784835, 38.803642]}},
{"type": "Feature", "id": "jM1aB2ya8xCeaJcZ7JBUwFaDxU4=", "properties": {"ref": "4447", "@spider": "davita", "addr:full": "2010 N Outer Rd", "addr:city": "Dexter", "addr:state": "MO", "addr:postcode": "63841-8001", "name": "DaVita Dexter Dialysis", "phone": "1-800-424-6589", "website": "https://davita.com/locations/4447", "brand": "DaVita"}, "geometry": {"type": "Point", "coordinates": [-89.9718277, 36.8103928]}},
{"type": "Feature", "id": "hAsjzvBXZR8gw3-6kQ7OIaQISLM=", "properties": {"ref": "4454", "@spider": "davita", "addr:full": "4407 E 50th Ter", "addr:city": "Kansas City", "addr:state": "MO", "addr:postcode": "64130-2855", "name": "DaVita Swope Dialysis", "phone": "1-800-424-6589", "website": "https://davita.com/locations/4454", "brand": "DaVita"}, "geometry": {"type": "Point", "coordinates": [-94.532568, 39.034053]}},
{"type": "Feature", "id": "IJ5rirV6omcBQDSU5nX7JDPfzxg=", "properties": {"ref": "4455", "@spider": "davita", "addr:full": "12110 Holmes Rd", "addr:city": "Kansas City", "addr:state": "MO", "addr:postcode": "64145-1707", "name": "DaVita Timberlake Dialysis", "phone": "1-800-424-6589", "website": "https://davita.com/locations/4455", "brand": "DaVita"}, "geometry": {"type": "Point", "coordinates": [-94.5847775, 38.9067581]}},
{"type": "Feature", "id": "45ygwiSlE2k7Ue4lepFwu39saqg=", "properties": {"ref": "4463", "@spider": "davita", "addr:full": "929 Waterbury Falls Dr", "addr:city": "O Fallon", "addr:state": "MO", "addr:postcode": "63368-2202", "name": "DaVita Villa Of Waterbury", "phone": "1-800-424-6589", "website": "https://davita.com/locations/4463", "brand": "DaVita"}, "geometry": {"type": "Point", "coordinates": [-90.6957438, 38.724332]}},
{"type": "Feature", "id": "cXlcpGO7D2u9FHaN3YT4YGY3yNE=", "properties": {"ref": "5010", "@spider": "davita", "addr:full": "649 Maple Valley Dr", "addr:city": "Farmington", "addr:state": "MO", "addr:postcode": "63640-1993", "name": "DaVita Maple Valley Dialysis", "phone": "1-800-424-6589", "website": "https://davita.com/locations/5010", "brand": "DaVita"}, "geometry": {"type": "Point", "coordinates": [-90.4387015, 37.7903967]}},
{"type": "Feature", "id": "bBGEL1w2jf0uqScX64J7NtsbtCg=", "properties": {"ref": "5049", "@spider": "davita", "addr:full": "1011 Bowles Ave", "addr:city": "Fenton", "addr:state": "MO", "addr:postcode": "63026-2384", "name": "DaVita Bowles Avenue Dialysis", "phone": "1-800-424-6589", "website": "https://davita.com/locations/5049", "brand": "DaVita"}, "geometry": {"type": "Point", "coordinates": [-90.4755967, 38.5275542]}},
{"type": "Feature", "id": "2RR0RJdx3tnqlllNfB8bV7XvnuU=", "properties": {"ref": "5135", "@spider": "davita", "addr:full": "12855 N 40 Dr", "addr:city": "Saint Louis", "addr:state": "MO", "addr:postcode": "63141-8657", "name": "DaVita Town And Country West Dialysis", "phone": "1-800-424-6589", "website": "https://davita.com/locations/5135", "brand": "DaVita"}, "geometry": {"type": "Point", "coordinates": [-90.471768, 38.640087]}},
{"type": "Feature", "id": "fS2IJmjR_7xyqTsdiB8eKK1hyOg=", "properties": {"ref": "5162", "@spider": "davita", "addr:full": "10241 Lewis And Clark Blvd", "addr:city": "Saint Louis", "addr:state": "MO", "addr:postcode": "63136-5505", "name": "DaVita Chambers Dialysis", "phone": "1-800-424-6589", "website": "https://davita.com/locations/5162", "brand": "DaVita"}, "geometry": {"type": "Point", "coordinates": [-90.239386, 38.75691]}},
{"type": "Feature", "id": "pOPu6kOKXK1yICAMFVaBbki5wwM=", "properties": {"ref": "5196", "@spider": "davita", "addr:full": "102 Richardson Xing", "addr:city": "Arnold", "addr:state": "MO", "addr:postcode": "63010-6023", "name": "DaVita Arnold Dialysis", "phone": "1-800-424-6589", "website": "https://davita.com/locations/5196", "brand": "DaVita"}, "geometry": {"type": "Point", "coordinates": [-90.390592, 38.4173897]}},
{"type": "Feature", "id": "RvyYaWU5WTcn2jtJP0V72ZW96_4=", "properties": {"ref": "5374", "@spider": "davita", "addr:full": "1007 E Kearney St", "addr:city": "Springfield", "addr:state": "MO", "addr:postcode": "65803-3433", "name": "DaVita Springfield North Dialysis", "phone": "1-800-424-6589", "website": "https://davita.com/locations/5374", "brand": "DaVita"}, "geometry": {"type": "Point", "coordinates": [-93.278984, 37.2409313]}},
{"type": "Feature", "id": "Wlg3tzI-0HdyfboxR5FZpLwKHUM=", "properties": {"ref": "5083", "@spider": "davita", "addr:full": "300 22nd St So", "addr:city": "Birmingham", "addr:state": "AL", "addr:postcode": "35233-2209", "name": "DaVita Magic City Dialysis", "phone": "1-800-424-6589", "website": "https://davita.com/locations/5083", "brand": "DaVita"}, "geometry": {"type": "Point", "coordinates": [-86.7998709, 33.5112851]}},
{"type": "Feature", "id": "eJc5YVLXAgQjgU5G9Q454UI4pJg=", "properties": {"ref": "5084", "@spider": "davita", "addr:full": "1809 Ave H", "addr:city": "Birmingham", "addr:state": "AL", "addr:postcode": "35218-1542", "name": "DaVita Steel City Dialysis", "phone": "1-800-424-6589", "website": "https://davita.com/locations/5084", "brand": "DaVita"}, "geometry": {"type": "Point", "coordinates": [-86.893212, 33.511623]}},
{"type": "Feature", "id": "Z1pm-FNFXf7FeC4yng1QPK-I2Dk=", "properties": {"ref": "5097", "@spider": "davita", "addr:full": "1650 Maxey Dr", "addr:city": "Leeds", "addr:state": "AL", "addr:postcode": "35094-7512", "name": "DaVita Leeds Dialysis", "phone": "1-800-424-6589", "website": "https://davita.com/locations/5097", "brand": "DaVita"}, "geometry": {"type": "Point", "coordinates": [-86.5240515, 33.5573763]}},
{"type": "Feature", "id": "rorHpMU9JyD2t9KYmJEcQBilepw=", "properties": {"ref": "5214", "@spider": "davita", "addr:full": "757 S Three Notch St", "addr:city": "Andalusia", "addr:state": "AL", "addr:postcode": "36420-4403", "name": "DaVita Andalusia Dialysis", "phone": "1-800-424-6589", "website": "https://davita.com/locations/5214", "brand": "DaVita"}, "geometry": {"type": "Point", "coordinates": [-86.5005785, 31.2941849]}},
{"type": "Feature", "id": "cPn5VyN2WmGFo-QgoPtYPNuJlqA=", "properties": {"ref": "5253", "@spider": "davita", "addr:full": "40 Purple Heart Blvd", "addr:city": "Springville", "addr:state": "AL", "addr:postcode": "35146-4008", "name": "DaVita Springville Dialysis", "phone": "1-800-424-6589", "website": "https://davita.com/locations/5253", "brand": "DaVita"}, "geometry": {"type": "Point", "coordinates": [-86.465528, 33.771775]}},
{"type": "Feature", "id": "5AYSKdMnSAUN--XsneMKjjZPM9o=", "properties": {"ref": "5275", "@spider": "davita", "addr:full": "1612 Noble St", "addr:city": "Anniston", "addr:state": "AL", "addr:postcode": "36201-3839", "name": "DaVita Anniston Dialysis", "phone": "1-800-424-6589", "website": "https://davita.com/locations/5275", "brand": "DaVita"}, "geometry": {"type": "Point", "coordinates": [-85.8298068, 33.6654196]}},
{"type": "Feature", "id": "6XyiwMhfYTjEz3zj2VO3Gkokprc=", "properties": {"ref": "5276", "@spider": "davita", "addr:full": "611 E Lafayette St", "addr:city": "Marion", "addr:state": "AL", "addr:postcode": "36756-2325", "name": "DaVita Perry County Dialysis", "phone": "1-800-424-6589", "website": "https://davita.com/locations/5276", "brand": "DaVita"}, "geometry": {"type": "Point", "coordinates": [-87.3053273, 32.6317089]}},
{"type": "Feature", "id": "mEiVW8s7lvf7JRWinxyIokog41M=", "properties": {"ref": "5310", "@spider": "davita", "addr:full": "300 Medical Center Dr", "addr:city": "Gadsden", "addr:state": "AL", "addr:postcode": "35903-1139", "name": "DaVita Davita Hokes Bluff Dialysis", "phone": "1-800-424-6589", "website": "https://davita.com/locations/5310", "brand": "DaVita"}, "geometry": {"type": "Point", "coordinates": [-85.9682428, 34.0081528]}},
{"type": "Feature", "id": "HRDHB4f1ZsFwvJabKlspwLQqHFc=", "properties": {"ref": "5311", "@spider": "davita", "addr:full": "671 Ozark Rd", "addr:city": "Abbeville", "addr:state": "AL", "addr:postcode": "36310-2629", "name": "DaVita Henry County Dialysis", "phone": "1-800-424-6589", "website": "https://davita.com/locations/5311", "brand": "DaVita"}, "geometry": {"type": "Point", "coordinates": [-85.2688135, 31.5543542]}},
{"type": "Feature", "id": "-TwpmsZjx4zxLklu_4Xcvr3unKo=", "properties": {"ref": "5357", "@spider": "davita", "addr:full": "2958 Dorchester Dr", "addr:city": "Montgomery", "addr:state": "AL", "addr:postcode": "36116-3193", "name": "DaVita Monarch Dialysis", "phone": "1-800-424-6589", "website": "https://davita.com/locations/5357", "brand": "DaVita"}, "geometry": {"type": "Point", "coordinates": [-86.2593602, 32.3227266]}},
{"type": "Feature", "id": "SiHriHz2V1UrleNbioESInIiiNM=", "properties": {"ref": "5416", "@spider": "davita", "addr:full": "1763 E Main St", "addr:city": "Dothan", "addr:state": "AL", "addr:postcode": "36301-3045", "name": "DaVita Home Options Of Dothan (pd)", "phone": "1-800-424-6589", "website": "https://davita.com/locations/5416", "brand": "DaVita"},