{"type":"FeatureCollection","features":[{"type": "Feature", "id": "b06uPXvNk0aBtnyPEaRP0lT2fiQ=", "properties": {"ref": "14825", "@spider": "edeka", "addr:full": "Hans-Holl-Str. 7", "addr:city": "Hemhofen", "addr:state": "Nordbayern-Sachsen-Th\u00fcringen", "addr:postcode": "91334", "addr:country": "DE", "name": "Getr\u00e4nkemarkt Rauer", "phone": "09195 995660", "brand": "Edeka"}, "geometry": {"type": "Point", "coordinates": [10.9341633, 49.6843209]}},
{"type": "Feature", "id": "URSkA-9gj0kTTeXH8n7V_mfdXR0=", "properties": {"ref": "15023", "@spider": "edeka", "addr:full": "Frauenstra\u00dfe 8", "addr:city": "Neugersdorf", "addr:state": "Nordbayern-Sachsen-Th\u00fcringen", "addr:postcode": "02727", "addr:country": "DE", "name": "Gartenbau W\u00fcnsche", "phone": "03586 32410", "brand": "Edeka"}, "geometry": {"type": "Point", "coordinates": [14.61116, 50.97264999999999]}},
{"type": "Feature", "id": "tYC84arUFhpKq7rLfslfxDVlOG4=", "properties": {"ref": "76614", "@spider": "edeka", "addr:full": "Im Oberen Dorf 29", "addr:city": "Bad Sulza", "addr:state": "Nordbayern-Sachsen-Th\u00fcringen", "addr:postcode": "99518", "addr:country": "DE", "name": "EDEKA Schubert", "phone": "036421 31487", "brand": "Edeka"}, "geometry": {"type": "Point", "coordinates": [11.5407216, 51.0595334]}},
{"type": "Feature", "id": "yr9t_wiYMRyWJRplheBATm7tC4E=", "properties": {"ref": "121008", "@spider": "edeka", "addr:full": "Wilhelm-R\u00f6ntgen-Stra\u00dfe 1", "addr:city": "Offenburg", "addr:state": "S\u00fcdwest", "addr:postcode": "77656", "addr:country": "DE", "name": "EDEKA Reisen", "phone": "0781 991186", "brand": "Edeka"}, "geometry": {"type": "Point", "coordinates": [7.9237458, 48.4752616]}},
{"type": "Feature", "id": "G0rySl6yg0IbQao8OYbykI9ZX78=", "properties": {"ref": "5523793", "@spider": "edeka", "addr:full": "B\u00f6\u00dfeneckerstr. 4", "addr:city": "N\u00f6rdlingen", "addr:state": "Nordbayern-Sachsen-Th\u00fcringen", "addr:postcode": "86720", "addr:country": "DE", "name": "CAP-Markt", "phone": "09081 2762143", "brand": "Edeka"}, "geometry": {"type": "Point", "coordinates": [10.4833406, 48.84698909999999]}},
{"type": "Feature", "id": "YOokAlyQ4q4ZJCq8fSFcgRzASzE=", "properties": {"ref": "8000418", "@spider": "edeka", "addr:full": "Alsenberger Str. 17", "addr:city": "Hof", "addr:state": "Nordbayern-Sachsen-Th\u00fcringen", "addr:postcode": "95028", "addr:country": "DE", "name": "EDEKA Izmir", "phone": "09281 8600290", "brand": "Edeka"}, "geometry": {"type": "Point", "coordinates": [11.922027, 50.3123814]}},
{"type": "Feature", "id": "AdZ7VrjJ2IUejRzfuuc8T1Qhuio=", "properties": {"ref": "8000458", "@spider": "edeka", "addr:full": "Ringstr. 5", "addr:city": "Volkach", "addr:state": "Nordbayern-Sachsen-Th\u00fcringen", "addr:postcode": "97332", "addr:country": "DE", "name": "Rupert Mahler", "phone": "09381 2367", "brand": "Edeka"}, "geometry": {"type": "Point", "coordinates": [10.2347044, 49.86138400000001]}},
{"type": "Feature", "id": "9LqnCFDNnGQLq4wVp6f98hMeKOA=", "properties": {"ref": "8000460", "@spider": "edeka", "addr:full": "Deutschh\u00f6fer Str. 60", "addr:city": "Schweinfurt", "addr:state": "Nordbayern-Sachsen-Th\u00fcringen", "addr:postcode": "97422", "addr:country": "DE", "name": "Getr\u00e4nkemarkt Grimm", "phone": "09721 25011", "brand": "Edeka"}, "geometry": {"type": "Point", "coordinates": [10.236277, 50.0565739]}},
{"type": "Feature", "id": "9SsBKttfJBsvfEIiLn7CCmdMCt0=", "properties": {"ref": "8000473", "@spider": "edeka", "addr:full": "Kirchstra\u00dfe 16", "addr:city": "Fuchsstadt", "addr:state": "Nordbayern-Sachsen-Th\u00fcringen", "addr:postcode": "97727", "addr:country": "DE", "name": "Vollmuth & K\u00f6hler GmbH", "phone": "09732 2629", "brand": "Edeka"}, "geometry": {"type": "Point", "coordinates": [9.9318476, 50.1077108]}},
{"type": "Feature", "id": "gX7UwrXFXYubU4chjDRuqgWHAX4=", "properties": {"ref": "8000607", "@spider": "edeka", "addr:full": "B\u00fcndstr. 8", "addr:city": "Bad Neustadt-Brendlorenz", "addr:state": "Nordbayern-Sachsen-Th\u00fcringen", "addr:postcode": "97616", "addr:country": "DE", "name": "B\u00e4ckerei Schmitt", "phone": "09771 4109", "brand": "Edeka"}, "geometry": {"type": "Point", "coordinates": [10.21539, 50.33124]}},
{"type": "Feature", "id": "leDfgUcc6CiTgRe5m0ifAJtLi0s=", "properties": {"ref": "8000610", "@spider": "edeka", "addr:full": "St\u00fcbacher Str. 3", "addr:city": "Baudenbach", "addr:state": "Nordbayern-Sachsen-Th\u00fcringen", "addr:postcode": "91460", "addr:country": "DE", "name": "B\u00e4ckerei Roth", "phone": "09164 236", "brand": "Edeka"}, "geometry": {"type": "Point", "coordinates": [10.5386073, 49.6237341]}},
{"type": "Feature", "id": "Yuzoc7ut3x3dub5TXd_2LrkS1IU=", "properties": {"ref": "8000612", "@spider": "edeka", "addr:full": "Hauptstr. 28", "addr:city": "Betzenstein", "addr:state": "Nordbayern-Sachsen-Th\u00fcringen", "addr:postcode": "91282", "addr:country": "DE", "name": "B\u00e4ckerei Kolb", "phone": "09244 340", "brand": "Edeka"}, "geometry": {"type": "Point", "coordinates": [11.4182397, 49.6830723]}},
{"type": "Feature", "id": "4nYqf19EwDb_g34D8_I6SkTbCEA=", "properties": {"ref": "8000613", "@spider": "edeka", "addr:full": "Hauptstr. 16", "addr:city": "Birgland", "addr:state": "Nordbayern-Sachsen-Th\u00fcringen", "addr:postcode": "92262", "addr:country": "DE", "name": "B\u00e4ckerei Pilh\u00f6fer", "phone": "09666 294", "brand": "Edeka"}, "geometry": {"type": "Point", "coordinates": [11.6413658, 49.4135579]}},
{"type": "Feature", "id": "VMC7mUSdRepLXOZfRpiw3Q47ECQ=", "properties": {"ref": "8000614", "@spider": "edeka", "addr:full": "Kirchgasse 1", "addr:city": "Birkenfeld", "addr:state": "Nordbayern-Sachsen-Th\u00fcringen", "addr:postcode": "97834", "addr:country": "DE", "name": "B\u00e4ckerei Hofmann", "phone": "09398 266", "brand": "Edeka"}, "geometry": {"type": "Point", "coordinates": [9.69458, 49.85704]}},
{"type": "Feature", "id": "8fi45EF02aW8TWwSdQDOpB6IyLE=", "properties": {"ref": "8000615", "@spider": "edeka", "addr:full": "Birkenstr. 4", "addr:city": "Blaufelden-Gammesfeld", "addr:state": "Nordbayern-Sachsen-Th\u00fcringen", "addr:postcode": "74572", "addr:country": "DE", "name": "B\u00e4ckerei D\u00fcrr", "phone": "07958 307", "brand": "Edeka"}, "geometry": {"type": "Point", "coordinates": [10.09409, 49.31266]}},
{"type": "Feature", "id": "Y_bgTZU3JSqayEcChLzI5xpYV8A=", "properties": {"ref": "8000616", "@spider": "edeka", "addr:full": "Hauptstra\u00dfe 35", "addr:city": "Breitbrunn", "addr:state": "Nordbayern-Sachsen-Th\u00fcringen", "addr:postcode": "96151", "addr:country": "DE", "name": "B\u00e4ckerei Strohmenger", "phone": "09536 245", "brand": "Edeka"}, "geometry": {"type": "Point", "coordinates": [10.7030344, 50.0183905]}},
{"type": "Feature", "id": "QMoNKFPzE2SheHssWA9TjBKcrd4=", "properties": {"ref": "8000617", "@spider": "edeka", "addr:full": "M\u00f6nchsherrnsdorf 15", "addr:city": "Burgebrach", "addr:state": "Nordbayern-Sachsen-Th\u00fcringen", "addr:postcode": "96138", "addr:country": "DE", "name": "B\u00e4ckerei Pflaum", "phone": "09551 236", "brand": "Edeka"}, "geometry": {"type": "Point", "coordinates": [10.6494449, 49.8223784]}},
{"type": "Feature", "id": "-iGxHgo0252Z3_erxwv_WJvxv-A=", "properties": {"ref": "8000618", "@spider": "edeka", "addr:full": "Burgusstr. 1", "addr:city": "Burgsalach", "addr:state": "Nordbayern-Sachsen-Th\u00fcringen", "addr:postcode": "91790", "addr:country": "DE", "name": "B\u00e4ckerei Brenner", "phone": "09147 227", "brand": "Edeka"}, "geometry": {"type": "Point", "coordinates": [11.0974986, 49.0328034]}},
{"type": "Feature", "id": "xvSiuXcsyACvBD1TpHeDKUJ1bn4=", "properties": {"ref": "8000619", "@spider": "edeka", "addr:full": "Creidlitzer Str. 102", "addr:city": "Coburg-Creidlitz", "addr:state": "Nordbayern-Sachsen-Th\u00fcringen", "addr:postcode": "96450", "addr:country": "DE", "name": "B\u00e4ckerei Feiler", "phone": "09561 10547", "brand": "Edeka"}, "geometry": {"type": "Point", "coordinates": [10.9796415, 50.23026890000001]}},
{"type": "Feature", "id": "P-NGfhNCbfO1yMY8-znyXScgED8=", "properties": {"ref": "8000620", "@spider": "edeka", "addr:full": "Kirchstr. 7", "addr:city": "Ebersdorf-Gro\u00dfgarnstadt", "addr:state": "Nordbayern-Sachsen-Th\u00fcringen", "addr:postcode": "96237", "addr:country": "DE", "name": "B\u00e4ckerei Carl", "phone": "09562 2169", "brand": "Edeka"}, "geometry": {"type": "Point", "coordinates": [11.07554, 50.24041]}},
{"type": "Feature", "id": "fCFGpm05R-UBJp_7oTNTQDc_vPY=", "properties": {"ref": "8000622", "@spider": "edeka", "addr:full": "Schulstr. 8", "addr:city": "Ebnath/Opf.", "addr:state": "Nordbayern-Sachsen-Th\u00fcringen", "addr:postcode": "95683", "addr:country": "DE", "name": "B\u00e4ckerei S\u00f6llner", "phone": "09234 258", "brand": "Edeka"}, "geometry": {"type": "Point", "coordinates": [11.9410187, 49.9496186]}},
{"type": "Feature", "id": "Wbl71nnwUncUiQVSuXe1t5YIg54=", "properties": {"ref": "8000623", "@spider": "edeka", "addr:full": "Fliederstr. 6", "addr:city": "Eckental-Brand", "addr:state": "Nordbayern-Sachsen-Th\u00fcringen", "addr:postcode": "90542", "addr:country": "DE", "name": "B\u00e4ckerei Wiehg\u00e4rtner", "phone": "09126 1378", "brand": "Edeka"}, "geometry": {"type": "Point", "coordinates": [11.1813008, 49.5813576]}},
{"type": "Feature", "id": "eKRZtfbc3bGaU0ewQMbKB5POiFM=", "properties": {"ref": "8000624", "@spider": "edeka", "addr:full": "Oberer B\u00fchl 1", "addr:city": "Effeltrich", "addr:state": "Nordbayern-Sachsen-Th\u00fcringen", "addr:postcode": "91090", "addr:country": "DE", "name": "B\u00e4ckerei Merkel", "phone": "09133 2653", "brand": "Edeka"}, "geometry": {"type": "Point", "coordinates": [11.0989241, 49.6594092]}},
{"type": "Feature", "id": "4eKp64HtwMVMRPqcaFHVfgsK8Ww=", "properties": {"ref": "8000625", "@spider": "edeka", "addr:full": "Pfarrstr. 12 (Lieferadresse)", "addr:city": "Ellenberg", "addr:state": "Nordbayern-Sachsen-Th\u00fcringen", "addr:postcode": "73488", "addr:country": "DE", "name": "B\u00e4ckerei Virngrundb\u00e4cker", "phone": "07962 90050", "brand": "Edeka"}, "geometry": {"type": "Point", "coordinates": [10.2173628, 49.0128543]}},
{"type": "Feature", "id": "VsAkOpqaA-_TYU6y1AB1DdKvPfU=", "properties": {"ref": "8000627", "@spider": "edeka", "addr:full": "Aschfelder Str. 36", "addr:city": "Eussenheim-Aschfeld", "addr:state": "Nordbayern-Sachsen-Th\u00fcringen", "addr:postcode": "97776", "addr:country": "DE", "name": "B\u00e4ckerei Wagner", "phone": "09350 99940", "brand": "Edeka"}, "geometry": {"type": "Point", "coordinates": [9.8265905, 50.0053862]}},
{"type": "Feature", "id": "BptKplYBSiYATB50DFfdASVY9qk=", "properties": {"ref": "8000634", "@spider": "edeka", "addr:full": "Gerolzh\u00f6fer Str. 3", "addr:city": "Frankenwinheim", "addr:state": "Nordbayern-Sachsen-Th\u00fcringen", "addr:postcode": "97447", "addr:country": "DE", "name": "B\u00e4ckerei Schmitt", "phone": "09382 8343", "brand": "Edeka"}, "geometry": {"type": "Point", "coordinates": [10.3137644, 49.8872325]}},
{"type": "Feature", "id": "GF56mcySJHDkmT0bTbLV75Wid0Y=", "properties": {"ref": "8000637", "@spider": "edeka", "addr:full": "Hauptstr. 20", "addr:city": "Gro\u00dfrinderfeld", "addr:state": "Nordbayern-Sachsen-Th\u00fcringen", "addr:postcode": "97950", "addr:country": "DE", "name": "B\u00e4ckerei D\u00fcrr", "phone": "09349 298", "brand": "Edeka"}, "geometry": {"type": "Point", "coordinates": [9.7336884, 49.6652877]}},
{"type": "Feature", "id": "D1Amc5ozHbzDjDswxweIvQ6ed_s=", "properties": {"ref": "8000640", "@spider": "edeka", "addr:full": "Heinrich-Heine-Str. 1", "addr:city": "Hof", "addr:state": "Nordbayern-Sachsen-Th\u00fcringen", "addr:postcode": "95032", "addr:country": "DE", "name": "B\u00e4ckerei Reichel", "phone": "09281 91432", "brand": "Edeka"}, "geometry": {"type": "Point", "coordinates": [11.9065364, 50.29596780000001]}},
{"type": "Feature", "id": "3y5YQ24O_pQfnBhO2kjzQ38dRqc=", "properties": {"ref": "8000641", "@spider": "edeka", "addr:full": "Schlo\u00dfplatz 2", "addr:city": "Kalchreuth", "addr:state": "Nordbayern-Sachsen-Th\u00fcringen", "addr:postcode": "90562", "addr:country": "DE", "name": "B\u00e4ckerei Wiehg\u00e4rtner", "phone": "0911 5188664", "brand": "Edeka"}, "geometry": {"type": "Point", "coordinates": [11.1325147, 49.5571244]}},
{"type": "Feature", "id": "xyRpbQyuS74bYaBiPvWAO5-A6tk=", "properties": {"ref": "8000642", "@spider": "edeka", "addr:full": "Werntalstr. 36", "addr:city": "Karlstadt-Stetten", "addr:state": "Nordbayern-Sachsen-Th\u00fcringen", "addr:postcode": "97753", "addr:country": "DE", "name": "B\u00e4ckerei Schraut", "phone": "09360 99969", "brand": "Edeka"}, "geometry": {"type": "Point", "coordinates": [9.834256100000001, 49.9460995]}},
{"type": "Feature", "id": "Gq_legDx5LUjCU8M_3CVTg25uzE=", "properties": {"ref": "8000643", "@spider": "edeka", "addr:full": "Hauptstr. 35", "addr:city": "K\u00f6nigheim", "addr:state": "Nordbayern-Sachsen-Th\u00fcringen", "addr:postcode": "97953", "addr:country": "DE", "name": "B\u00e4ckerei Achstetter", "phone": "09341 3642", "brand": "Edeka"}, "geometry": {"type": "Point", "coordinates": [9.59643, 49.6183]}},
{"type": "Feature", "id": "Exb_X_dpxvNQ09l2l-I68SHDtkQ=", "properties": {"ref": "8000644", "@spider": "edeka", "addr:full": "Fockenfelder Weg 1", "addr:city": "Konnersreuth", "addr:state": "Nordbayern-Sachsen-Th\u00fcringen", "addr:postcode": "95692", "addr:country": "DE", "name": "Backhaus Kutzer", "phone": "09632 92460", "brand": "Edeka"}, "geometry": {"type": "Point", "coordinates": [12.2297289, 50.0050373]}},
{"type": "Feature", "id": "I6h2vRcpqOyFDm73bcE8p5ZTFaI=", "properties": {"ref": "8000645", "@spider": "edeka", "addr:full": "Wirtsgasse 3", "addr:city": "Kronach-Fischbach", "addr:state": "Nordbayern-Sachsen-Th\u00fcringen", "addr:postcode": "96317", "addr:country": "DE", "name": "B\u00e4ckerei M\u00f6ckel", "phone": "09261 3756", "brand": "Edeka"}, "geometry": {"type": "Point", "coordinates": [11.38012, 50.21675]}},
{"type": "Feature", "id": "sIHPzyKU1cd1ou_rE8hpVVkwQyc=", "properties": {"ref": "8000646", "@spider": "edeka", "addr:full": "Am Plan 12", "addr:city": "Kronach-Friesen", "addr:state": "Nordbayern-Sachsen-Th\u00fcringen", "addr:postcode": "96317", "addr:country": "DE", "name": "B\u00e4ckerei M\u00fcller", "phone": "09261 93666", "brand": "Edeka"}, "geometry": {"type": "Point", "coordinates": [11.3614294, 50.26784]}},
{"type": "Feature", "id": "P2meV6dWjQxz1R7W8H5r3pkto2k=", "properties": {"ref": "8000648", "@spider": "edeka", "addr:full": "Hohe Flur 1", "addr:city": "Kulmbach", "addr:state": "Nordbayern-Sachsen-Th\u00fcringen", "addr:postcode": "95326", "addr:country": "DE", "name": "B\u00e4ckerei Kreuzer", "phone": "09221 74421", "brand": "Edeka"}, "geometry": {"type": "Point", "coordinates": [11.4410207, 50.0976101]}},
{"type": "Feature", "id": "wIW2d2GyHQ2v7cf_cEWN3oEPcRM=", "properties": {"ref": "8000649", "@spider": "edeka", "addr:full": "Balbachtalstr. 19", "addr:city": "Lauda-Oberbalbach", "addr:state": "Nordbayern-Sachsen-Th\u00fcringen", "addr:postcode": "97922", "addr:country": "DE", "name": "B\u00e4ckerei B\u00e4chtle", "phone": "09343 1784", "brand": "Edeka"}, "geometry": {"type": "Point", "coordinates": [9.791539, 49.5389219]}},
{"type": "Feature", "id": "irn6PMkx0u15AyNwXtiE_Fzt4NM=", "properties": {"ref": "8000650", "@spider": "edeka", "addr:full": "Hauptstr. 53", "addr:city": "Leupoldsgr\u00fcn", "addr:state": "Nordbayern-Sachsen-Th\u00fcringen", "addr:postcode": "95191", "addr:country": "DE", "name": "B\u00e4ckerei Sch\u00fcbel", "phone": "09292 5044", "brand": "Edeka"}, "geometry": {"type": "Point", "coordinates": [11.799061, 50.2948602]}},
{"type": "Feature", "id": "Wuh4HpBXae4Mw1y4840vlPmWNa8=", "properties": {"ref": "8000654", "@spider": "edeka", "addr:full": "Sendelbacher Str. 22", "addr:city": "Lohr", "addr:state": "Nordbayern-Sachsen-Th\u00fcringen", "addr:postcode": "97816", "addr:country": "DE", "name": "B\u00e4ckerei Strobel", "phone": "09352 2743", "brand": "Edeka"}, "geometry": {"type": "Point", "coordinates": [9.584170799999999, 49.9905578]}},
{"type": "Feature", "id": "3dkePfAUAtODPXbNauorNnpo1dE=", "properties": {"ref": "8000661", "@spider": "edeka", "addr:full": "Hauptstr. 31", "addr:city": "Maroldsweisach-Ermershaus", "addr:state": "Nordbayern-Sachsen-Th\u00fcringen", "addr:postcode": "96126", "addr:country": "DE", "name": "B\u00e4ckerei Guthardt", "phone": "09532 336", "brand": "Edeka"}, "geometry": {"type": "Point", "coordinates": [10.6249819, 50.2084882]}},
{"type": "Feature", "id": "uTT7PKGBRp6txaUFlc5OJSwbQ9A=", "properties": {"ref": "8000662", "@spider": "edeka", "addr:full": "Hauptstr. 1", "addr:city": "Mehlmeisel", "addr:state": "Nordbayern-Sachsen-Th\u00fcringen", "addr:postcode": "95694", "addr:country": "DE", "name": "B\u00e4ckerei Bauer", "phone": "09272 6163", "brand": "Edeka"}, "geometry": {"type": "Point", "coordinates": [11.8670552, 49.9759012]}},
{"type": "Feature", "id": "8gQGDVbfU_QuWj119exvNtoczdU=", "properties": {"ref": "8000664", "@spider": "edeka", "addr:full": "Webergasse 29", "addr:city": "Mehlmeisel", "addr:state": "Nordbayern-Sachsen-Th\u00fcringen", "addr:postcode": "95694", "addr:country": "DE", "name": "B\u00e4ckerei H\u00f6ss", "phone": "09272 6313", "brand": "Edeka"}, "geometry": {"type": "Point", "coordinates": [11.8576408, 49.9725623]}},
{"type": "Feature", "id": "JRKcLXQV8eUqjV_g_r0jlrsv8e4=", "properties": {"ref": "8000667", "@spider": "edeka", "addr:full": "Weidh\u00e4user Str. 23", "addr:city": "Michelau-Lettenreuth", "addr:state": "Nordbayern-Sachsen-Th\u00fcringen", "addr:postcode": "96247", "addr:country": "DE", "name": "B\u00e4ckerei S\u00fcnkel", "phone": "09574 235", "brand": "Edeka"}, "geometry": {"type": "Point", "coordinates": [11.1587977, 50.1768309]}},
{"type": "Feature", "id": "PbPGHfldAXCQm_XxlIBincye8jc=", "properties": {"ref": "8000669", "@spider": "edeka", "addr:full": "Kleine Dorfstr. 15", "addr:city": "M\u00fchlhausen", "addr:state": "Nordbayern-Sachsen-Th\u00fcringen", "addr:postcode": "96172", "addr:country": "DE", "name": "B\u00e4ckerei Tr\u00e4nkenschuh", "phone": "09548 445", "brand": "Edeka"}, "geometry": {"type": "Point", "coordinates": [10.7766, 49.75379]}},
{"type": "Feature", "id": "Ffz14K09DPC5mCXOD7j9wfTfhhQ=", "properties": {"ref": "8000670", "@spider": "edeka", "addr:full": "Oberer Markt 2", "addr:city": "Nabburg", "addr:state": "Nordbayern-Sachsen-Th\u00fcringen", "addr:postcode": "92507", "addr:country": "DE", "name": "B\u00e4ckerei Pl\u00f6\u00dfl", "phone": "09433 9603", "brand": "Edeka"}, "geometry": {"type": "Point", "coordinates": [12.1809999, 49.4535401]}},
{"type": "Feature", "id": "LzKiZtJM8nknByGv01BMNxCTosg=", "properties": {"ref": "8000671", "@spider": "edeka", "addr:full": "Silberhausstra\u00dfe 11", "addr:city": "Nagel", "addr:state": "Nordbayern-Sachsen-Th\u00fcringen", "addr:postcode": "95697", "addr:country": "DE", "name": "B\u00e4ckerei K\u00f6nig", "phone": "09236 324", "brand": "Edeka"}, "geometry": {"type": "Point", "coordinates": [11.91877, 49.97881]}},
{"type": "Feature", "id": "rvH4JTDk6nRuhuQjyYyqEKv2rFg=", "properties": {"ref": "8000674", "@spider": "edeka", "addr:full": "An der Aurach 10", "addr:city": "Oberaurach-Unterschleichach", "addr:state": "Nordbayern-Sachsen-Th\u00fcringen", "addr:postcode": "97514", "addr:country": "DE", "name": "B\u00e4ckerei Weisn Beck", "phone": "09529 236", "brand": "Edeka"}, "geometry": {"type": "Point", "coordinates": [10.60491, 49.94244]}},
{"type": "Feature", "id": "Y7LRu8-mYSYmbWbx0cME2YRRMus=", "properties": {"ref": "8000675", "@spider": "edeka", "addr:full": "Leitenstr. 9", "addr:city": "Oberhaid-Staffelbach", "addr:state": "Nordbayern-Sachsen-Th\u00fcringen", "addr:postcode": "96173", "addr:country": "DE", "name": "B\u00e4ckerei D\u00fcsel", "phone": "09503 7592", "brand": "Edeka"}, "geometry": {"type": "Point", "coordinates": [10.7498254, 49.9466182]}},
{"type": "Feature", "id": "sQjBXwb7kUxxdoB_nnUpLri22CQ=", "properties": {"ref": "8000676", "@spider": "edeka", "addr:full": "Talstr. 2", "addr:city": "Petersaurach-Gro\u00dfhasslach", "addr:state": "Nordbayern-Sachsen-Th\u00fcringen", "addr:postcode": "91580", "addr:country": "DE", "name": "B\u00e4ckerei Peipp", "phone": "09872 1478", "brand": "Edeka"}, "geometry": {"type": "Point", "coordinates": [10.728068, 49.3365145]}},
{"type": "Feature", "id": "J1dtmjEeCPL41bbK4DQmAjvX-F8=", "properties": {"ref": "8000677", "@spider": "edeka", "addr:full": "Rosengasse 13", "addr:city": "Pfreimd", "addr:state": "Nordbayern-Sachsen-Th\u00fcringen", "addr:postcode": "92536", "addr:country": "DE", "name": "B\u00e4ckerei Brunner", "phone": "09606 268", "brand": "Edeka"}, "geometry": {"type": "Point", "coordinates": [12.1808059, 49.4932747]}},
{"type": "Feature", "id": "Xie8aPF2BVm7kixBfJVtpJdRaD0=", "properties": {"ref": "8000678", "@spider": "edeka", "addr:full": "St.-Johannes-Str. 35", "addr:city": "Pottenstein- Kirchenbirkig", "addr:state": "Nordbayern-Sachsen-Th\u00fcringen", "addr:postcode": "91278", "addr:country": "DE", "name": "B\u00e4ckerei Brendel", "phone": "09243 876", "brand": "Edeka"}, "geometry": {"type": "Point", "coordinates": [11.4020998, 49.7422085]}},
{"type": "Feature", "id": "Vp6ENEX4Z99VBc1FMufWRi4KQlY=", "properties": {"ref": "8000680", "@spider": "edeka", "addr:full": "Wartenfels 8", "addr:city": "Presseck", "addr:state": "Nordbayern-Sachsen-Th\u00fcringen", "addr:postcode": "95355", "addr:country": "DE", "name": "B\u00e4ckerei St\u00f6cker", "phone": "09223 405", "brand": "Edeka"}, "geometry": {"type": "Point", "coordinates": [11.4912104, 50.2098743]}},
{"type": "Feature", "id": "GIZFa4SwSozZwJPJ8Zsm1M9aSDk=", "properties": {"ref": "8000681", "@spider": "edeka", "addr:full": "Kirchstr. 7", "addr:city": "Pullenreuth/Opf.", "addr:state": "Nordbayern-Sachsen-Th\u00fcringen", "addr:postcode": "95704", "addr:country": "DE", "name": "B\u00e4ckerei Philipp", "phone": "09234 561", "brand": "Edeka"}, "geometry": {"type": "Point", "coordinates": [11.99795, 49.93040999999999]}},
{"type": "Feature", "id": "dZ26ulKK17rh7d60r004YLQKYaM=", "properties": {"ref": "8000691", "@spider": "edeka", "addr:full": "Charlottenstr. 20", "addr:city": "Wangerooge", "addr:state": "Minden/Hannover", "addr:postcode": "26486", "addr:country": "DE", "name": "Frischemarkt Wangerooge", "phone": "04469 1432", "brand": "Edeka"}, "geometry": {"type": "Point", "coordinates": [7.900270000000001, 53.79157]}},
{"type": "Feature", "id": "192nGfQbsqxa5nGS1lAixahEdwE=", "properties": {"ref": "8000746", "@spider": "edeka", "addr:full": "Friesenstr. 4", "addr:city": "Juist", "addr:state": "Minden/Hannover", "addr:postcode": "26571", "addr:country": "DE", "name": "Frischemarkt", "phone": "04935 914070", "brand": "Edeka"}, "geometry": {"type": "Point", "coordinates": [6.99313, 53.67807]}},
{"type": "Feature", "id": "EII4C-uStpbfBS5l5V9BglksodA=", "properties": {"ref": "8000986", "@spider": "edeka", "addr:full": "Zedeliusstr. 36", "addr:city": "Wangerooge", "addr:state": "Minden/Hannover", "addr:postcode": "26486", "addr:country": "DE", "name": "meine frische-insel", "phone": "04469 9459827", "brand": "Edeka"}, "geometry": {"type": "Point", "coordinates": [7.8994035, 53.7922413]}},
{"type": "Feature", "id": "jMUj1sc0ZGvGZjyb5dB0QLalkC4=", "properties": {"ref": "8001132", "@spider": "edeka", "addr:full": "Markt 15/16", "addr:city": "Saalfeld", "addr:state": "Nordbayern-Sachsen-Th\u00fcringen", "addr:postcode": "07318", "addr:country": "DE", "name": "CAP-Markt", "phone": "03671 6270060", "brand": "Edeka"}, "geometry": {"type": "Point", "coordinates": [11.360431, 50.6480445]}},
{"type": "Feature", "id": "LLHrohJrXjMygF6rxc_7KVOyTe4=", "properties": {"ref": "8001507", "@spider": "edeka", "addr:full": "D.-Bonhoeffer-Stra\u00dfe 10-14", "addr:city": "Glauchau", "addr:state": "Nordbayern-Sachsen-Th\u00fcringen", "addr:postcode": "08371", "addr:country": "DE", "name": "Simmel Getr\u00e4nkemarkt", "phone": "03763 4025884", "brand": "Edeka"}, "geometry": {"type": "Point", "coordinates": [12.5492669, 50.8206484]}},
{"type": "Feature", "id": "T3FPmVwojeQvYei-B8_6Mezcm_k=", "properties": {"ref": "8001830", "@spider": "edeka", "addr:full": "Auerbacher Stra\u00dfe 31", "addr:city": "Klingenthal", "addr:state": "Nordbayern-Sachsen-Th\u00fcringen", "addr:postcode": "08248", "addr:country": "DE", "name": "EDEKA B\u00e4hr", "phone": "037467 22594", "brand": "Edeka"}, "geometry": {"type": "Point", "coordinates": [12.4696584, 50.359221]}},
{"type": "Feature", "id": "g1hEzRPdPCyzP3Ck5Qd7jKXWCRU=", "properties": {"ref": "8002018", "@spider": "edeka", "addr:full": "Alte Gartenstra\u00dfe 2", "addr:city": "Geyer", "addr:state": "Nordbayern-Sachsen-Th\u00fcringen", "addr:postcode": "09468", "addr:country": "DE", "name": "EDEKA Einkaufsshop Nestler", "phone": "037346 6184", "brand": "Edeka"}, "geometry": {"type": "Point", "coordinates": [12.9200769, 50.6274568]}},
{"type": "Feature", "id": "J7HXPNLGcnQq02BXUOiqhrouW3Q=", "properties": {"ref": "10002076", "@spider": "edeka", "addr:full": "Mannlichstra\u00dfe 2", "addr:city": "Homburg", "addr:state": "S\u00fcdwest", "addr:postcode": "66424", "addr:country": "DE", "name": "Markt-B\u00e4ckerei Homburg", "phone": "0170 7651451", "brand": "Edeka"}, "geometry": {"type": "Point", "coordinates": [7.33677, 49.31799]}},
{"type": "Feature", "id": "K6sGazjWwvMCO75hOI5zNIn8neA=", "properties": {"ref": "10002077", "@spider": "edeka", "addr:full": "Untere M\u00fchlstra\u00dfe 5", "addr:city": "Darmstadt-Arheilgen", "addr:state": "S\u00fcdwest", "addr:postcode": "64291", "addr:country": "DE", "name": "Markt-B\u00e4ckerei Darmstadt-Arheilgen", "phone": "06151 1306416", "brand": "Edeka"}, "geometry": {"type": "Point", "coordinates": [8.6582, 49.9113]}},
{"type": "Feature", "id": "i1B9sR7rnYi6gEx-4x-4_iVp8Fs=", "properties": {"ref": "10002079", "@spider": "edeka", "addr:full": "Georg-Fischer-Stra\u00dfe 15", "addr:city": "Singen", "addr:state": "S\u00fcdwest", "addr:postcode": "78224", "addr:country": "DE", "name": "Markt-B\u00e4ckerei Singen", "phone": "07731 9691900", "brand": "Edeka"}, "geometry": {"type": "Point", "coordinates": [8.84605, 47.75287]}},
{"type": "Feature", "id": "jfpSIuDWHDNvjzTZXfSv19KmzpM=", "properties": {"ref": "76", "@spider": "edeka", "addr:full": "Fautenbacher Stra\u00dfe 25", "addr:city": "Achern", "addr:state": "S\u00fcdwest", "addr:postcode": "77855", "addr:country": "DE", "name": "Scheck-in Center", "phone": "07841 62870", "brand": "Edeka"}, "geometry": {"type": "Point", "coordinates": [8.0547032, 48.62817]}},
{"type": "Feature", "id": "er7ZsBr01ymVwWxI6S3fC16VoOU=", "properties": {"ref": "1289", "@spider": "edeka", "addr:full": "Haus Nr. 9", "addr:city": "Gars", "addr:state": "S\u00fcdbayern", "addr:postcode": "83536", "addr:country": "DE", "name": "nah & gut Zenz", "phone": "08072 1329", "brand": "Edeka"}, "geometry": {"type": "Point", "coordinates": [12.2214427, 48.1402015]}},
{"type": "Feature", "id": "4a99J5PV2xw9LGYuYNfW_XbR-bM=", "properties": {"ref": "4293", "@spider": "edeka", "addr:full": "Moltkestra\u00dfe 4", "addr:city": "Augsburg", "addr:state": "S\u00fcdbayern", "addr:postcode": "86159", "addr:country": "DE", "name": "nah & gut M\u00e4rz", "phone": "0821 575939", "brand": "Edeka"}, "geometry": {"type": "Point", "coordinates": [10.8853596, 48.35655149999999]}},
{"type": "Feature", "id": "k3ej_kxHOHT6NIalSk1Px-bK9BU=", "properties": {"ref": "4912", "@spider": "edeka", "addr:full": "Zugspitzstra\u00dfe 10 b", "addr:city": "Lauben", "addr:state": "S\u00fcdbayern", "addr:postcode": "87493", "addr:country": "DE", "name": "nah & gut Stumpf", "phone": "08374 9944", "brand": "Edeka"}, "geometry": {"type": "Point", "coordinates": [10.2993424, 47.7803915]}},
{"type": "Feature", "id": "rdGimBWM31GKe_RZuRaeTWioTvo=", "properties": {"ref": "5004", "@spider": "edeka", "addr:full": "Damenstra\u00dfe 19", "addr:city": "Waldkirch", "addr:state": "S\u00fcdwest", "addr:postcode": "79183", "addr:country": "DE", "name": "EDEKA Rees", "phone": "07681 25854", "brand": "Edeka"}, "geometry": {"type": "Point", "coordinates": [7.9636517, 48.093439]}},
{"type": "Feature", "id": "8IoNwUBfi7Bg819OesaFBkwTSvY=", "properties": {"ref": "7337", "@spider": "edeka", "addr:full": "Wildunger Str.18", "addr:city": "Waldeck - Sachsenhausen", "addr:state": "Hessenring", "addr:postcode": "34513", "addr:country": "DE", "name": "Schmidt Handelsgesellschaft mbH & Co.KG", "phone": "05634 345", "brand": "Edeka"}, "geometry": {"type": "Point", "coordinates": [9.0103721, 51.2431894]}},
{"type": "Feature", "id": "0qgOerr2bngFhmnoCS1g34PuxIQ=", "properties": {"ref": "7391", "@spider": "edeka", "addr:full": "Butzbacherstr. 3", "addr:city": "M\u00fcnzenberg-Gambach", "addr:state": "Hessenring", "addr:postcode": "35516", "addr:country": "DE", "name": "Dieter Schulze e.K.", "phone": "06033 895544", "brand": "Edeka"}, "geometry": {"type": "Point", "coordinates": [8.7325573, 50.45711619999999]}},
{"type": "Feature", "id": "McvVmGSoch07Lo56zdCCHYDp87g=", "properties": {"ref": "10079", "@spider": "edeka", "addr:full": "Gottlieberstra\u00dfe 34", "addr:city": "Konstanz", "addr:state": "S\u00fcdwest", "addr:postcode": "78462", "addr:country": "DE", "name": "EDEKA Baur", "phone": "07531 23433", "brand": "Edeka"}, "geometry": {"type": "Point", "coordinates": [9.165456899999999, 47.6626797]}},
{"type": "Feature", "id": "G45hzpoahZ3SbJl706vWbcDJsKc=", "properties": {"ref": "10306", "@spider": "edeka", "addr:full": "Hauptstra\u00dfe 30", "addr:city": "Schopfloch", "addr:state": "S\u00fcdwest", "addr:postcode": "72296", "addr:country": "DE", "name": "Zieglers Backstube", "phone": "07443 171801", "brand": "Edeka"}, "geometry": {"type": "Point", "coordinates": [8.5512812, 48.4544354]}},
{"type": "Feature", "id": "UenweurwKL907l4m2UpuNM0Lx9Y=", "properties": {"ref": "10878", "@spider": "edeka", "addr:full": "Marstallstra\u00dfe 18", "addr:city": "Karlsruhe", "addr:state": "S\u00fcdwest", "addr:postcode": "76227", "addr:country": "DE", "name": "Scheck-in Center", "phone": "0721 490290", "brand": "Edeka"}, "geometry": {"type": "Point", "coordinates": [8.472690199999999, 48.9975794]}},
{"type": "Feature", "id": "wZfGIwu0HTVgQiWAY0rloSZSroY=", "properties": {"ref": "10951", "@spider": "edeka", "addr:full": "Hauptstra\u00dfe 4", "addr:city": "B\u00fchlertal", "addr:state": "S\u00fcdwest", "addr:postcode": "77830", "addr:country": "DE", "name": "nah und gut Scheck", "phone": "07223 990850", "brand": "Edeka"}, "geometry": {"type": "Point", "coordinates": [8.173904, 48.6955007]}},
{"type": "Feature", "id": "11fXsrOqKQZwI2XDi9uGTy8JCII=", "properties": {"ref": "11173", "@spider": "edeka", "addr:full": "Staader Stra\u00dfe 2", "addr:city": "Konstanz", "addr:state": "S\u00fcdwest", "addr:postcode": "78464", "addr:country": "DE", "name": "EDEKA Baur", "phone": "07531 34765", "brand": "Edeka"}, "geometry": {"type": "Point", "coordinates": [9.20256, 47.6805772]}},
{"type": "Feature", "id": "AM5Yj3sq1F6vwyOYMp4R0Urx4bg=", "properties": {"ref": "12153", "@spider": "edeka", "addr:full": "Elberfelder Stra\u00dfe 94", "addr:city": "Radevormwald", "addr:state": "Rhein-Ruhr", "addr:postcode": "42477", "addr:country": "DE", "name": "EDEKA Byhahn", "phone": "02195 6849844", "brand": "Edeka"}, "geometry": {"type": "Point", "coordinates": [7.3339095, 51.2024828]}},
{"type": "Feature", "id": "28bW6dQoSknk9S0KQIfjFXTxnek=", "properties": {"ref": "14804", "@spider": "edeka", "addr:full": "Am Baumgarten 6", "addr:city": "Dietersheim", "addr:state": "Nordbayern-Sachsen-Th\u00fcringen", "addr:postcode": "91463", "addr:country": "DE", "name": "Lebensmittel Eitel", "phone": "09161 876453", "brand": "Edeka"}, "geometry": {"type": "Point", "coordinates": [10.54336, 49.5599]}},
{"type": "Feature", "id": "9rAK7y_vgYbt14sSAe83iNgMngc=", "properties": {"ref": "14889", "@spider": "edeka", "addr:full": "Egerl\u00e4nder Stra\u00dfe 17", "addr:city": "Neumarkt", "addr:state": "Nordbayern-Sachsen-Th\u00fcringen", "addr:postcode": "92318", "addr:country": "DE", "name": "EDEKA Niedermeier", "phone": "09181 43505", "brand": "Edeka"}, "geometry": {"type": "Point", "coordinates": [11.472013, 49.28088289999999]}},
{"type": "Feature", "id": "HNGkd8poVFc32yT59zsmCh4YyKo=", "properties": {"ref": "14905", "@spider": "edeka", "addr:full": "Hauptstr. 24", "addr:city": "Petersauchrach", "addr:state": "Nordbayern-Sachsen-Th\u00fcringen", "addr:postcode": "91580", "addr:country": "DE", "name": "Frischmarkt W\u00e4lzlein", "phone": "09872 8156", "brand": "Edeka"}, "geometry": {"type": "Point", "coordinates": [10.7473859, 49.3110091]}},
{"type": "Feature", "id": "TW25zypxELeK-Vz6enukd2QXGi4=", "properties": {"ref": "17984", "@spider": "edeka", "addr:full": "Hansaring 156", "addr:city": "Neum\u00fcnster", "addr:state": "Nord", "addr:postcode": "24534", "addr:country": "DE", "name": "EDEKA Meyer\u00b4s", "phone": "04321 12524", "brand": "Edeka"}, "geometry": {"type": "Point", "coordinates": [9.962271999999999, 54.0789358]}},
{"type": "Feature", "id": "-aF59Gg5fnwFstQNsF5Fjw43Dqk=", "properties": {"ref": "18121", "@spider": "edeka", "addr:full": "Bismarckallee 3", "addr:city": "Freiburg", "addr:state": "S\u00fcdwest", "addr:postcode": "79098", "addr:country": "DE", "name": "Wehrle Markt am Gleis", "phone": "0761 2921336", "brand": "Edeka"}, "geometry": {"type": "Point", "coordinates": [7.841801999999999, 47.997166]}},
{"type": "Feature", "id": "cnNtTYro78dgqQ6QmBEWeNqFzyM=", "properties": {"ref": "60926", "@spider": "edeka", "addr:full": "Hagener Str. 20", "addr:city": "Neustadt am R\u00fcbenberge", "addr:state": "Minden/Hannover", "addr:postcode": "31535", "addr:country": "DE", "name": "Nah und Gut Bertram", "phone": "05034 4040", "brand": "Edeka"}, "geometry": {"type": "Point", "coordinates": [9.4315496, 52.5761231]}},
{"type": "Feature", "id": "0lrMLPOAMESyalhOFXne4dS2XYA=", "properties": {"ref": "61120", "@spider": "edeka", "addr:full": "Karl-Marx-Str. 20", "addr:city": "Gro\u00dfkayna", "addr:state": "Minden/Hannover", "addr:postcode": "06242", "addr:country": "DE", "name": "Nah und Gut Hauschild", "phone": "034633 22277", "brand": "Edeka"}, "geometry": {"type": "Point", "coordinates": [11.9332341, 51.2908317]}},
{"type": "Feature", "id": "akkkMo1AnopKQz4Q99idussnDVk=", "properties": {"ref": "61121", "@spider": "edeka", "addr:full": "Weserstr. 124", "addr:city": "Bad Oeynhausen", "addr:state": "Minden/Hannover", "addr:postcode": "32547", "addr:country": "DE", "name": "Nah und Gut Heidenreich", "phone": "05731 20797", "brand": "Edeka"}, "geometry": {"type": "Point", "coordinates": [8.823285799999999, 52.1991544]}},
{"type": "Feature", "id": "3J3ChQHpDt_3sCYxUJdXBOK2IK8=", "properties": {"ref": "61367", "@spider": "edeka", "addr:full": "Verdener Str. 1", "addr:city": "Kirchlinteln", "addr:state": "Minden/Hannover", "addr:postcode": "27308", "addr:country": "DE", "name": "Nah und Gut Meyer", "phone": "04238 415", "brand": "Edeka"}, "geometry": {"type": "Point", "coordinates": [9.306027199999999, 52.8882546]}},
{"type": "Feature", "id": "T-RQnIn_pvVBjnM058N8ndkxAXw=", "properties": {"ref": "61368", "@spider": "edeka", "addr:full": "Nordkampen 63", "addr:city": "Walsrode", "addr:state": "Minden/Hannover", "addr:postcode": "29664", "addr:country": "DE", "name": "Nah und Gut Meyer", "phone": "05166 318", "brand": "Edeka"}, "geometry": {"type": "Point", "coordinates": [9.4293297, 52.86232099999999]}},
{"type": "Feature", "id": "8S5IlxGm0wAhikpx6cLavZcHThM=", "properties": {"ref": "61424", "@spider": "edeka", "addr:full": "Marktstr. 3", "addr:city": "Wedemark", "addr:state": "Minden/Hannover", "addr:postcode": "30900", "addr:country": "DE", "name": "Nah und Gut Poppe", "phone": "05130 3762893", "brand": "Edeka"}, "geometry": {"type": "Point", "coordinates": [9.6810338, 52.5550147]}},
{"type": "Feature", "id": "C3JRy2ptXlwj0npICu0uVTI8EjM=", "properties": {"ref": "61426", "@spider": "edeka", "addr:full": "Am Platz 5", "addr:city": "Hahausen", "addr:state": "Minden/Hannover", "addr:postcode": "38729", "addr:country": "DE", "name": "Nah und Gut Raffert", "phone": "05383 1506", "brand": "Edeka"}, "geometry": {"type": "Point", "coordinates": [10.21762, 51.94844]}},
{"type": "Feature", "id": "-IVNAtVA6eRkyH0X9dmRX7IKAiw=", "properties": {"ref": "61463", "@spider": "edeka", "addr:full": "M\u00e4rendamm 1", "addr:city": "Diepenau", "addr:state": "Minden/Hannover", "addr:postcode": "31603", "addr:country": "DE", "name": "Nah und Gut Verbarg", "phone": "05777 276", "brand": "Edeka"}, "geometry": {"type": "Point", "coordinates": [8.75272, 52.45793]}},
{"type": "Feature", "id": "KOOSsZ-JzG2wHnYG49g2VPmVxp4=", "properties": {"ref": "65860", "@spider": "edeka", "addr:full": "R\u00fcppurrer Stra\u00dfe 1", "addr:city": "Karlsruhe", "addr:state": "S\u00fcdwest", "addr:postcode": "76137", "addr:country": "DE", "name": "Scheck-in Center", "phone": "0721 352580", "brand": "Edeka"}, "geometry": {"type": "Point", "coordinates": [8.4120902, 49.0054946]}},
{"type": "Feature", "id": "TNuypFwAJ4RyC_cd-f321QG2xIM=", "properties": {"ref": "73660", "@spider": "edeka", "addr:full": "Eisenbahnstra\u00dfe 204-206", "addr:city": "Dreieich-Sprendlingen", "addr:state": "S\u00fcdwest", "addr:postcode": "63303", "addr:country": "DE", "name": "E City Markt Richter", "phone": "06103 604801", "brand": "Edeka"}, "geometry": {"type": "Point", "coordinates": [8.6737977, 50.01866159999999]}},
{"type": "Feature", "id": "CYnFInZD26HD_cuLAEqKlF6plzM=", "properties": {"ref": "77412", "@spider": "edeka", "addr:full": "Dorfplatz 2", "addr:city": "Eschenlohe", "addr:state": "S\u00fcdbayern", "addr:postcode": "82438", "addr:country": "DE", "name": "nah & gut B\u00e4ckerei Luidl", "phone": "08824 8484", "brand": "Edeka"}, "geometry": {"type": "Point", "coordinates": [11.1856998, 47.5991623]}},
{"type": "Feature", "id": "ZdNS9asVvdX6liXPlhsEa4irS5c=", "properties": {"ref": "82894", "@spider": "edeka", "addr:full": "Erwin-Dietrich-Stra\u00dfe 6", "addr:city": "Gottmadingen", "addr:state": "S\u00fcdwest", "addr:postcode": "78244", "addr:country": "DE", "name": "EDEKA Baur", "phone": "07731 147680", "brand": "Edeka"}, "geometry": {"type": "Point", "coordinates": [8.7809145, 47.7361928]}},
{"type": "Feature", "id": "4cogRbv7yN8jjeDcJWxw6w4_ajE=", "properties": {"ref": "83997", "@spider": "edeka", "addr:full": "Im Stegen 1", "addr:city": "Ihringen", "addr:state": "S\u00fcdwest", "addr:postcode": "79241", "addr:country": "DE", "name": "EDEKA K\u00fchl", "phone": "07668 657", "brand": "Edeka"}, "geometry": {"type": "Point", "coordinates": [7.6484535, 48.0400198]}},
{"type": "Feature", "id": "Q_vIvXLr8vIxjnY-YPQNr9XzWU0=", "properties": {"ref": "106137", "@spider": "edeka", "addr:full": "Kulmbacher Str. 55-57", "addr:city": "Helmbrechts", "addr:state": "Nordbayern-Sachsen-Th\u00fcringen", "addr:postcode": "95233", "addr:country": "DE", "name": "EDEKA Renner", "phone": "09252 357124", "brand": "Edeka"}, "geometry": {"type": "Point", "coordinates": [11.7141799, 50.234661]}},
{"type": "Feature", "id": "ZKIJ9YtJZ7T0MI9jeCK5Xe1zAN4=", "properties": {"ref": "119783", "@spider": "edeka", "addr:full": "Hauptstra\u00dfe 73", "addr:city": "Hofheim", "addr:state": "S\u00fcdwest", "addr:postcode": "65719", "addr:country": "DE", "name": "Biomarkt Buch", "phone": "06192 9630", "brand": "Edeka"}, "geometry": {"type": "Point", "coordinates": [8.4438376, 50.0861161]}},
{"type": "Feature", "id": "2DlM6v41hnxkL2NbMw7YomRMFaw=", "properties": {"ref": "126255", "@spider": "edeka", "addr:full": "Breite Stra\u00dfe 33", "addr:city": "Mainz-Gonsenheim", "addr:state": "S\u00fcdwest", "addr:postcode": "55124", "addr:country": "DE", "name": "Ihr Guter Nachbar", "phone": "06131 5531395", "brand": "Edeka"}, "geometry": {"type": "Point", "coordinates": [8.2106295, 50.00310409999999]}},
{"type": "Feature", "id": "n3A2bz-mSJP7WC8vztVAveEfoSM=", "properties": {"ref": "126289", "@spider": "edeka", "addr:full": "Wiesenweg 28", "addr:city": "Thaleischweiler", "addr:state": "S\u00fcdwest", "addr:postcode": "66987", "addr:country": "DE", "name": "CAP Markt Thaleischweiler", "phone": "06334 5990", "brand": "Edeka"}, "geometry": {"type": "Point", "coordinates": [7.58013, 49.26064]}},
{"type": "Feature", "id": "qGtMldBVdF3fpWy6ki3uziOv86o=", "properties": {"ref": "127046", "@spider": "edeka", "addr:full": "Platz des Friedens 7", "addr:city": "Schollene", "addr:state": "Minden/Hannover", "addr:postcode": "14715", "addr:country": "DE", "name": "Nah und Gut Martschinkowski", "phone": "039389 247", "brand": "Edeka"}, "geometry": {"type": "Point", "coordinates": [12.2172223, 52.6771721]}},
{"type": "Feature", "id": "sWL3QloHTjm6_t8O1viPqZvIfjM=", "properties": {"ref": "127768", "@spider": "edeka", "addr:full": "Munkmarscher Chaussee 6a", "addr:city": "Keitum/Sylt", "addr:state": "Nord", "addr:postcode": "25980", "addr:country": "DE", "name": "E aktiv markt Johannsen", "phone": "04651 935580", "brand": "Edeka"}, "geometry": {"type": "Point", "coordinates": [8.3672879, 54.8977705]}},
{"type": "Feature", "id": "z_YLrN0kfeBaSkpfHbimJyTSD8E=", "properties": {"ref": "128713", "@spider": "edeka", "addr:full": "Karlstra\u00dfe 6", "addr:city": "Bad D\u00fcrrheim", "addr:state": "S\u00fcdwest", "addr:postcode": "78073", "addr:country": "DE", "name": "CAP Markt Bad D\u00fcrrheim", "phone": "07726 378564", "brand": "Edeka"}, "geometry": {"type": "Point", "coordinates": [8.531763399999999, 48.0220205]}},
{"type": "Feature", "id": "zHqklma96bxOL6d8vPGJPNF41as=", "properties": {"ref": "128718", "@spider": "edeka", "addr:full": "Waldhornplatz 4", "addr:city": "Malmsheim", "addr:state": "S\u00fcdwest", "addr:postcode": "71272", "addr:country": "DE", "name": "CAP Markt Malmsheim", "phone": "07159 80695010", "brand": "Edeka"}, "geometry": {"type": "Point", "coordinates": [8.9037574, 48.7744291]}},
{"type": "Feature", "id": "LTU0JqjgY0WEWObTsd4lx4786S8=", "properties": {"ref": "128719", "@spider": "edeka", "addr:full": "Hauptstra\u00dfe 30", "addr:city": "Nufringen", "addr:state": "S\u00fcdwest", "addr:postcode": "71154", "addr:country": "DE", "name": "CAP Markt Nufringen", "phone": "07032 799018", "brand": "Edeka"}, "geometry": {"type": "Point", "coordinates": [8.891683100000002, 48.6226421]}},
{"type": "Feature", "id": "mNNtZw7pW_CVi4PoiaoUwPjSnb8=", "properties": {"ref": "128723", "@spider": "edeka", "addr:full": "Mozartstra\u00dfe 3", "addr:city": "Herrenberg", "addr:state": "S\u00fcdwest", "addr:postcode": "71083", "addr:country": "DE", "name": "CAP Markt Herrenberg", "phone": "07032 943234", "brand": "Edeka"}, "geometry": {"type": "Point", "coordinates": [8.884409999999999, 48.59542]}},
{"type": "Feature", "id": "wz-MBVPyX3aKg-yrDv5Kv7_MzzQ=", "properties": {"ref": "128772", "@spider": "edeka", "addr:full": "Kaiserallee 37-39", "addr:city": "Karlsruhe", "addr:state": "S\u00fcdwest", "addr:postcode": "76133", "addr:country": "DE", "name": "CAP Markt Karlsruhe", "phone": "0721 9850350", "brand": "Edeka"}, "geometry": {"type": "Point", "coordinates": [8.3790581, 49.0100912]}},
{"type": "Feature", "id": "mR5uEv1Ll2smFmIpzBYfPWhx-E0=", "properties": {"ref": "128973", "@spider": "edeka", "addr:full": "Friesenstra\u00dfe 6-10", "addr:city": "Ludwigsburg", "addr:state": "S\u00fcdwest", "addr:postcode": "71640", "addr:country": "DE", "name": "nah und gut Wirkner", "phone": "07141 850033", "brand": "Edeka"}, "geometry": {"type": "Point", "coordinates": [9.22703, 48.89337]}},
{"type": "Feature", "id": "p7tRt3fs-158MAMgHxM1sRMRwi4=", "properties": {"ref": "128984", "@spider": "edeka", "addr:full": "Augsburger Stra\u00dfe 361", "addr:city": "Stuttgart-Untert\u00fcrkheim", "addr:state": "S\u00fcdwest", "addr:postcode": "70327", "addr:country": "DE", "name": "CAP Markt Untert\u00fcrkheim", "phone": "0711 6582452", "brand": "Edeka"}, "geometry": {"type": "Point", "coordinates": [9.2513668, 48.7804984]}},
{"type": "Feature", "id": "EX5S99X6da_xp6gvWacgSDTw-bM=", "properties": {"ref": "128985", "@spider": "edeka", "addr:full": "Augsburger Stra\u00dfe 684", "addr:city": "Stuttgart - Obert\u00fcrkheim", "addr:state": "S\u00fcdwest", "addr:postcode": "70329", "addr:country": "DE", "name": "CAP Markt Obert\u00fcrkheim", "phone": "0711 5773046", "brand": "Edeka"}, "geometry": {"type": "Point", "coordinates": [9.268924499999999, 48.76288539999999]}},
{"type": "Feature", "id": "UUJ0hiHUnbInmdITaktzoN8_m7M=", "properties": {"ref": "128988", "@spider": "edeka", "addr:full": "Grossbottwarerer Stra\u00dfe 47", "addr:city": "Oberstenfeld", "addr:state": "S\u00fcdwest", "addr:postcode": "71720", "addr:country": "DE", "name": "Mayer\u00b4s Frischemarkt", "phone": "07062 8615", "brand": "Edeka"}, "geometry": {"type": "Point", "coordinates": [9.3189913, 49.022974]}},
{"type": "Feature", "id": "bWBJDliaDdqdHnjy1LX-MeYvYdE=", "properties": {"ref": "129129", "@spider": "edeka", "addr:full": "Marktplatz 3", "addr:city": "Neckarwestheim", "addr:state": "S\u00fcdwest", "addr:postcode": "74382", "addr:country": "DE", "name": "CAP Markt Neckarwestheim", "phone": "07133 205400", "brand": "Edeka"}, "geometry": {"type": "Point", "coordinates": [9.1892044, 49.0467963]}},
{"type": "Feature", "id": "f5jyluRhxbW3-lPY1QjMYP3jBqA=", "properties": {"ref": "129161", "@spider": "edeka", "addr:full": "Talstra\u00dfe 3", "addr:city": "Sersheim", "addr:state": "S\u00fcdwest", "addr:postcode": "74372", "addr:country": "DE", "name": "CAP Markt Sersheim", "phone": "07042 102665", "brand": "Edeka"}, "geometry": {"type": "Point", "coordinates": [9.0140909, 48.9589955]}},
{"type": "Feature", "id": "AkmpbN_QcZy8_Y9fS0novLuQDDg=", "properties": {"ref": "129164", "@spider": "edeka", "addr:full": "Kaiserslauterer Stra\u00dfe 14", "addr:city": "Stuttgart", "addr:state": "S\u00fcdwest", "addr:postcode": "70499", "addr:country": "DE", "name": "CAP Markt Stuttgart", "phone": "0711 8069817", "brand": "Edeka"}, "geometry": {"type": "Point", "coordinates": [9.1209343, 48.8127887]}},
{"type": "Feature", "id": "sjKYFAII02AM55QYlEoRSOgtnRo=", "properties": {"ref": "129165", "@spider": "edeka", "addr:full": "B\u00fchlstra\u00dfe 27-29", "addr:city": "Weinstadt-Beutelsbach", "addr:state": "S\u00fcdwest", "addr:postcode": "71384", "addr:country": "DE", "name": "CAP Markt Weinstadt-Beutelsbach", "phone": "07151 6041091", "brand": "Edeka"}, "geometry": {"type": "Point", "coordinates": [9.388399999999999, 48.80446]}},
{"type": "Feature", "id": "3mI1g14XKemFZqSZM0G2QSftgsE=", "properties": {"ref": "129168", "@spider": "edeka", "addr:full": "B\u00fchlertal Stra\u00dfe 4-8", "addr:city": "B\u00fchl", "addr:state": "S\u00fcdwest", "addr:postcode": "77815", "addr:country": "DE", "name": "CAP Markt B\u00fchl", "phone": "07223 2816438", "brand": "Edeka"}, "geometry": {"type": "Point", "coordinates": [8.1358915, 48.69377919999999]}},
{"type": "Feature", "id": "DWI_Pks505fL0BRVcQ3hkB1jIxw=", "properties": {"ref": "129183", "@spider": "edeka", "addr:full": "Radweg 5", "addr:city": "Mainz-Weisenau", "addr:state": "S\u00fcdwest", "addr:postcode": "55130", "addr:country": "DE", "name": "CAP Markt Weisenau", "phone": "06131 9060444", "brand": "Edeka"}, "geometry": {"type": "Point", "coordinates": [8.3003251, 49.9789399]}},
{"type": "Feature", "id": "A4Wnl9JhL8vOh_nfSRHz79tmIb0=", "properties": {"ref": "139586", "@spider": "edeka", "addr:full": "Hauptstra\u00dfe 24", "addr:city": "Stetten", "addr:state": "S\u00fcdbayern", "addr:postcode": "87778", "addr:country": "DE", "name": "nah & gut B\u00e4ckerei Schmid", "phone": "08261 9371", "brand": "Edeka"}, "geometry": {"type": "Point", "coordinates": [10.4427899, 48.0226851]}},
{"type": "Feature", "id": "AuD0_rTfc8bGiZZc18Ayf0oSnWU=", "properties": {"ref": "142118", "@spider": "edeka", "addr:full": "Astruper Str. 6", "addr:city": "Hatten", "addr:state": "Minden/Hannover", "addr:postcode": "26209", "addr:country": "DE", "name": "EDEKA Uphoff", "phone": "04481 9351958", "brand": "Edeka"}, "geometry": {"type": "Point", "coordinates": [8.2516581, 53.0537357]}},
{"type": "Feature", "id": "ndbOsTRMeOVSLLKw2rQEMiafmBk=", "properties": {"ref": "143093", "@spider": "edeka", "addr:full": "Hauptstr. 9", "addr:city": "Kutenholz", "addr:state": "Minden/Hannover", "addr:postcode": "27449", "addr:country": "DE", "name": "Nah und Gut Lange", "phone": "04762 2932", "brand": "Edeka"}, "geometry": {"type": "Point", "coordinates": [9.3236922, 53.4827603]}},
{"type": "Feature", "id": "pRzC64Bcs_PtNcQdwoPhbustIeI=", "properties": {"ref": "178551", "@spider": "edeka", "addr:full": "Markt 6", "addr:city": "Hohenleuben", "addr:state": "Nordbayern-Sachsen-Th\u00fcringen", "addr:postcode": "07958", "addr:country": "DE", "name": "nah & gut LMH Lebensmittel Hohenleuben", "phone": "036622 7108", "brand": "Edeka"}, "geometry": {"type": "Point", "coordinates": [12.053765, 50.710809]}},
{"type": "Feature", "id": "brNLwnnabGMhFFYG7MJJ0W7Hd3k=", "properties": {"ref": "178656", "@spider": "edeka", "addr:full": "Markt 8", "addr:city": "Dippoldiswalde", "addr:state": "Nordbayern-Sachsen-Th\u00fcringen", "addr:postcode": "01744", "addr:country": "DE", "name": "Lebensmittel Lippmann", "phone": "03504 614147", "brand": "Edeka"}, "geometry": {"type": "Point", "coordinates": [13.6678489, 50.8964206]}},
{"type": "Feature", "id": "gGRKJACipJAVS46DD3nHetFmU0o=", "properties": {"ref": "179166", "@spider": "edeka", "addr:full": "Aschaffenburger Stra\u00dfe 14", "addr:city": "H\u00f6chst im Odenwald", "addr:state": "S\u00fcdwest", "addr:postcode": "64739", "addr:country": "DE", "name": "CAP Markt H\u00f6chst", "phone": "06163 93265010", "brand": "Edeka"}, "geometry": {"type": "Point", "coordinates": [8.9959699, 49.80045]}},
{"type": "Feature", "id": "PXahUiQq4dqwGI0XyFPHxoN-Amc=", "properties": {"ref": "180208", "@spider": "edeka", "addr:full": "Friedrich-Nietzsche-Stra\u00dfe 2", "addr:city": "Naumburg (Saale)", "addr:state": "Hessenring", "addr:postcode": "06618", "addr:country": "DE", "name": "Klaus Adamek e.K.", "phone": "03445 750112", "brand": "Edeka"}, "geometry": {"type": "Point", "coordinates": [11.81064, 51.15883]}},
{"type": "Feature", "id": "gidhiZsUSZGUw4LFIYgZyeVGaHM=", "properties": {"ref": "180209", "@spider": "edeka", "addr:full": "Papenheimerstr. 65 - 67", "addr:city": "Warburg", "addr:state": "Hessenring", "addr:postcode": "34414", "addr:country": "DE", "name": "E-Center Herkules SB Warenhaus", "phone": "05641 74700", "brand": "Edeka"}, "geometry": {"type": "Point", "coordinates": [9.1348419, 51.493224]}},
{"type": "Feature", "id": "xulJKI25YORZAdhr9T0b45nUGvE=", "properties": {"ref": "180210", "@spider": "edeka", "addr:full": "H\u00fcttenweg 1", "addr:city": "Herborn", "addr:state": "Hessenring", "addr:postcode": "35745", "addr:country": "DE", "name": "E-Center Herkules SB Warenhaus", "phone": "02772 57580", "brand": "Edeka"}, "geometry": {"type": "Point", "coordinates": [8.30506, 50.68810999999999]}},
{"type": "Feature", "id": "-uNKj-ZRoI_JHaexrZaiDuI0HNA=", "properties": {"ref": "180212", "@spider": "edeka", "addr:full": "Friedensstr. 1", "addr:city": "Weimar", "addr:state": "Hessenring", "addr:postcode": "99423", "addr:country": "DE", "name": "E-Center Herkules SB Warenhaus", "phone": "03643 492090", "brand": "Edeka"}, "geometry": {"type": "Point", "coordinates": [11.32959, 50.98511]}},
{"type": "Feature", "id": "OSNxmZMl-9a3oZF-d9UU6ilZGL8=", "properties": {"ref": "180217", "@spider": "edeka", "addr:full": "Chaussee Str. 48", "addr:city": "Grossbodungen", "addr:state": "Hessenring", "addr:postcode": "37345", "addr:country": "DE", "name": "Christian Schneider", "phone": "036077 92333", "brand": "Edeka"}, "geometry": {"type": "Point", "coordinates": [10.4822696, 51.477546]}},
{"type": "Feature", "id": "YDpi8f4I0HmEFKr6Xtu4BJ46Alg=", "properties": {"ref": "181317", "@spider": "edeka", "addr:full": "Beim Eberacker 4", "addr:city": "Lahnau - Dorlar", "addr:state": "Hessenring", "addr:postcode": "35633", "addr:country": "DE", "name": "Stefan Flick", "phone": "06441 6790886", "brand": "Edeka"}, "geometry": {"type": "Point", "coordinates": [8.5669652, 50.5780259]}},
{"type": "Feature", "id": "4H1ilrZtB-DTJoUe_JdYEbdv9Zk=", "properties": {"ref": "181388", "@spider": "edeka", "addr:full": "Gewerbepark Cite 7", "addr:city": "Baden-Baden", "addr:state": "S\u00fcdwest", "addr:postcode": "76532", "addr:country": "DE", "name": "Scheck-in Center", "phone": "07221 972990", "brand": "Edeka"}, "geometry": {"type": "Point", "coordinates": [8.189873, 48.785149]}},
{"type": "Feature", "id": "fLQiy9fx4_AyTreV2xag5hMMNCY=", "properties": {"ref": "185014", "@spider": "edeka", "addr:full": "Waldecker Stra\u00dfe 1", "addr:city": "Frankenau", "addr:state": "Hessenring", "addr:postcode": "35110", "addr:country": "DE", "name": "Matthias M\u00f6bus", "phone": "06455 362", "brand": "Edeka"}, "geometry": {"type": "Point", "coordinates": [8.935827, 51.09121349999999]}},
{"type": "Feature", "id": "8TE99zolbnoeFiNLt4CdmTyMjPU=", "properties": {"ref": "186492", "@spider": "edeka", "addr:full": "Richard-Wagner-Stra\u00dfe 27", "addr:city": "Ettlingen-Bruchhausen", "addr:state": "S\u00fcdwest", "addr:postcode": "76275", "addr:country": "DE", "name": "CAP Markt Ettlingen", "phone": "07243 92332", "brand": "Edeka"}, "geometry": {"type": "Point", "coordinates": [8.365939899999999, 48.92469]}},
{"type": "Feature", "id": "kNi0g1__y7mzzIp_n-UbQmo6t0Q=", "properties": {"ref": "187341", "@spider": "edeka", "addr:full": "Alsfelder Warte 12", "addr:city": "Grebenau", "addr:state": "Hessenring", "addr:postcode": "36323", "addr:country": "DE", "name": "Karl Sch\u00e4fer oHG", "phone": "06646 210", "brand": "Edeka"}, "geometry": {"type": "Point", "coordinates": [9.47189, 50.74214]}},
{"type": "Feature", "id": "xeGYvjVInWRaOdyWhh9RZgQsUyw=", "properties": {"ref": "187956", "@spider": "edeka", "addr:full": "Eisenbahnstra\u00dfe 22", "addr:city": "Mengen", "addr:state": "S\u00fcdwest", "addr:postcode": "88512", "addr:country": "DE", "name": "EDEKA Baur", "phone": "07572 765490", "brand": "Edeka"}, "geometry": {"type": "Point", "coordinates": [9.33246, 48.05272]}},
{"type": "Feature", "id": "kd0HYZbF2stk1vOapVqlMb8pydk=", "properties": {"ref": "190282", "@spider": "edeka", "addr:full": "Wilhelmstra\u00dfe 4", "addr:city": "Ettlingen", "addr:state": "S\u00fcdwest", "addr:postcode": "76275", "addr:country": "DE", "name": "CAP Markt Ettlingen", "phone": "07243 3329274", "brand": "Edeka"}, "geometry": {"type": "Point", "coordinates": [8.408780199999999, 48.9380175]}},
{"type": "Feature", "id": "BnRdFNZrmAmyRqCblINLzDcNbpw=", "properties": {"ref": "246196", "@spider": "edeka", "addr:full": "Friedrich Ebert Stra\u00dfe 100", "addr:city": "Mannheim-Wohlgelegen", "addr:state": "S\u00fcdwest", "addr:postcode": "68169", "addr:country": "DE", "name": "Scheck-in Center", "phone": "0621 1503850", "brand": "Edeka"}, "geometry": {"type": "Point", "coordinates": [8.4996257, 49.5025303]}},
{"type": "Feature", "id": "OHLJXae2sTIPkHAlnOpVcirmLm0=", "properties": {"ref": "267249", "@spider": "edeka", "addr:full": "Hauptstr. 71", "addr:city": "Beselich-Obertiefenbach", "addr:state": "Hessenring", "addr:postcode": "65614", "addr:country": "DE", "name": "Alexander Lehmann", "phone": "06484 6006", "brand": "Edeka"}, "geometry": {"type": "Point", "coordinates": [8.1309, 50.46285]}},
{"type": "Feature", "id": "MtwvMvznMkjkUdznaZ24gOVi71U=", "properties": {"ref": "267252", "@spider": "edeka", "addr:full": "Zeppelinstra\u00dfe 12a", "addr:city": "Limburg-Blumenrod", "addr:state": "Hessenring", "addr:postcode": "65549", "addr:country": "DE", "name": "Alexander Lehmann", "phone": "06431 41366", "brand": "Edeka"}, "geometry": {"type": "Point", "coordinates": [8.073575, 50.3721666]}},
{"type": "Feature", "id": "eaarXje13pJL0qGEoGgRrzECo_A=", "properties": {"ref": "267253", "@spider": "edeka", "addr:full": "Mainzer Str. 69", "addr:city": "Limburg-Linter", "addr:state": "Hessenring", "addr:postcode": "65550", "addr:country": "DE", "name": "Alexander Lehmann", "phone": "06431 44087", "brand": "Edeka"}, "geometry": {"type": "Point", "coordinates": [8.094304, 50.3657706]}},
{"type": "Feature", "id": "WRMkhgiiERHFFcrBZwFgdSF_tDY=", "properties": {"ref": "267262", "@spider": "edeka", "addr:full": "Georgenthaler Str. 48", "addr:city": "Herrenhof", "addr:state": "Hessenring", "addr:postcode": "99887", "addr:country": "DE", "name": "Denis Kalb", "phone": "036253 48677", "brand": "Edeka"}, "geometry": {"type": "Point", "coordinates": [10.6832949, 50.842077]}},
{"type": "Feature", "id": "aWBpvJd6y-giixfVTeZhGVKtZLY=", "properties": {"ref": "277370", "@spider": "edeka", "addr:full": "Dietlishofer Stra\u00dfe 10", "addr:city": "Hilzingen", "addr:state": "S\u00fcdwest", "addr:postcode": "78247", "addr:country": "DE", "name": "EDEKA Baur", "phone": "07731 87710", "brand": "Edeka"}, "geometry": {"type": "Point", "coordinates": [8.7759433, 47.76312189999999]}},
{"type": "Feature", "id": "gKlqH885_FF8RMwPSIwqdVqIq70=", "properties": {"ref": "290405", "@spider": "edeka", "addr:full": "Gewerbestra\u00dfe 7", "addr:city": "Weinheim", "addr:state": "S\u00fcdwest", "addr:postcode": "69469", "addr:country": "DE", "name": "Scheck-in Center", "phone": "06201 259850", "brand": "Edeka"}, "geometry": {"type": "Point", "coordinates": [8.6571953, 49.5344191]}},
{"type": "Feature", "id": "HW_hj_QiIxeNhNG9rfRNU2Bwq1A=", "properties": {"ref": "344486", "@spider": "edeka", "addr:full": "Esbiker Stra\u00dfe 24", "addr:city": "Marsberg - Giershagen", "addr:state": "Hessenring", "addr:postcode": "34431", "addr:country": "DE", "name": "Stefan Henke", "phone": "02991 6303", "brand": "Edeka"}, "geometry": {"type": "Point", "coordinates": [8.828601899999999, 51.4081194]}},
{"type": "Feature", "id": "H_JfyBjDSePYvkEP9GeLz2I6Fyo=", "properties": {"ref": "349420", "@spider": "edeka", "addr:full": "Dresdner Platz 1", "addr:city": "Reutlingen", "addr:state": "S\u00fcdwest", "addr:postcode": "72760", "addr:country": "DE", "name": "CAP Markt Reutlingen", "phone": "07121 6808680", "brand": "Edeka"}, "geometry": {"type": "Point", "coordinates": [9.2076721, 48.5207747]}},
{"type": "Feature", "id": "2nAR5yqnqRu5GCEQBgKjzGSMJFw=", "properties": {"ref": "349421", "@spider": "edeka", "addr:full": "Auf Hart 2", "addr:city": "Markgr\u00f6ningen", "addr:state": "S\u00fcdwest", "addr:postcode": "71706", "addr:country": "DE", "name": "CAP Markt Markgr\u00f6ningen", "phone": "07145 930003", "brand": "Edeka"}, "geometry": {"type": "Point", "coordinates": [9.0764971, 48.90651820000001]}},
{"type": "Feature", "id": "yEn0zFFyE01p9yYIgesZqNx5Ti4=", "properties": {"ref": "354881", "@spider": "edeka", "addr:full": "Bahnhofstrasse 77a", "addr:city": "Bad Tennstedt", "addr:state": "Hessenring", "addr:postcode": "99955", "addr:country": "DE", "name": "Sven Becker", "phone": "036041 32362", "brand": "Edeka"}, "geometry": {"type": "Point", "coordinates": [10.8494141, 51.1525712]}},
{"type": "Feature", "id": "1k_OTy032ufuM-aAixqXAJjvr9I=", "properties": {"ref": "360975", "@spider": "edeka", "addr:full": "Poststra\u00dfe 1", "addr:city": "Eberhardzell", "addr:state": "S\u00fcdbayern", "addr:postcode": "88436", "addr:country": "DE", "name": "Raiffeisen Bezug + Absatz EG", "phone": "07355 930741", "brand": "Edeka"}, "geometry": {"type": "Point", "coordinates": [9.824843600000001, 48.0012067]}},
{"type": "Feature", "id": "W7AoYfC9kvFDGpe_MDqN6J-zHC4=", "properties": {"ref": "432003", "@spider": "edeka", "addr:full": "Im Seilwolff-Center, Angelstra\u00dfe/Ecke Rhenaniastra\u00dfe", "addr:city": "Mannheim-Neckarau", "addr:state": "S\u00fcdwest", "addr:postcode": "68199", "addr:country": "DE", "name": "Scheck-in Center", "phone": "0621 8752080", "brand": "Edeka"}, "geometry": {"type": "Point", "coordinates": [8.4963236, 49.45103049999999]}},
{"type": "Feature", "id": "ZDzohXuyGEzl-q-U6nhzgjIwcwQ=", "properties": {"ref": "476259", "@spider": "edeka", "addr:full": "Ferdinand-Happ-Stra\u00dfe 59", "addr:city": "Frankfurt am Main", "addr:state": "S\u00fcdwest", "addr:postcode": "60314", "addr:country": "DE", "name": "Scheck-in Center", "phone": "069 94947630", "brand": "Edeka"}, "geometry": {"type": "Point", "coordinates": [8.71533, 50.1145593]}},
{"type": "Feature", "id": "TCJPxgZDAkPptGP1h5VsPCXFagE=", "properties": {"ref": "547943", "@spider": "edeka", "addr:full": "Goethestr. 13", "addr:city": "Neum\u00fcnster", "addr:state": "Nord", "addr:postcode": "24534", "addr:country": "DE", "name": "EDEKA Meyer`s", "phone": "04321 92680", "brand": "Edeka"}, "geometry": {"type": "Point", "coordinates": [9.995697, 54.0808703]}},
{"type": "Feature", "id": "sZbyTLVyLrf__OLL3b0Olabx488=", "properties": {"ref": "572644", "@spider": "edeka", "addr:full": "Hallplatz 7", "addr:city": "Zweibr\u00fccken", "addr:state": "S\u00fcdwest", "addr:postcode": "66482", "addr:country": "DE", "name": "CAP Markt Zweibr\u00fccken", "phone": "06332 74114", "brand": "Edeka"}, "geometry": {"type": "Point", "coordinates": [7.3602149, 49.2496015]}},
{"type": "Feature", "id": "XKw1kKPVRgjVZKZ5ucPj7TQG7wc=", "properties": {"ref": "573942", "@spider": "edeka", "addr:full": "Bodanstra\u00dfe 20-26", "addr:city": "Konstanz", "addr:state": "S\u00fcdwest", "addr:postcode": "78462", "addr:country": "DE", "name": "EDEKA Baur", "phone": "07531 284760", "brand": "Edeka"}, "geometry": {"type": "Point", "coordinates": [9.17364, 47.65829]}},
{"type": "Feature", "id": "zzCeC3AR8T6YgK8zTJD9dIAdlpA=", "properties": {"ref": "573945", "@spider": "edeka", "addr:full": "Riedstra\u00dfe 2", "addr:city": "Konstanz", "addr:state": "S\u00fcdwest", "addr:postcode": "78467", "addr:country": "DE", "name": "EDEKA Baur", "phone": "07531 363050", "brand": "Edeka"}, "geometry": {"type": "Point", "coordinates": [9.1481968, 47.6877607]}},
{"type": "Feature", "id": "3FwyMf9W8762NIr5wm9SrkLFZQA=", "properties": {"ref": "974389", "@spider": "edeka", "addr:full": "Ippingh\u00e4u\u00dfer Stra\u00dfe 16", "addr:city": "Naumburg", "addr:state": "Hessenring", "addr:postcode": "34311", "addr:country": "DE", "name": "Ren\u00e9 Kr\u00f6ninger e.K.", "phone": "05625 922616", "brand": "Edeka"}, "geometry": {"type": "Point", "coordinates": [9.1636466, 51.2518379]}},
{"type": "Feature", "id": "K3kGJ-lP-AkEORUkzqj9G8KttJQ=", "properties": {"ref": "974399", "@spider": "edeka", "addr:full": "Carl-Benz-Ring 6-8", "addr:city": "Lich", "addr:state": "Hessenring", "addr:postcode": "35423", "addr:country": "DE", "name": "Olaf Adler e.K.", "phone": "06404 6680170", "brand": "Edeka"}, "geometry": {"type": "Point", "coordinates": [8.826121299999999, 50.506917]}},
{"type": "Feature", "id": "PFiNNYkRWdQ2E8Sj1jCWoRji3W8=", "properties": {"ref": "995330", "@spider": "edeka", "addr:full": "Friesoyther Str. 34", "addr:city": "Cloppenburg", "addr:state": "Minden/Hannover", "addr:postcode": "49661", "addr:country": "DE", "name": "Nah und Gut Deeken", "phone": "04471 2963", "brand": "Edeka"}, "geometry": {"type": "Point", "coordinates": [8.0335667, 52.85387979999999]}},
{"type": "Feature", "id": "MM1uY_3jhecLrqE06QORZCs76PI=", "properties": {"ref": "1036007", "@spider": "edeka", "addr:full": "Dorfplatz 3", "addr:city": "Eschenlohe", "addr:state": "S\u00fcdbayern", "addr:postcode": "82438", "addr:country": "DE", "name": "nah & gut B\u00e4ckerei Luidl", "phone": "08824 498", "brand": "Edeka"}, "geometry": {"type": "Point", "coordinates": [11.18583, 47.59862]}},
{"type": "Feature", "id": "uRqkbW2H3KMJbrr9IG0gRgGRdD8=", "properties": {"ref": "1132195", "@spider": "edeka", "addr:full": "Weststra\u00dfe 1", "addr:city": "Breitenworbis", "addr:state": "Hessenring", "addr:postcode": "37339", "addr:country": "DE", "name": "Martin Seidenst\u00fccker", "phone": "036074 20330", "brand": "Edeka"}, "geometry": {"type": "Point", "coordinates": [10.4250931, 51.4110039]}},
{"type": "Feature", "id": "8ve6XQXuJnAV4JA8CvYXOvvhodg=", "properties": {"ref": "1132196", "@spider": "edeka", "addr:full": "Stra\u00dfe des Friedens 36", "addr:city": "Strau\u00dffurt", "addr:state": "Hessenring", "addr:postcode": "99634", "addr:country": "DE", "name": "Klaus Piotrowski e.K.", "phone": "036376 56715", "brand": "Edeka"}, "geometry": {"type": "Point", "coordinates": [10.9889662, 51.16374829999999]}},
{"type": "Feature", "id": "1zFSPRYmLtdKMJtQw0VTEBfMu6s=", "properties": {"ref": "1197000", "@spider": "edeka", "addr:full": "Zotterangen 4", "addr:city": "Aldingen", "addr:state": "S\u00fcdwest", "addr:postcode": "78554", "addr:country": "DE", "name": "EDEKA Milkau", "phone": "07424 9823930", "brand": "Edeka"}, "geometry": {"type": "Point", "coordinates": [8.684240299999999, 48.0912867]}},
{"type": "Feature", "id": "sBGA4Y93EwOnzpd9LGT3ZtauxOs=", "properties": {"ref": "1197137", "@spider": "edeka", "addr:full": "Bahnhofstra\u00dfe 18", "addr:city": "Jugenheim", "addr:state": "S\u00fcdwest", "addr:postcode": "55270", "addr:country": "DE", "name": "CAP Markt Jugenheim", "phone": "06130 215150", "brand": "Edeka"}, "geometry": {"type": "Point", "coordinates": [8.086862, 49.89257740000001]}},
{"type": "Feature", "id": "vjOMUV5YmdUGdQgc31QasmxP8kc=", "properties": {"ref": "1211086", "@spider": "edeka", "addr:full": "In der Aue 7", "addr:city": "Bad Laasphe", "addr:state": "Hessenring", "addr:postcode": "57334", "addr:country": "DE", "name": "Dennis Kilian e.K.", "phone": "02752 509490", "brand": "Edeka"}, "geometry": {"type": "Point", "coordinates": [8.4270988, 50.9287962]}},
{"type": "Feature", "id": "LajymHM8tmDkMwpVJQR6rgQsS-c=", "properties": {"ref": "1213300", "@spider": "edeka", "addr:full": "Karlsruher Stra\u00dfe 62-64", "addr:city": "Karlsruhe", "addr:state": "S\u00fcdwest", "addr:postcode": "76139", "addr:country": "DE", "name": "nah und gut Schier", "phone": "0721 3549880", "brand": "Edeka"}, "geometry": {"type": "Point", "coordinates": [8.4549013, 49.0278208]}},
{"type": "Feature", "id": "qxcy9X2eqBgd9sbBiwMEhAi9kas=", "properties": {"ref": "1213302", "@spider": "edeka", "addr:full": "Gr\u00fcnhutstra\u00dfe 1", "addr:city": "Karlsruhe-Knielingen", "addr:state": "S\u00fcdwest", "addr:postcode": "76187", "addr:country": "DE", "name": "EDEKA Rees", "phone": "0721 1208340", "brand": "Edeka"}, "geometry": {"type": "Point", "coordinates": [8.3523366, 49.0366095]}},
{"type": "Feature", "id": "gDt_MetRGuaxpYXtsGp281kG2yg=", "properties": {"ref": "1244464", "@spider": "edeka", "addr:full": "Paul-Klee-Str. 71", "addr:city": "Fulda", "addr:state": "Hessenring", "addr:postcode": "36041", "addr:country": "DE", "name": "Patrick Melzer", "phone": "0661 25027981", "brand": "Edeka"}, "geometry": {"type": "Point", "coordinates": [9.641619, 50.54109949999999]}},
{"type": "Feature", "id": "0w3Z5hJSX-o2WZTqAISP2YuNPII=", "properties": {"ref": "1250593", "@spider": "edeka", "addr:full": "In der Bischh\u00e4user Aue", "addr:city": "Witzenhausen", "addr:state": "Hessenring", "addr:postcode": "37213", "addr:country": "DE", "name": "E-Center Herkules SB Warenhaus", "phone": "05542 303780", "brand": "Edeka"}, "geometry": {"type": "Point", "coordinates": [9.850350800000001, 51.3485141]}},
{"type": "Feature", "id": "Eqk_-HobHmxOUMtCLj_MU_qCkEs=", "properties": {"ref": "1253459", "@spider": "edeka", "addr:full": "Lehrer Stra\u00dfe 1", "addr:city": "Ulm-Jungingen", "addr:state": "S\u00fcdwest", "addr:postcode": "89081", "addr:country": "DE", "name": "CAP Markt Ulm-Jungingen", "phone": "0731 9608133", "brand": "Edeka"}, "geometry": {"type": "Point", "coordinates": [9.9864587, 48.4423701]}},
{"type": "Feature", "id": "B1RSZ5-EOVoe_TPSQ4H9VKES2-Q=", "properties": {"ref": "1253460", "@spider": "edeka", "addr:full": "Krankenhausstra\u00dfe 1", "addr:city": "Neu - Ulm", "addr:state": "S\u00fcdwest", "addr:postcode": "89231", "addr:country": "DE", "name": "CAP Markt Neu-Ulm", "phone": "0731 17625112", "brand": "Edeka"}, "geometry": {"type": "Point", "coordinates": [9.9966197, 48.3944944]}},
{"type": "Feature", "id": "f0_TyPH76trJq8ledrDr7qXrEo0=", "properties": {"ref": "1254064", "@spider": "edeka", "addr:full": "Pfinztalstra\u00dfe 62", "addr:city": "Karlsruhe-Durlach", "addr:state": "S\u00fcdwest", "addr:postcode": "76227", "addr:country": "DE", "name": "CAP Markt Karlsruhe-Durlach", "phone": "0721 1836925", "brand": "Edeka"}, "geometry": {"type": "Point", "coordinates": [8.4709483, 48.9992925]}},
{"type": "Feature", "id": "vkl7eA78F6pUtlTIT2KzwAfFal4=", "properties": {"ref": "1255318", "@spider": "edeka", "addr:full": "Basler Landstra\u00dfe 30a", "addr:city": "Freiburg", "addr:state": "S\u00fcdwest", "addr:postcode": "79111", "addr:country": "DE", "name": "EDEKA Rees", "phone": "0761 45697880", "brand": "Edeka"}, "geometry": {"type": "Point", "coordinates": [7.8038798, 47.98347210000001]}},
{"type": "Feature", "id": "aOaJvKQWkm-Jkh8HqHJnxPzbBds=", "properties": {"ref": "1318308", "@spider": "edeka", "addr:full": "Mainstra\u00dfe 6", "addr:city": "L\u00fctzelbach", "addr:state": "S\u00fcdwest", "addr:postcode": "64750", "addr:country": "DE", "name": "CAP Markt  L\u00fctzelbach", "phone": "06165 301768", "brand": "Edeka"}, "geometry": {"type": "Point", "coordinates": [9.0772516, 49.7878674]}},
{"type": "Feature", "id": "HxtL6c_kWZbQGKD5jha8FeVEEoA=", "properties": {"ref": "1328026", "@spider": "edeka", "addr:full": "Eich\u00e4cker 4", "addr:city": "Stuttgart", "addr:state": "S\u00fcdwest", "addr:postcode": "70565", "addr:country": "DE", "name": "CAP Markt Fasanenhof", "phone": "0711 28055523", "brand": "Edeka"}, "geometry": {"type": "Point", "coordinates": [9.1537091, 48.7136319]}},
{"type": "Feature", "id": "R28se9xsLL12Ag27M9ZlPahBRRY=", "properties": {"ref": "2642972", "@spider": "edeka", "addr:full": "Gewerbestr. 1a", "addr:city": "Kalbach", "addr:state": "Hessenring", "addr:postcode": "36148", "addr:country": "DE", "name": "Henrik Wehner e.K.", "phone": "06655 9110614", "brand": "Edeka"}, "geometry": {"type": "Point", "coordinates": [9.6418302, 50.4301041]}},
{"type": "Feature", "id": "jKYWRhPzyi6L4pXJFSMeVCMjoZs=", "properties": {"ref": "2642981", "@spider": "edeka", "addr:full": "H\u00f6lderlinplatz 4", "addr:city": "Stuttgart", "addr:state": "S\u00fcdwest", "addr:postcode": "70193", "addr:country": "DE", "name": "CAP Markt Stuttgart", "phone": "0711 22930738", "brand": "Edeka"}, "geometry": {"type": "Point", "coordinates": [9.1582691, 48.7826673]}},
{"type": "Feature", "id": "xVaRov8f1s7ApbmEYu_RI5T_7_Y=", "properties": {"ref": "2679098", "@spider": "edeka", "addr:full": "Chinonplatz 6", "addr:city": "Hofheim", "addr:state": "S\u00fcdwest", "addr:postcode": "65719", "addr:country": "DE", "name": "EDEKA Buch", "phone": "06192 921180", "brand": "Edeka"}, "geometry": {"type": "Point", "coordinates": [8.44813, 50.08558]}},
{"type": "Feature", "id": "RIOlibELrhnvw0M0q4RcHEGhR4Q=", "properties": {"ref": "3568383", "@spider": "edeka", "addr:full": "Vor dem Tore 6", "addr:city": "Hardegsen", "addr:state": "Hessenring", "addr:postcode": "37181", "addr:country": "DE", "name": "Alexander Thiele", "phone": "05505 5055350", "brand": "Edeka"}, "geometry": {"type": "Point", "coordinates": [9.8308901, 51.65226699999999]}},
{"type": "Feature", "id": "3Uj6XhsLoPI16Cvp0XowIc-LEj0=", "properties": {"ref": "3569496", "@spider": "edeka", "addr:full": "Wilhelm-Jost-Ring 1-3", "addr:city": "Bad Nauheim", "addr:state": "Hessenring", "addr:postcode": "61231", "addr:country": "DE", "name": "Hayrettin Bayrak e.K.", "phone": "06032 920552", "brand": "Edeka"}, "geometry": {"type": "Point", "coordinates": [8.734399999999999, 50.35635]}},
{"type": "Feature", "id": "5O7hoGaG5fGBtGXWMEvd0asB2BQ=", "properties": {"ref": "3569695", "@spider": "edeka", "addr:full": "N\u00fcrnberger Landstr. 52", "addr:city": "Morschen", "addr:state": "Hessenring", "addr:postcode": "34326", "addr:country": "DE", "name": "Carsten Marg e.K.", "phone": "05664 8231", "brand": "Edeka"}, "geometry": {"type": "Point", "coordinates": [9.621838799999999, 51.0643296]}},
{"type": "Feature", "id": "6QERoZ7ey0XQrnasKR6m_2rfJY0=", "properties": {"ref": "3841018", "@spider": "edeka", "addr:full": "Lebacher Stra\u00dfe 86", "addr:city": "Saarbr\u00fccken-Malstatt", "addr:state": "S\u00fcdwest", "addr:postcode": "66113", "addr:country": "DE", "name": "CAP Markt SB-Malstatt", "phone": "0681 740349", "brand": "Edeka"}, "geometry": {"type": "Point", "coordinates": [6.9688574, 49.24621]}},
{"type": "Feature", "id": "rGZoy9r_FOK0MpHR7gSRN6H-AQc=", "properties": {"ref": "3873697", "@spider": "edeka", "addr:full": "Marburger Str. 143-145", "addr:city": "Gie\u00dfen", "addr:state": "Hessenring", "addr:postcode": "35390", "addr:country": "DE", "name": "E-Center Herkules SB Warenhaus", "phone": "0641 6869270", "brand": "Edeka"}, "geometry": {"type": "Point", "coordinates": [8.6876427, 50.60155]}},
{"type": "Feature", "id": "RIn7i2Y00TuI4vD5elg9dtssI6k=", "properties": {"ref": "3874560", "@spider": "edeka", "addr:full": "Gr\u00fcnewaldplatz 12", "addr:city": "Heidenheim", "addr:state": "S\u00fcdwest", "addr:postcode": "89520", "addr:country": "DE", "name": "CAP Markt Heidenheim", "phone": "07321 609587", "brand": "Edeka"}, "geometry": {"type": "Point", "coordinates": [10.1400814, 48.6981543]}},
{"type": "Feature", "id": "MffXdwvS1hN1KYTHduO1QomMtls=", "properties": {"ref": "3874562", "@spider": "edeka", "addr:full": "Herbrechtinger Stra\u00dfe 5/1", "addr:city": "Herbrechtingen-Bolheim", "addr:state": "S\u00fcdwest", "addr:postcode": "89542", "addr:country": "DE", "name": "CAP Markt Herbrechtingen", "phone": "07324 984153", "brand": "Edeka"}, "geometry": {"type": "Point", "coordinates": [10.14983, 48.63189999999999]}},
{"type": "Feature", "id": "yzpOmE3cjv-S4kWJ0AiegIW3hNA=", "properties": {"ref": "3992298", "@spider": "edeka", "addr:full": "Im H\u00f6ning 2", "addr:city": "Elsenfeld", "addr:state": "S\u00fcdwest", "addr:postcode": "63820", "addr:country": "DE", "name": "EDEKA Bauer", "phone": "06022 61830", "brand": "Edeka"}, "geometry": {"type": "Point", "coordinates": [9.1648081, 49.8526635]}},
{"type": "Feature", "id": "M5pyor7mcUWeETj6OybkPkeT0OU=", "properties": {"ref": "4171015", "@spider": "edeka", "addr:full": "Kaiserstra\u00dfe 11", "addr:city": "Butzbach", "addr:state": "Hessenring", "addr:postcode": "35510", "addr:country": "DE", "name": "Sabine Lemler", "phone": "06033 9285516", "brand": "Edeka"}, "geometry": {"type": "Point", "coordinates": [8.66902, 50.43048]}},
{"type": "Feature", "id": "ECDROcGlccmVHOUZP-d70S-SY8M=", "properties": {"ref": "4171090", "@spider": "edeka", "addr:full": "Rischenweg 9", "addr:city": "Rosdorf", "addr:state": "Hessenring", "addr:postcode": "37124", "addr:country": "DE", "name": "Dirk G\u00fcnther", "phone": "0551 70769999", "brand": "Edeka"}, "geometry": {"type": "Point", "coordinates": [9.90968, 51.50932]}},
{"type": "Feature", "id": "g__Ot8RIm8BHqiK3uu12uYbiRZA=", "properties": {"ref": "4171438", "@spider": "edeka", "addr:full": "Goethestra\u00dfe 7d", "addr:city": "Bad Langensalza", "addr:state": "Hessenring", "addr:postcode": "99947", "addr:country": "DE", "name": "Stephan Swaczyna", "phone": "03603 839910", "brand": "Edeka"}, "geometry": {"type": "Point", "coordinates": [10.6427988, 51.11563719999999]}},
{"type": "Feature", "id": "8aRAc7Ot9G3vTZfnplHsdPqI6J0=", "properties": {"ref": "4171445", "@spider": "edeka", "addr:full": "Stockenbreite 4", "addr:city": "Gieboldehausen", "addr:state": "Hessenring", "addr:postcode": "37434", "addr:country": "DE", "name": "Sonja + Torsten Jaksch oHG", "phone": "05528 2049130", "brand": "Edeka"}, "geometry": {"type": "Point", "coordinates": [10.2008932, 51.6026447]}},
{"type": "Feature", "id": "x_ExxhivHyg20_gJ3Uh0Omyia0E=", "properties": {"ref": "4236933", "@spider": "edeka", "addr:full": "Altendorfer Tor 24", "addr:city": "Einbeck", "addr:state": "Hessenring", "addr:postcode": "37574", "addr:country": "DE", "name": "Marktkauf Einbeck", "phone": "05561 9410", "brand": "Edeka"}, "geometry": {"type": "Point", "coordinates": [9.8789347, 51.8132719]}},
{"type": "Feature", "id": "dQ7pdIUKe31ZS6_mwT0s29cV8K4=", "properties": {"ref": "4236934", "@spider": "edeka", "addr:full": "Hillerser Str. 11", "addr:city": "Northeim", "addr:state": "Hessenring", "addr:postcode": "37154", "addr:country": "DE", "name": "Marktkauf Northeim", "phone": "05551 98750", "brand": "Edeka"}, "geometry": {"type": "Point", "coordinates": [9.9837817, 51.6909457]}},
{"type": "Feature", "id": "zFxIBQPVANBvgTKcC2WTbRFRELI=", "properties": {"ref": "4236939", "@spider": "edeka", "addr:full": "M\u00fchlh\u00e4user Str. 110", "addr:city": "Eisenach", "addr:state": "Hessenring", "addr:postcode": "99817", "addr:country": "DE", "name": "Marktkauf Eisenach", "phone": "03691 8520", "brand": "Edeka"}, "geometry": {"type": "Point", "coordinates": [10.315967, 50.992563]}},
{"type": "Feature", "id": "luz7etWkK6F003--dZDX8v_Ae9I=", "properties": {"ref": "4236943", "@spider": "edeka", "addr:full": "Am Ostbahnhof 2", "addr:city": "Clausthal-Zellerfeld", "addr:state": "Hessenring", "addr:postcode": "38678", "addr:country": "DE", "name": "Marktkauf Clausthal-Zellerfeld", "phone": "05323 98220", "brand": "Edeka"}, "geometry": {"type": "Point", "coordinates": [10.3519056, 51.8049875]}},
{"type": "Feature", "id": "FL0XyELC1m36P4gWbwGUZ7aVx-U=", "properties": {"ref": "4236947", "@spider": "edeka", "addr:full": "Darrweg 67", "addr:city": "Nordhausen", "addr:state": "Hessenring", "addr:postcode": "99734", "addr:country": "DE", "name": "Marktkauf Nordhausen", "phone": "03631 9210", "brand": "Edeka"}, "geometry": {"type": "Point", "coordinates": [10.8038657, 51.4829924]}},
{"type": "Feature", "id": "An5NyGNVNb-cEwFtVNhw2AzST_I=", "properties": {"ref": "4518250", "@spider": "edeka", "addr:full": "Reichenaustra\u00dfe 36", "addr:city": "Konstanz-Petershausen", "addr:state": "S\u00fcdwest", "addr:postcode": "78467", "addr:country": "DE", "name": "E center Baur", "phone": "07531 454330", "brand": "Edeka"}, "geometry": {"type": "Point", "coordinates": [9.1675199, 47.6722291]}},
{"type": "Feature", "id": "96q3CzXT5zuq0wn9pX0YBVWsTpk=", "properties": {"ref": "4809172", "@spider": "edeka", "addr:full": "Georgstr. 2b", "addr:city": "Elsfleth", "addr:state": "Minden/Hannover", "addr:postcode": "26931", "addr:country": "DE", "name": "Nah und Gut Wesermarsch", "phone": "04485 420854", "brand": "Edeka"}, "geometry": {"type": "Point", "coordinates": [8.37148, 53.22801]}},
{"type": "Feature", "id": "f5Gvq942Cl5OBnKRNOlH6uDz-VY=", "properties": {"ref": "5521878", "@spider": "edeka", "addr:full": "Hauptstr. 14", "addr:city": "Sontra - Ulfen", "addr:state": "Hessenring", "addr:postcode": "36205", "addr:country": "DE", "name": "Thomas und Heiko Liese Gbr", "phone": "05653 1296", "brand": "Edeka"}, "geometry": {"type": "Point", "coordinates": [10.015332, 51.0449887]}},
{"type": "Feature", "id": "66aBKZwL8Vc4BBXGEr3lx5mnLVI=", "properties": {"ref": "5521990", "@spider": "edeka", "addr:full": "Sieg-Lahn-Str. 51", "addr:city": "Bad Laasphe", "addr:state": "Hessenring", "addr:postcode": "57334", "addr:country": "DE", "name": "Frischemarkt Quitadamo GmbH", "phone": "02754 2209596", "brand": "Edeka"}, "geometry": {"type": "Point", "coordinates": [8.3234778, 50.93950239999999]}},
{"type": "Feature", "id": "XHilSUjWDMQqibAt7ZnfpadOly0=", "properties": {"ref": "5522908", "@spider": "edeka", "addr:full": "Hinterlandstr. 15", "addr:city": "Dautphetal - Holzhausen", "addr:state": "Hessenring", "addr:postcode": "35232", "addr:country": "DE", "name": "Christoph Kuhl", "phone": "06468 91083", "brand": "Edeka"}, "geometry": {"type": "Point", "coordinates": [8.5265352, 50.8128633]}},
{"type": "Feature", "id": "ofIRK4mHqhu93AJROIKTEZVZMfo=", "properties": {"ref": "5522927", "@spider": "edeka", "addr:full": "Stra\u00dfe des Friedens 10", "addr:city": "Querfurt-Lodersleben", "addr:state": "Hessenring", "addr:postcode": "06268", "addr:country": "DE", "name": "Ingo Lischke", "phone": "034771 23427", "brand": "Edeka"}, "geometry": {"type": "Point", "coordinates": [11.5405291, 51.377506]}},
{"type": "Feature", "id": "ebeFHG7DjfjHDc_6sgs7xab5FoY=", "properties": {"ref": "5523070", "@spider": "edeka", "addr:full": "Braacher Str. 2", "addr:city": "Alheim - Baumbach", "addr:state": "Hessenring", "addr:postcode": "36211", "addr:country": "DE", "name": "Linda Peter", "phone": "06623 919216", "brand": "Edeka"}, "geometry": {"type": "Point", "coordinates": [9.6682498, 51.0246445]}},
{"type": "Feature", "id": "Da7OllyWzl_OSO3uYTriMMW0MVk=", "properties": {"ref": "5523170", "@spider": "edeka", "addr:full": "Marburger Str. 22", "addr:city": "Marburg", "addr:state": "Hessenring", "addr:postcode": "35043", "addr:country": "DE", "name": "Anja Gethings", "phone": "06421 41420", "brand": "Edeka"}, "geometry": {"type": "Point", "coordinates": [8.7673382, 50.77960789999999]}},
{"type": "Feature", "id": "1vufjBglN9X5mrt3CMgANYsnLv0=", "properties": {"ref": "5526706", "@spider": "edeka", "addr:full": "In den St. Wendelsg\u00e4rten 7", "addr:city": "Ortenberg", "addr:state": "Hessenring", "addr:postcode": "63683", "addr:country": "DE", "name": "Roger Olbrich e.K.", "phone": "06046 2041", "brand": "Edeka"}, "geometry": {"type": "Point", "coordinates": [9.0508822, 50.3541971]}},
{"type": "Feature", "id": "pOYzq1ST6Ue9nNTBChYyuSjlt6s=", "properties": {"ref": "5526712", "@spider": "edeka", "addr:full": "Rolfesstr. 3", "addr:city": "Dillenburg", "addr:state": "Hessenring", "addr:postcode": "35683", "addr:country": "DE", "name": "Matthias Mitsch e.K.", "phone": "02771 2650264", "brand": "Edeka"}, "geometry": {"type": "Point", "coordinates": [8.289300299999999, 50.7244416]}},
{"type": "Feature", "id": "Nj8ZuvRUjUqCt-qClurWvzSLN9A=", "properties": {"ref": "5526771", "@spider": "edeka", "addr:full": "Georg-Victor-Str. 2", "addr:city": "Bad Arolsen", "addr:state": "Hessenring", "addr:postcode": "34454", "addr:country": "DE", "name": "E-Center Herkules SB Warenhaus", "phone": "05691 62500", "brand": "Edeka"}, "geometry": {"type": "Point", "coordinates": [9.0101111, 51.3776841]}},
{"type": "Feature", "id": "CUMvFRff6b424iB_QQq-CRyjmZU=", "properties": {"ref": "5723819", "@spider": "edeka", "addr:full": "Friedrichstr. 142", "addr:city": "Berlin", "addr:state": "Minden/Hannover", "addr:postcode": "10117", "addr:country": "DE", "name": "EDEKA City Markt", "phone": "030 20166540", "brand": "Edeka"}, "geometry": {"type": "Point", "coordinates": [13.3871446, 52.5264615]}},
{"type": "Feature", "id": "4Tw9MeW9-vlFxQnrfCbhbNPOfKw=", "properties": {"ref": "5768425", "@spider": "edeka", "addr:full": "Meerfeldstra\u00dfe 35-37", "addr:city": "Mannheim-Lindenhof", "addr:state": "S\u00fcdwest", "addr:postcode": "68163", "addr:country": "DE", "name": "CAP Markt Mannheim", "phone": "0621 42944494", "brand": "Edeka"}, "geometry": {"type": "Point", "coordinates": [8.4689865, 49.4744039]}},
{"type": "Feature", "id": "XbhzXec-qt1xFdJNrFQjsdfmLC8=", "properties": {"ref": "5891488", "@spider": "edeka", "addr:full": "M\u00fchlstra\u00dfe 90", "addr:city": "Pfungstadt", "addr:state": "S\u00fcdwest", "addr:postcode": "64319", "addr:country": "DE", "name": "CAP Markt Pfungstadt", "phone": "06157 80417240", "brand": "Edeka"}, "geometry": {"type": "Point", "coordinates": [8.610551899999999, 49.7970927]}},
{"type": "Feature", "id": "wpV4BkfYHYzfTbW32uvE03eIhTc=", "properties": {"ref": "5967421", "@spider": "edeka", "addr:full": "Wei\u00dfauer Str. 2", "addr:city": "Trostberg", "addr:state": "S\u00fcdbayern", "addr:postcode": "83308", "addr:country": "DE", "name": "Scherer\u00b4s t\u00e4gliche Frische Getr\u00e4nkemarkt", "phone": "08621 978433", "brand": "Edeka"}, "geometry": {"type": "Point", "coordinates": [12.5421, 48.02513]}},
{"type": "Feature", "id": "rvVyNoz1eaFttpOaoThLsF-oUNU=", "properties": {"ref": "6061729", "@spider": "edeka", "addr:full": "In der Spitze", "addr:city": "Alheim - Heinebach", "addr:state": "Hessenring", "addr:postcode": "36211", "addr:country": "DE", "name": "Julia Hellwig", "phone": "05664 9389420", "brand": "Edeka"}, "geometry": {"type": "Point", "coordinates": [9.6598219, 51.0496661]}},
{"type": "Feature", "id": "YKDno905sg6ICTuQRHY0j20Xg5I=", "properties": {"ref": "6173674", "@spider": "edeka", "addr:full": "Rathausstra\u00dfe 14", "addr:city": "Gaggenau-Bad Rotenfels", "addr:state": "S\u00fcdwest", "addr:postcode": "76571", "addr:country": "DE", "name": "CAP Markt Gaggenau", "phone": "07225 9864560", "brand": "Edeka"}, "geometry": {"type": "Point", "coordinates": [8.307179999999999, 48.81381]}},
{"type": "Feature", "id": "-6nITmGnGauPhWT_rHDgzp7BSBU=", "properties": {"ref": "6185738", "@spider": "edeka", "addr:full": "Obere Stra\u00dfe 16-18", "addr:city": "Villingen-Schwenningen", "addr:state": "S\u00fcdwest", "addr:postcode": "78050", "addr:country": "DE", "name": "CAP Markt Villingen", "phone": "07721 2061414", "brand": "Edeka"}, "geometry": {"type": "Point", "coordinates": [8.459728499999999, 48.0608365]}},
{"type": "Feature", "id": "lG4lFY15ii-Axyz6ikOTaC2KNJo=", "properties": {"ref": "6209248", "@spider": "edeka", "addr:full": "An der B 255", "addr:city": "Mittenaar", "addr:state": "Hessenring", "addr:postcode": "35756", "addr:country": "DE", "name": "Tanja Weyand e.K.", "phone": "02778 6002", "brand": "Edeka"}, "geometry": {"type": "Point", "coordinates": [8.382580500000001, 50.6924603]}},
{"type": "Feature", "id": "Xhb-AIprwshxdkSb2BdJ1bevjYg=", "properties": {"ref": "6280545", "@spider": "edeka", "addr:full": "Reinh\u00e4user Landstr. 78", "addr:city": "G\u00f6ttingen", "addr:state": "Hessenring", "addr:postcode": "37083", "addr:country": "DE", "name": "Alfred W\u00fcstefeld", "phone": "0551 78957262", "brand": "Edeka"}, "geometry": {"type": "Point", "coordinates": [9.9401247, 51.52171449999999]}},
{"type": "Feature", "id": "-E9GlkkaSNaJKChqVYTnma9cVDI=", "properties": {"ref": "6280825", "@spider": "edeka", "addr:full": "Schweinfurter Str. 21", "addr:city": "Bergrheinfeld", "addr:state": "Nordbayern-Sachsen-Th\u00fcringen", "addr:postcode": "97493", "addr:country": "DE", "name": "Getr\u00e4nkemarkt Sczygiel, Pfister & Pfrang KG", "phone": "09721 791619", "brand": "Edeka"}, "geometry": {"type": "Point", "coordinates": [10.18271, 50.01111]}},
{"type": "Feature", "id": "k7kcxMpRZraoj8fE1xk69A_JuR4=", "properties": {"ref": "6280896", "@spider": "edeka", "addr:full": "Bismarckallee 7e", "addr:city": "Freiburg", "addr:state": "S\u00fcdwest", "addr:postcode": "79098", "addr:country": "DE", "name": "Wehrle Markt am Gleis", "phone": "0761 21172800", "brand": "Edeka"}, "geometry": {"type": "Point", "coordinates": [7.842575899999999, 47.998763]}},
{"type": "Feature", "id": "vt-KEYRtPCG8cgWDzDztrNR9mh4=", "properties": {"ref": "6280998", "@spider": "edeka", "addr:full": "Bahnhofstra\u00dfe 2", "addr:city": "Bietigheim-Bissingen", "addr:state": "S\u00fcdwest", "addr:postcode": "74321", "addr:country": "DE", "name": "CAP Markt Bietigheim", "phone": "07142 9198024", "brand": "Edeka"}, "geometry": {"type": "Point", "coordinates": [9.099535999999999, 48.9469311]}},
{"type": "Feature", "id": "A-cnFrWPt_BlDcv-nQyruCNrr08=", "properties": {"ref": "6281051", "@spider": "edeka", "addr:full": "Geismarer Str. 5", "addr:city": "Frankenberg", "addr:state": "Hessenring", "addr:postcode": "35066", "addr:country": "DE", "name": "Ursula Baltz", "phone": "06451 1600", "brand": "Edeka"}, "geometry": {"type": "Point", "coordinates": [8.80307, 51.05974]}},
{"type": "Feature", "id": "bf9Ez5K55XoUvX9IBT-yjgNSuis=", "properties": {"ref": "6281088", "@spider": "edeka", "addr:full": "Am Goldenen Feld 2", "addr:city": "Kulmbach", "addr:state": "Nordbayern-Sachsen-Th\u00fcringen", "addr:postcode": "95326", "addr:country": "DE", "name": "E center Seidl", "phone": "09221 6903930", "brand": "Edeka"}, "geometry": {"type": "Point", "coordinates": [11.4384511, 50.1023424]}},
{"type": "Feature", "id": "JSaEc4QPWRnJ3mNypK3_Vh5RqQA=", "properties": {"ref": "8000053", "@spider": "edeka", "addr:full": "Rosenstra\u00dfe 11", "addr:city": "Denzlingen", "addr:state": "S\u00fcdwest", "addr:postcode": "79211", "addr:country": "DE", "name": "EDEKA Rees", "phone": "07666 948462", "brand": "Edeka"}, "geometry": {"type": "Point", "coordinates": [7.88549, 48.06771]}},
{"type": "Feature", "id": "gU3lMMueAPzQgnqHSUmwimCx31w=", "properties": {"ref": "8000076", "@spider": "edeka", "addr:full": "An der Zehnt 3", "addr:city": "Dermbach", "addr:state": "Hessenring", "addr:postcode": "36466", "addr:country": "DE", "name": "Christoph Sell", "phone": "036964 839016", "brand": "Edeka"}, "geometry": {"type": "Point", "coordinates": [10.1237294, 50.7139499]}},
{"type": "Feature", "id": "LhFkAZORptvngH-BHYRJHQ3nkU0=", "properties": {"ref": "8000077", "@spider": "edeka", "addr:full": "Heidelsteinstr. 2", "addr:city": "Tann (Rh\u00f6n)", "addr:state": "Hessenring", "addr:postcode": "36142", "addr:country": "DE", "name": "Thomas Wolf e.K.", "phone": "06682 9170051", "brand": "Edeka"}, "geometry": {"type": "Point", "coordinates": [10.0206413, 50.6373379]}},
{"type": "Feature", "id": "eWNMhhuhQAnGSo_1mUXUV-nQG88=", "properties": {"ref": "8000078", "@spider": "edeka", "addr:full": "Bahnhofstr. 32a", "addr:city": "Friedrichroda", "addr:state": "Hessenring", "addr:postcode": "99894", "addr:country": "DE", "name": "Daniel Barthel e.K.", "phone": "03623 3199961", "brand": "Edeka"}, "geometry": {"type": "Point", "coordinates": [10.5762018, 50.8596089]}},
{"type": "Feature", "id": "w2ndwNgW9_62QsC2-qKYZyS66v0=", "properties": {"ref": "8000124", "@spider": "edeka", "addr:full": "Kurf\u00fcrstenanlage 21-23", "addr:city": "Heidelberg", "addr:state": "S\u00fcdwest", "addr:postcode": "69115", "addr:country": "DE", "name": "Scheck-in Center", "phone": "06221 4344790", "brand": "Edeka"}, "geometry": {"type": "Point", "coordinates": [8.6869028, 49.4059295]}},
{"type": "Feature", "id": "jPg2-Z_4PZuvBxR_IZNSVmUdjbI=", "properties": {"ref": "8000206", "@spider": "edeka", "addr:full": "Alte Kasseler Str. 27b", "addr:city": "Marburg", "addr:state": "Hessenring", "addr:postcode": "35039", "addr:country": "DE", "name": "Christopher Kempf", "phone": "06421 6200160", "brand": "Edeka"}, "geometry": {"type": "Point", "coordinates": [8.7745841, 50.8235664]}},
{"type": "Feature", "id": "hrh_EDCJAIjFx6ozzPI5pZTI-0A=", "properties": {"ref": "8000239", "@spider": "edeka", "addr:full": "Am Hollerborn 7", "addr:city": "Am\u00f6neburg", "addr:state": "Hessenring", "addr:postcode": "35287", "addr:country": "DE", "name": "Am\u00f6neburg Markt GmbH", "phone": "06422 857400", "brand": "Edeka"}, "geometry": {"type": "Point", "coordinates": [8.933907, 50.7934412]}},
{"type": "Feature", "id": "Zy-dM0domIwcCRfUsSnP1bcC4-I=", "properties": {"ref": "8000241", "@spider": "edeka", "addr:full": "Marktstr. 1-3", "addr:city": "Duderstadt", "addr:state": "Hessenring", "addr:postcode": "37115", "addr:country": "DE", "name": "Alfred W\u00fcstefeld", "phone": "05527 8498570", "brand": "Edeka"}, "geometry": {"type": "Point", "coordinates": [10.2567435, 51.5119773]}},
{"type": "Feature", "id": "B6_1qE0NRP25iqvmNbHVt0v-BX8=", "properties": {"ref": "8000242", "@spider": "edeka", "addr:full": "Im Z\u00fchl 11", "addr:city": "Herzberg", "addr:state": "Hessenring", "addr:postcode": "37412", "addr:country": "DE", "name": "Alfred W\u00fcstefeld", "phone": "05521 720390", "brand": "Edeka"}, "geometry": {"type": "Point", "coordinates": [10.30823, 51.6126]}},
{"type": "Feature", "id": "E0cKkIQtVn3ji_LZkCYsSCPwhTw=", "properties": {"ref": "8000243", "@spider": "edeka", "addr:full": "Sieberstr. 5-7", "addr:city": "Herzberg", "addr:state": "Hessenring", "addr:postcode": "37412", "addr:country": "DE", "name": "Alfred W\u00fcstefeld", "phone": "05521 999149", "brand": "Edeka"}, "geometry": {"type": "Point", "coordinates": [10.33541, 51.65653]}},
{"type": "Feature", "id": "j-hu0mxx0VHHdHE33E6EwM-ImWY=", "properties": {"ref": "8000280", "@spider": "edeka", "addr:full": "Bahnhofstr. 66", "addr:city": "Bad Waldsee", "addr:state": "S\u00fcdbayern", "addr:postcode": "88339", "addr:country": "DE", "name": "Raiffeisen Bezug + Absatz eG Bad Waldsee", "phone": "07524 977318", "brand": "Edeka"}, "geometry": {"type": "Point", "coordinates": [9.754088399999999, 47.9250578]}},
{"type": "Feature", "id": "q0PtaF9a8zwMAOysFw06ld9XfnM=", "properties": {"ref": "8000281", "@spider": "edeka", "addr:full": "Leutkircher Str. 1", "addr:city": "Isny", "addr:state": "S\u00fcdbayern", "addr:postcode": "88316", "addr:country": "DE", "name": "Raiffeisen Bezug + Absatz EG Isny", "phone": "07562 974825", "brand": "Edeka"}, "geometry": {"type": "Point", "coordinates": [10.0428255, 47.6988336]}},
{"type": "Feature", "id": "yg9oR_8KRNJmuT6S9mCWR5yYBA0=", "properties": {"ref": "8000282", "@spider": "edeka", "addr:full": "Oberriedstr. 4", "addr:city": "Bad Wurzach", "addr:state": "S\u00fcdbayern", "addr:postcode": "88410", "addr:country": "DE", "name": "Raiffeisen Bezug + Absatz eG Bad Wurzach", "phone": "07564 93230", "brand": "Edeka"}, "geometry": {"type": "Point", "coordinates": [9.89203, 47.91155999999999]}},
{"type": "Feature", "id": "9dWM0oZ79x9EFmLffjElRa9V49E=", "properties": {"ref": "8000320", "@spider": "edeka", "addr:full": "Hauptstra\u00dfe 60", "addr:city": "Lauchheim", "addr:state": "Nordbayern-Sachsen-Th\u00fcringen", "addr:postcode": "73466", "addr:country": "DE", "name": "Regionalmarkt Bengelmann", "phone": "07363 9545430", "brand": "Edeka"}, "geometry": {"type": "Point", "coordinates": [10.2405046, 48.8716905]}},
{"type": "Feature", "id": "CJT94c7HQ-E31U8rDZMqiu4qoek=", "properties": {"ref": "8000389", "@spider": "edeka", "addr:full": "Schemppstra\u00dfe 29", "addr:city": "Stuttgart-Riedenberg", "addr:state": "S\u00fcdwest", "addr:postcode": "70619", "addr:country": "DE", "name": "CAP Markt Stuttgart-Riedenberg", "phone": "0711 474441", "brand": "Edeka"}, "geometry": {"type": "Point", "coordinates": [9.212803599999999, 48.7343807]}},
{"type": "Feature", "id": "ij4v8ptT-PUxzcbCrIsqXC54FAU=", "properties": {"ref": "8000459", "@spider": "edeka", "addr:full": "Herrnstra\u00dfe 46", "addr:city": "Mainbernheim", "addr:state": "Nordbayern-Sachsen-Th\u00fcringen", "addr:postcode": "97350", "addr:country": "DE", "name": "nah & gut Fuchs", "phone": "09323 446", "brand": "Edeka"}, "geometry": {"type": "Point", "coordinates": [10.2186464, 49.7091216]}},
{"type": "Feature", "id": "QzBlvw_yshzJP1H7x4PdchetyTI=", "properties": {"ref": "8000491", "@spider": "edeka", "addr:full": "Dorfstra\u00dfe 15 A", "addr:city": "Dittelsdorf", "addr:state": "Nordbayern-Sachsen-Th\u00fcringen", "addr:postcode": "02788", "addr:country": "DE", "name": "Lebensmittel Posselt", "phone": "035843 25874", "brand": "Edeka"}, "geometry": {"type": "Point", "coordinates": [14.8726362, 50.9525948]}},
{"type": "Feature", "id": "_mCZR6vxZxVYLW1awLLZvihvJhg=", "properties": {"ref": "8000514", "@spider": "edeka", "addr:full": "Bahnhofstra\u00dfe 6", "addr:city": "Obing", "addr:state": "S\u00fcdbayern", "addr:postcode": "83119", "addr:country": "DE", "name": "EDEKA Drogeriemarkt Karavil", "phone": "08624 8759560", "brand": "Edeka"}, "geometry": {"type": "Point", "coordinates": [12.405047, 48.00000300000001]}},
{"type": "Feature", "id": "-5L0A335gvAP9T9dMeRE-E9yI74=", "properties": {"ref": "8000516", "@spider": "edeka", "addr:full": "Hauptstr. 1", "addr:city": "Bad Emstal", "addr:state": "Hessenring", "addr:postcode": "34308", "addr:country": "DE", "name": "Todenh\u00f6fer GmbH", "phone": "05625 282", "brand": "Edeka"}, "geometry": {"type": "Point", "coordinates": [9.2385319, 51.27412]}},
{"type": "Feature", "id": "-kDKpFL3hCTXEDoDE8Ufuycrcck=", "properties": {"ref": "8000517", "@spider": "edeka", "addr:full": "Baunsbergstr. 1", "addr:city": "Kassel", "addr:state": "Hessenring", "addr:postcode": "34131", "addr:country": "DE", "name": "Todenh\u00f6fer GmbH", "phone": "0561 34425", "brand": "Edeka"}, "geometry": {"type": "Point", "coordinates": [9.434948799999999, 51.3137584]}},
{"type": "Feature", "id": "po3PQ4B00XzLXzeSaX9bv1xF4TM=", "properties": {"ref": "8000527", "@spider": "edeka", "addr:full": "Johannisplatz 2-4", "addr:city": "Eisenach", "addr:state": "Hessenring", "addr:postcode": "99817", "addr:country": "DE", "name": "Elmar Simon", "phone": "03691 213905", "brand": "Edeka"}, "geometry": {"type": "Point", "coordinates": [10.3236693, 50.97406609999999]}},
{"type": "Feature", "id": "7N53SN1R2F3GWTKkpJwkj8V37Z4=", "properties": {"ref": "8000555", "@spider": "edeka", "addr:full": "Schulstra\u00dfe 10", "addr:city": "Lau\u00dfnitz", "addr:state": "Nordbayern-Sachsen-Th\u00fcringen", "addr:postcode": "01936", "addr:country": "DE", "name": "Einkaufsmarkt Hoffmann", "phone": "035795 28470", "brand": "Edeka"}, "geometry": {"type": "Point", "coordinates": [13.8808247, 51.2464418]}},
{"type": "Feature", "id": "ywCF11SN6uVt4kZ4xmyA-ufp69Y=", "properties": {"ref": "8000575", "@spider": "edeka", "addr:full": "Sandweierer Stra\u00dfe 15", "addr:city": "Baden-Baden Sandweier", "addr:state": "S\u00fcdwest", "addr:postcode": "76532", "addr:country": "DE", "name": "CAP Markt Sandweier", "phone": "07221 8043915", "brand": "Edeka"}, "geometry": {"type": "Point", "coordinates": [8.1949136, 48.8083608]}},
{"type": "Feature", "id": "znYXGreZHnpCSKv-Gb69LBia_24=", "properties": {"ref": "8000589", "@spider": "edeka", "addr:full": "Gartestr. 12", "addr:city": "Gleichen - Rittmarshausen", "addr:state": "Hessenring", "addr:postcode": "37130", "addr:country": "DE", "name": "Alfred W\u00fcstefeld", "phone": "05508 92272", "brand": "Edeka"}, "geometry": {"type": "Point", "coordinates": [10.0997455, 51.4818315]}},
{"type": "Feature", "id": "4u_nIBRKmmXKIiBcPa6o8_mJiCk=", "properties": {"ref": "8000703", "@spider": "edeka", "addr:full": "Am Freizeitzentrum 5", "addr:city": "Immendingen", "addr:state": "S\u00fcdwest", "addr:postcode": "78194", "addr:country": "DE", "name": "EDEKA Milkau", "phone": "07462 946790", "brand": "Edeka"}, "geometry": {"type": "Point", "coordinates": [8.7153904, 47.9335476]}},
{"type": "Feature", "id": "de0ksNrVTH3ZxXtcLR0AC5tAlk0=", "properties": {"ref": "8000729", "@spider": "edeka", "addr:full": "Zeppelinstra\u00dfe 34", "addr:city": "Bietigheim-Bissingen", "addr:state": "S\u00fcdwest", "addr:postcode": "74321", "addr:country": "DE", "name": "CAP Markt  Bissingen", "phone": "07142 51492", "brand": "Edeka"}, "geometry": {"type": "Point", "coordinates": [9.1267496, 48.9421003]}},
{"type": "Feature", "id": "wAcwgYHIg3o5uz9M5JO9RB6Qnl4=", "properties": {"ref": "8000730", "@spider": "edeka", "addr:full": "Hohenstadter Stra\u00dfe 3", "addr:city": "Schw\u00e4bisch Hall", "addr:state": "S\u00fcdwest", "addr:postcode": "74523", "addr:country": "DE", "name": "nah und gut Gl\u00fcck", "phone": "07907 942990", "brand": "Edeka"}, "geometry": {"type": "Point", "coordinates": [9.84276, 49.10528]}},
{"type": "Feature", "id": "Br3KA7NcyL9S9-S7NoiSTNNLMs0=", "properties": {"ref": "8000774", "@spider": "edeka", "addr:full": "Eisenbahnstra\u00dfe 153a", "addr:city": "Stolberg", "addr:state": "Rhein-Ruhr", "addr:postcode": "52222", "addr:country": "DE", "name": "EDEKA Cevik - trinkgut Getr\u00e4nkemarkt", "phone": "02402 1020340", "brand": "Edeka"}, "geometry": {"type": "Point", "coordinates": [6.217438599999999, 50.78580179999999]}},
{"type": "Feature", "id": "4BGfN3mBr0NyL9s-71oX0DLe_FQ=", "properties": {"ref": "8000778", "@spider": "edeka", "addr:full": "Am Sandthof 22", "addr:city": "Goch", "addr:state": "Rhein-Ruhr", "addr:postcode": "47574", "addr:country": "DE", "name": "EDEKA Kusenberg - trinkgut Getr\u00e4nkemarkt", "phone": "02823 4191017", "brand": "Edeka"}, "geometry": {"type": "Point", "coordinates": [6.176590399999999, 51.66677929999999]}},
{"type": "Feature", "id": "LUas1vjdZ_E88cDtqR4T01mHWlM=", "properties": {"ref": "8000780", "@spider": "edeka", "addr:full": "Wolbecker Stra\u00dfe 290-296", "addr:city": "M\u00fcnster", "addr:state": "Rhein-Ruhr", "addr:postcode": "48155", "addr:country": "DE", "name": "EDEKA Nientied Getr\u00e4nkemarkt", "phone": "0251 38349631", "brand": "Edeka"}, "geometry": {"type": "Point", "coordinates": [7.668840299999999, 51.9511061]}},