{"type":"FeatureCollection","features":[{"type": "Feature", "id": "v9Z-WsXgXNE9So0r--XHB3_ldlo=", "properties": {"ref": "10", "@spider": "lidl_uk", "addr:full": "2 Hopehill Road", "addr:city": "Glasgow", "addr:postcode": "G20 7JN", "addr:country": "GB", "name": "Maryhill", "brand": "Lidl", "brand:wikidata": "Q151954"}, "geometry": {"type": "Point", "coordinates": [-4.26992, 55.87542]}},
{"type": "Feature", "id": "FEcfiWD7d_5TPNT-B_dPvSr_eR4=", "properties": {"ref": "1000", "@spider": "lidl_uk", "addr:full": "Dalry Road", "addr:city": "Edinburgh", "addr:postcode": "EH11 2EF", "addr:country": "GB", "name": "Dalry Road", "brand": "Lidl", "brand:wikidata": "Q151954"}, "geometry": {"type": "Point", "coordinates": [-3.22265, 55.9416]}},
{"type": "Feature", "id": "3bOzmvbA-0pi-0QGIC4XNR3Wllc=", "properties": {"ref": "1001", "@spider": "lidl_uk", "addr:full": "Station Road", "addr:city": "Elgin", "addr:postcode": "IV30 1QW", "addr:country": "GB", "name": "Elgin", "brand": "Lidl", "brand:wikidata": "Q151954"}, "geometry": {"type": "Point", "coordinates": [-3.31002, 57.64341]}},
{"type": "Feature", "id": "46Mxz8TQDUG1999gazCOTZv4g9k=", "properties": {"ref": "1002", "@spider": "lidl_uk", "addr:full": "Commerce Street", "addr:city": "Brechin", "addr:postcode": "DD9 7BD", "addr:country": "GB", "name": "Brechin", "brand": "Lidl", "brand:wikidata": "Q151954"}, "geometry": {"type": "Point", "coordinates": [-2.65349, 56.73045]}},
{"type": "Feature", "id": "UXdKM8RCpwMVnCfL6D0311A3H-g=", "properties": {"ref": "1003", "@spider": "lidl_uk", "addr:full": "Dalmore Road", "addr:city": "Alness", "addr:postcode": "IV17 0UX", "addr:country": "GB", "name": "Alness", "brand": "Lidl", "brand:wikidata": "Q151954"}, "geometry": {"type": "Point", "coordinates": [-4.24232, 57.69179]}},
{"type": "Feature", "id": "7aWuudXsgS7vdVYX9aQf8M0430U=", "properties": {"ref": "1006", "@spider": "lidl_uk", "addr:full": "East Road", "addr:city": "Ferndale", "addr:postcode": "CF43 3HJ", "addr:country": "GB", "name": "Tylorstown", "brand": "Lidl", "brand:wikidata": "Q151954"}, "geometry": {"type": "Point", "coordinates": [-3.43199, 51.64504]}},
{"type": "Feature", "id": "Djl39Tpk8rysc7Bt7uUJ2N9MjgE=", "properties": {"ref": "1007", "@spider": "lidl_uk", "addr:full": "119 Horseley Heath", "addr:city": "Great Bridge", "addr:postcode": "DY4 7AH", "addr:country": "GB", "name": "Great Bridge", "brand": "Lidl", "brand:wikidata": "Q151954"}, "geometry": {"type": "Point", "coordinates": [-2.03748, 52.53018]}},
{"type": "Feature", "id": "9Z8GnR-zAdlpds5awuiB5Bew-3Q=", "properties": {"ref": "1016", "@spider": "lidl_uk", "addr:full": "Benwell Lane", "addr:city": "Newcastle Upon Tyne", "addr:postcode": "NE15 6RS", "addr:country": "GB", "name": "Benwell", "brand": "Lidl", "brand:wikidata": "Q151954"}, "geometry": {"type": "Point", "coordinates": [-1.66259, 54.97162]}},
{"type": "Feature", "id": "jYJvm2IY0OzWIWM-5yHC_rhVE8Y=", "properties": {"ref": "1018", "@spider": "lidl_uk", "addr:full": "2, Vale of Neath Ret Pk Cadoxton Rd", "addr:city": "Neath", "addr:postcode": "SA10 7AY", "addr:country": "GB", "name": "Neath", "brand": "Lidl", "brand:wikidata": "Q151954"}, "geometry": {"type": "Point", "coordinates": [-3.80631, 51.66844]}},
{"type": "Feature", "id": "CitgRnri9c5OLDhKncsKcXrH9jk=", "properties": {"ref": "1019", "@spider": "lidl_uk", "addr:full": "2-6 Links Rd", "addr:city": "Bo'Ness", "addr:postcode": "EH51 9AW", "addr:country": "GB", "name": "Bo'ness", "brand": "Lidl", "brand:wikidata": "Q151954"}, "geometry": {"type": "Point", "coordinates": [-3.60311, 56.01718]}},
{"type": "Feature", "id": "NMSJrV6qRv6CNYpGcO70em7ysho=", "properties": {"ref": "1020", "@spider": "lidl_uk", "addr:full": "Pasteur Road", "addr:city": "Great Yarmouth", "addr:postcode": "NR31 0DW", "addr:country": "GB", "name": "Great Yarmouth", "brand": "Lidl", "brand:wikidata": "Q151954"}, "geometry": {"type": "Point", "coordinates": [1.72013, 52.60413]}},
{"type": "Feature", "id": "ZUJGDvqdJ4G0et2snTCdtG9GwqE=", "properties": {"ref": "1021", "@spider": "lidl_uk", "addr:full": "Telford Street", "addr:city": "Inverness Telford", "addr:postcode": "IV3 5LF", "addr:country": "GB", "name": "Inverness", "brand": "Lidl", "brand:wikidata": "Q151954"}, "geometry": {"type": "Point", "coordinates": [-4.2443, 57.48176]}},
{"type": "Feature", "id": "IqoU5AWImPHef6fM6dd7oa9KaaY=", "properties": {"ref": "1022", "@spider": "lidl_uk", "addr:full": "43-49 High Street", "addr:city": "London", "addr:postcode": "E17 7LD", "addr:country": "GB", "name": "Walthamstow", "brand": "Lidl", "brand:wikidata": "Q151954"}, "geometry": {"type": "Point", "coordinates": [-0.03176, 51.58258]}},
{"type": "Feature", "id": "exx66VxjRxWrNN8QYsriZoVRvWs=", "properties": {"ref": "1026", "@spider": "lidl_uk", "addr:full": "Selby Road", "addr:city": "Leeds", "addr:postcode": "LS15 0DL", "addr:country": "GB", "name": "Halton", "brand": "Lidl", "brand:wikidata": "Q151954"}, "geometry": {"type": "Point", "coordinates": [-1.47182, 53.79597]}},
{"type": "Feature", "id": "pSgrp86r2aBQbv5qQpbj5ruLjFk=", "properties": {"ref": "1028", "@spider": "lidl_uk", "addr:full": "St Helen Auckland", "addr:city": "Bishop Auckland", "addr:postcode": "DL14 9AB", "addr:country": "GB", "name": "Bishop Auckland", "brand": "Lidl", "brand:wikidata": "Q151954"}, "geometry": {"type": "Point", "coordinates": [-1.69345, 54.64149]}},
{"type": "Feature", "id": "chFjO6BVtKphlD2FK84sUmC6zjc=", "properties": {"ref": "1029", "@spider": "lidl_uk", "addr:full": "Grace House,Pavillion Shopping Cent", "addr:city": "Stockton-on-Tees", "addr:postcode": "TS17 9FF", "addr:country": "GB", "name": "Thornaby", "brand": "Lidl", "brand:wikidata": "Q151954"}, "geometry": {"type": "Point", "coordinates": [-1.29246, 54.54016]}},
{"type": "Feature", "id": "RfYlzb55owkKER2RscHsIXwHDEU=", "properties": {"ref": "1032", "@spider": "lidl_uk", "addr:full": "27 Blackhalve Lane", "addr:city": "Wolverhampton", "addr:postcode": "WV11 1BQ", "addr:country": "GB", "name": "Wolverhampton", "brand": "Lidl", "brand:wikidata": "Q151954"}, "geometry": {"type": "Point", "coordinates": [-2.09622, 52.61414]}},
{"type": "Feature", "id": "lz7ZAleLlW1A0ZeZIFFHpmAjF0k=", "properties": {"ref": "1033", "@spider": "lidl_uk", "addr:full": "301 Halesowen Road", "addr:city": "Netherton", "addr:postcode": "DY2 9NP", "addr:country": "GB", "name": "Netherton", "brand": "Lidl", "brand:wikidata": "Q151954"}, "geometry": {"type": "Point", "coordinates": [-2.07223, 52.48324]}},
{"type": "Feature", "id": "8SSVvwwIWeE5OcwvukMhU0NyAI4=", "properties": {"ref": "1034", "@spider": "lidl_uk", "addr:full": "Newark Street", "addr:city": "Port Glasgow", "addr:postcode": "PA14 5PE", "addr:country": "GB", "name": "Port Glasgow", "brand": "Lidl", "brand:wikidata": "Q151954"}, "geometry": {"type": "Point", "coordinates": [-4.67975, 55.93248]}},
{"type": "Feature", "id": "tsAWYpdR5Wc-xD7579AwOm4pZHY=", "properties": {"ref": "1036", "@spider": "lidl_uk", "addr:full": "216 Rowan Road", "addr:city": "London", "addr:postcode": "SW16 5HX", "addr:country": "GB", "name": "Mitcham", "brand": "Lidl", "brand:wikidata": "Q151954"}, "geometry": {"type": "Point", "coordinates": [-0.13993, 51.41152]}},
{"type": "Feature", "id": "mNaDIhlnE998eeZ-JmXlVH0mVQY=", "properties": {"ref": "1038", "@spider": "lidl_uk", "addr:full": "31 Shedden Park Road", "addr:city": "Kelso", "addr:postcode": "TD5 7AL", "addr:country": "GB", "name": "Kelso", "brand": "Lidl", "brand:wikidata": "Q151954"}, "geometry": {"type": "Point", "coordinates": [-2.42889, 55.59922]}},
{"type": "Feature", "id": "ddGnVc3CCytfaboxJoJ7EnRlHpE=", "properties": {"ref": "1040", "@spider": "lidl_uk", "addr:full": "Northgate Centre, Galley Hill", "addr:city": "Sleaford", "addr:postcode": "NG34 7AQ", "addr:country": "GB", "name": "Sleaford", "brand": "Lidl", "brand:wikidata": "Q151954"}, "geometry": {"type": "Point", "coordinates": [-0.41345, 53.00427]}},
{"type": "Feature", "id": "IStPgvz-uci1AehFsrKzHXnzLvI=", "properties": {"ref": "1041", "@spider": "lidl_uk", "addr:full": "Mariners Way", "addr:city": "Kettering", "addr:postcode": "NN16 8AR", "addr:country": "GB", "name": "Kettering", "brand": "Lidl", "brand:wikidata": "Q151954"}, "geometry": {"type": "Point", "coordinates": [-0.73493, 52.40075]}},
{"type": "Feature", "id": "TgUbXXwAn4AVIsXNkXqeCprF1BM=", "properties": {"ref": "1042", "@spider": "lidl_uk", "addr:full": "56-58 Nicolson Street", "addr:city": "Edinburgh", "addr:postcode": "EH8 9DT", "addr:country": "GB", "name": "Nicolson St", "brand": "Lidl", "brand:wikidata": "Q151954"}, "geometry": {"type": "Point", "coordinates": [-3.18455, 55.94556]}},
{"type": "Feature", "id": "GVGWNKBrpziKgzqyhXC3A60i6cE=", "properties": {"ref": "1046", "@spider": "lidl_uk", "addr:full": "4-10 Hening Avenue", "addr:city": "Ipswich", "addr:postcode": "IP3 9QJ", "addr:country": "GB", "name": "Ipswich", "brand": "Lidl", "brand:wikidata": "Q151954"}, "geometry": {"type": "Point", "coordinates": [1.20071, 52.03031]}},
{"type": "Feature", "id": "V6VgIkFLQ9A5reESS510G0Cd_iI=", "properties": {"ref": "1049", "@spider": "lidl_uk", "addr:full": "Stoneykirk Road", "addr:city": "Stranraer", "addr:postcode": "DG9 7BT", "addr:country": "GB", "name": "Stranraer", "brand": "Lidl", "brand:wikidata": "Q151954"}, "geometry": {"type": "Point", "coordinates": [-5.0234, 54.89769]}},
{"type": "Feature", "id": "RDeIxPlFljqhVHbSzXOzONZrcjo=", "properties": {"ref": "1050", "@spider": "lidl_uk", "addr:full": "Llanidloes Road", "addr:city": "Newtown", "addr:postcode": "SY16 1ET", "addr:country": "GB", "name": "Newtown", "brand": "Lidl", "brand:wikidata": "Q151954"}, "geometry": {"type": "Point", "coordinates": [-3.31875, 52.51032]}},
{"type": "Feature", "id": "buxZbY8aphCrZt-SAKuOvZluU9A=", "properties": {"ref": "1052", "@spider": "lidl_uk", "addr:full": "80 Ninfield Road", "addr:city": "Bexhill on Sea", "addr:postcode": "TN39 5BB", "addr:country": "GB", "name": "Bexhill", "brand": "Lidl", "brand:wikidata": "Q151954"}, "geometry": {"type": "Point", "coordinates": [0.47039, 50.8565]}},
{"type": "Feature", "id": "fbR4ZheYXB9L0VZaFKiPovFdFFU=", "properties": {"ref": "1054", "@spider": "lidl_uk", "addr:full": "Brooms Road", "addr:city": "Dumfries", "addr:postcode": "DG1 2DZ", "addr:country": "GB", "name": "Dumfries", "brand": "Lidl", "brand:wikidata": "Q151954"}, "geometry": {"type": "Point", "coordinates": [-3.60368, 55.06695]}},
{"type": "Feature", "id": "aee_SAls3GQ-IPks-cxZRj5WYXw=", "properties": {"ref": "1056", "@spider": "lidl_uk", "addr:full": "Parkeston Road", "addr:city": "Harwich", "addr:postcode": "CO12 4NX", "addr:country": "GB", "name": "Harwich", "brand": "Lidl", "brand:wikidata": "Q151954"}, "geometry": {"type": "Point", "coordinates": [1.25958, 51.93892]}},
{"type": "Feature", "id": "aNv1eXuGxVER-N94Uwhn7qYeVbc=", "properties": {"ref": "1058", "@spider": "lidl_uk", "addr:full": "30 Riverford Road", "addr:city": "Glasgow", "addr:postcode": "G43 1PX", "addr:country": "GB", "name": "Pollokshaws", "brand": "Lidl", "brand:wikidata": "Q151954"}, "geometry": {"type": "Point", "coordinates": [-4.29395, 55.82396]}},
{"type": "Feature", "id": "FNiEp6fnUji6-OWZR4BrEpE1_Y0=", "properties": {"ref": "1059", "@spider": "lidl_uk", "addr:full": "Balmoor Retail Park, Windmill Road", "addr:city": "Peterhead", "addr:postcode": "AB42 1RG", "addr:country": "GB", "name": "Peterhead", "brand": "Lidl", "brand:wikidata": "Q151954"}, "geometry": {"type": "Point", "coordinates": [-1.80587, 57.51167]}},
{"type": "Feature", "id": "bBsphDyk0JGqtDCi-RVs2QOG_Qs=", "properties": {"ref": "1060", "@spider": "lidl_uk", "addr:full": "38 High Glencairn Street", "addr:city": "Kilmarnock", "addr:postcode": "KA1 4AG", "addr:country": "GB", "name": "Kilmarnock", "brand": "Lidl", "brand:wikidata": "Q151954"}, "geometry": {"type": "Point", "coordinates": [-4.49686, 55.6018]}},
{"type": "Feature", "id": "pFPxztJ5n9koCVkdy4P4DcPiZbo=", "properties": {"ref": "1062", "@spider": "lidl_uk", "addr:full": "Lower Bristol Road", "addr:city": "Bath", "addr:postcode": "BA2 1ES", "addr:country": "GB", "name": "Bath", "brand": "Lidl", "brand:wikidata": "Q151954"}, "geometry": {"type": "Point", "coordinates": [-2.38807, 51.38121]}},
{"type": "Feature", "id": "mZ09ZlP1RaZitA-cJlnQ68r_R8c=", "properties": {"ref": "1063", "@spider": "lidl_uk", "addr:full": "306 Kensington", "addr:city": "Liverpool", "addr:postcode": "L7 2RN", "addr:country": "GB", "name": "Kensington", "brand": "Lidl", "brand:wikidata": "Q151954"}, "geometry": {"type": "Point", "coordinates": [-2.94528, 53.41208]}},
{"type": "Feature", "id": "EFCkrq4g2Ckff9gXDuObqyyqTSM=", "properties": {"ref": "1064", "@spider": "lidl_uk", "addr:full": "Manchester Road", "addr:city": "Bradford", "addr:postcode": "BD5 7QA", "addr:country": "GB", "name": "Manchester Rd", "brand": "Lidl", "brand:wikidata": "Q151954"}, "geometry": {"type": "Point", "coordinates": [-1.7592, 53.78174]}},
{"type": "Feature", "id": "dkxdhw6LlK1GU7Raf8cJ3lG8VfA=", "properties": {"ref": "1067", "@spider": "lidl_uk", "addr:full": "1b Eynsham Drive", "addr:city": "London", "addr:postcode": "SE2 9RQ", "addr:country": "GB", "name": "Abbey Wood", "brand": "Lidl", "brand:wikidata": "Q151954"}, "geometry": {"type": "Point", "coordinates": [0.11842, 51.49615]}},
{"type": "Feature", "id": "js7eCerwoPxFNMSChxK7xxrBOTU=", "properties": {"ref": "1073", "@spider": "lidl_uk", "addr:full": "Derby Rd", "addr:city": "Langley Mill", "addr:postcode": "NG16 4HY", "addr:country": "GB", "name": "Langley Mill", "brand": "Lidl", "brand:wikidata": "Q151954"}, "geometry": {"type": "Point", "coordinates": [-1.32544, 53.01878]}},
{"type": "Feature", "id": "R-4wame9vQmSP_1wqIbmbd6eA2Y=", "properties": {"ref": "1074", "@spider": "lidl_uk", "addr:full": "Cymmer Road", "addr:city": "Porth", "addr:postcode": "CF39 9BL", "addr:country": "GB", "name": "Porth", "brand": "Lidl", "brand:wikidata": "Q151954"}, "geometry": {"type": "Point", "coordinates": [-3.4172, 51.61448]}},
{"type": "Feature", "id": "y20MfdaAJScUCaFLotaR__Q4E8A=", "properties": {"ref": "1075", "@spider": "lidl_uk", "addr:full": "Worting Road", "addr:city": "Basingstoke", "addr:postcode": "RG22 6PE", "addr:country": "GB", "name": "Basingstoke", "brand": "Lidl", "brand:wikidata": "Q151954"}, "geometry": {"type": "Point", "coordinates": [-1.11869, 51.26322]}},
{"type": "Feature", "id": "MF1AeQvgLlehpVJwbjY_aqSYhY0=", "properties": {"ref": "1078", "@spider": "lidl_uk", "addr:full": "446 Blandford Road", "addr:city": "Poole", "addr:postcode": "BH16 5BL", "addr:country": "GB", "name": "Hamworthy", "brand": "Lidl", "brand:wikidata": "Q151954"}, "geometry": {"type": "Point", "coordinates": [-2.01854, 50.72823]}},
{"type": "Feature", "id": "rBeYED00nn5yK4mzB3I91D032zE=", "properties": {"ref": "1079", "@spider": "lidl_uk", "addr:full": "33 Kings Road", "addr:city": "Birmingham", "addr:postcode": "B73 5AB", "addr:country": "GB", "name": "Sutton Coldfield", "brand": "Lidl", "brand:wikidata": "Q151954"}, "geometry": {"type": "Point", "coordinates": [-1.86126, 52.54832]}},
{"type": "Feature", "id": "N1fiLdap3LFh1tmY7GygjIC-BRM=", "properties": {"ref": "1081", "@spider": "lidl_uk", "addr:full": "Aberford Road", "addr:city": "Leeds", "addr:postcode": "LS26 8HP", "addr:country": "GB", "name": "Oulton", "brand": "Lidl", "brand:wikidata": "Q151954"}, "geometry": {"type": "Point", "coordinates": [-1.44824, 53.75147]}},
{"type": "Feature", "id": "BfzP-yNgd5IC8SZwxnjTzm7QOUw=", "properties": {"ref": "1084", "@spider": "lidl_uk", "addr:full": "148 Dorchester Road", "addr:city": "Weymouth", "addr:postcode": "DT3 5EF", "addr:country": "GB", "name": "Weymouth", "brand": "Lidl", "brand:wikidata": "Q151954"}, "geometry": {"type": "Point", "coordinates": [-2.4602, 50.62849]}},
{"type": "Feature", "id": "ePo_RVMZmBy5fX8XD1VvMT6ffI0=", "properties": {"ref": "1087", "@spider": "lidl_uk", "addr:full": "71 South Road", "addr:city": "Dundee", "addr:postcode": "DD2 3EG", "addr:country": "GB", "name": "Lochee", "brand": "Lidl", "brand:wikidata": "Q151954"}, "geometry": {"type": "Point", "coordinates": [-3.01326, 56.47182]}},
{"type": "Feature", "id": "dhdSDVrIS9DMJaJlml6lmMNb3tU=", "properties": {"ref": "1090", "@spider": "lidl_uk", "addr:full": "Bordesley Green", "addr:city": "Birmingham", "addr:postcode": "B9 5LE", "addr:country": "GB", "name": "Bordesley Green", "brand": "Lidl", "brand:wikidata": "Q151954"}, "geometry": {"type": "Point", "coordinates": [-1.84943, 52.47821]}},
{"type": "Feature", "id": "yKJ8FsCBG_LwKFb29miZnSBd-fo=", "properties": {"ref": "1091", "@spider": "lidl_uk", "addr:full": "Riggs Road", "addr:city": "Perth", "addr:postcode": "PH1 1PR", "addr:country": "GB", "name": "Perth", "brand": "Lidl", "brand:wikidata": "Q151954"}, "geometry": {"type": "Point", "coordinates": [-3.44569, 56.39628]}},
{"type": "Feature", "id": "kIfKzsrwcS5wvL4lueZoELl5NWo=", "properties": {"ref": "1092", "@spider": "lidl_uk", "addr:full": "Catley Road", "addr:city": "Sheffield", "addr:postcode": "S9 5JA", "addr:country": "GB", "name": "Darnall", "brand": "Lidl", "brand:wikidata": "Q151954"}, "geometry": {"type": "Point", "coordinates": [-1.4102, 53.38779]}},
{"type": "Feature", "id": "o5fEfL_pE6jSO9Cp6i7hLd3ugW0=", "properties": {"ref": "1096", "@spider": "lidl_uk", "addr:full": "141 Woodgrange Drive", "addr:city": "Southend-On-Sea", "addr:postcode": "SS1 2SE", "addr:country": "GB", "name": "Woodgrange", "brand": "Lidl", "brand:wikidata": "Q151954"}, "geometry": {"type": "Point", "coordinates": [0.73032, 51.53529]}},
{"type": "Feature", "id": "QD8iKGwdAdWXIcH4A5g4EYXd4UM=", "properties": {"ref": "1098", "@spider": "lidl_uk", "addr:full": "7 Drum Street", "addr:city": "Edinburgh", "addr:postcode": "EH17 8QQ", "addr:country": "GB", "name": "Gilmerton", "brand": "Lidl", "brand:wikidata": "Q151954"}, "geometry": {"type": "Point", "coordinates": [-3.13218, 55.90676]}},
{"type": "Feature", "id": "UyM1DBGXwX1Uorp_1N9r79SPGtA=", "properties": {"ref": "1103", "@spider": "lidl_uk", "addr:full": "170 Halifax Road", "addr:city": "Sheffield", "addr:postcode": "S6 1LH", "addr:country": "GB", "name": "Southey Green", "brand": "Lidl", "brand:wikidata": "Q151954"}, "geometry": {"type": "Point", "coordinates": [-1.49169, 53.42359]}},
{"type": "Feature", "id": "4PnZYKL7Fo5zrF1f3NJxQv1DexY=", "properties": {"ref": "1104", "@spider": "lidl_uk", "addr:full": "Whitchurch Road", "addr:city": "Shrewsbury", "addr:postcode": "SY1 3AA", "addr:country": "GB", "name": "Shrewsbury", "brand": "Lidl", "brand:wikidata": "Q151954"}, "geometry": {"type": "Point", "coordinates": [-2.72567, 52.73697]}},
{"type": "Feature", "id": "aLilvcY8yhzs9zgsZs7KzDs21-A=", "properties": {"ref": "1106", "@spider": "lidl_uk", "addr:full": "Somborne Drive", "addr:city": "Havant", "addr:postcode": "PO9 5AN", "addr:country": "GB", "name": "Leigh Park", "brand": "Lidl", "brand:wikidata": "Q151954"}, "geometry": {"type": "Point", "coordinates": [-0.98282, 50.86677]}},
{"type": "Feature", "id": "cDw1iyivj4bkwi0ehZKVEnRhDCw=", "properties": {"ref": "1110", "@spider": "lidl_uk", "addr:full": "Commercial Road", "addr:city": "Dewsbury", "addr:postcode": "WF13 2BD", "addr:country": "GB", "name": "Dewsbury", "brand": "Lidl", "brand:wikidata": "Q151954"}, "geometry": {"type": "Point", "coordinates": [-1.63189, 53.69462]}},
{"type": "Feature", "id": "xxXb-OKIYG_FHll9ERnmb1tiq6I=", "properties": {"ref": "1111", "@spider": "lidl_uk", "addr:full": "109 Balmore Road", "addr:city": "Glasgow", "addr:postcode": "G22 6AR", "addr:country": "GB", "name": "Balmore Road", "brand": "Lidl", "brand:wikidata": "Q151954"}, "geometry": {"type": "Point", "coordinates": [-4.2577, 55.88529]}},
{"type": "Feature", "id": "FuA449Bb4Uw4xa9LYmy_A2PeePI=", "properties": {"ref": "1112", "@spider": "lidl_uk", "addr:full": "Morangie Road", "addr:city": "Tain", "addr:postcode": "IV19 1PY", "addr:country": "GB", "name": "Tain", "brand": "Lidl", "brand:wikidata": "Q151954"}, "geometry": {"type": "Point", "coordinates": [-4.06597, 57.81686]}},
{"type": "Feature", "id": "t5F8LL5_hgkxmaclNE7_pylJ6qw=", "properties": {"ref": "1113", "@spider": "lidl_uk", "addr:full": "Gravesend", "addr:city": "Arbroath", "addr:postcode": "DD11 1HT", "addr:country": "GB", "name": "Arbroath", "brand": "Lidl", "brand:wikidata": "Q151954"}, "geometry": {"type": "Point", "coordinates": [-2.58394, 56.55957]}},
{"type": "Feature", "id": "dQoe3iWiz50Ghn7pZINLGs5bI54=", "properties": {"ref": "1114", "@spider": "lidl_uk", "addr:full": "Unit 2, Great Northern Way", "addr:city": "Netherfield", "addr:postcode": "NG4 2HD", "addr:country": "GB", "name": "Netherfield", "brand": "Lidl", "brand:wikidata": "Q151954"}, "geometry": {"type": "Point", "coordinates": [-1.06924, 52.96208]}},
{"type": "Feature", "id": "2W1mRKUuYqcAsKjWQr0BnZNdrdk=", "properties": {"ref": "1116", "@spider": "lidl_uk", "addr:full": "St James Avenue", "addr:city": "East Kilbride", "addr:postcode": "G74 5QD", "addr:country": "GB", "name": "East Kilbride", "brand": "Lidl", "brand:wikidata": "Q151954"}, "geometry": {"type": "Point", "coordinates": [-4.22684, 55.7603]}},
{"type": "Feature", "id": "XPqOLdteongC2MNBQEV98yaS1rc=", "properties": {"ref": "1117", "@spider": "lidl_uk", "addr:full": "2-4 Langer Road", "addr:city": "Felixstowe", "addr:postcode": "IP11 2BU", "addr:country": "GB", "name": "Felixstowe", "brand": "Lidl", "brand:wikidata": "Q151954"}, "geometry": {"type": "Point", "coordinates": [1.34062, 51.9581]}},
{"type": "Feature", "id": "OGbo6P3orwcXPlsGN0ynURHr8FE=", "properties": {"ref": "1119", "@spider": "lidl_uk", "addr:full": "257 Yarm Road", "addr:city": "Darlington", "addr:postcode": "DL1 1BA", "addr:country": "GB", "name": "Darlington", "brand": "Lidl", "brand:wikidata": "Q151954"}, "geometry": {"type": "Point", "coordinates": [-1.52491, 54.52253]}},
{"type": "Feature", "id": "yD6BN6lRy1Ap62zAtPdLGPLMcVg=", "properties": {"ref": "1124", "@spider": "lidl_uk", "addr:full": "189 Clapham Road", "addr:city": "London", "addr:postcode": "SW9 0QE", "addr:country": "GB", "name": "Stockwell", "brand": "Lidl", "brand:wikidata": "Q151954"}, "geometry": {"type": "Point", "coordinates": [-0.12081, 51.47366]}},
{"type": "Feature", "id": "raL9VYW4ujmOF9mVDjkOZF_MxYI=", "properties": {"ref": "1127", "@spider": "lidl_uk", "addr:full": "Wellington Road", "addr:city": "Seaforth", "addr:postcode": "L21 6PD", "addr:country": "GB", "name": "Seaforth", "brand": "Lidl", "brand:wikidata": "Q151954"}, "geometry": {"type": "Point", "coordinates": [-3.00437, 53.46644]}},
{"type": "Feature", "id": "5zQWKgVl8uW2vdfIAAn8XrClw1I=", "properties": {"ref": "1128", "@spider": "lidl_uk", "addr:full": "69 Wollaton Road", "addr:city": "Beeston", "addr:postcode": "NG9 2NG", "addr:country": "GB", "name": "Beeston", "brand": "Lidl", "brand:wikidata": "Q151954"}, "geometry": {"type": "Point", "coordinates": [-1.21854, 52.92951]}},
{"type": "Feature", "id": "pdIP6IPb4EPJ6PmKlHGFUBGrkOg=", "properties": {"ref": "1129", "@spider": "lidl_uk", "addr:full": "Mill Street", "addr:city": "Driffield", "addr:postcode": "YO25 6TN", "addr:country": "GB", "name": "Driffield", "brand": "Lidl", "brand:wikidata": "Q151954"}, "geometry": {"type": "Point", "coordinates": [-0.44191, 54.00594]}},
{"type": "Feature", "id": "7SD9F_9g3ri1BwXYJbB3y5DQ1D0=", "properties": {"ref": "113", "@spider": "lidl_uk", "addr:full": "Woodside Road", "addr:city": "Cwmbran", "addr:postcode": "NP44 3EW", "addr:country": "GB", "name": "Cwmbran", "brand": "Lidl", "brand:wikidata": "Q151954"}, "geometry": {"type": "Point", "coordinates": [-3.02545, 51.65458]}},
{"type": "Feature", "id": "D_GlFp5WyZB_boUJOdTUNzmUC6Y=", "properties": {"ref": "1132", "@spider": "lidl_uk", "addr:full": "35 Newkirkgate", "addr:city": "Edinburgh", "addr:postcode": "EH6 6AA", "addr:country": "GB", "name": "Leith", "brand": "Lidl", "brand:wikidata": "Q151954"}, "geometry": {"type": "Point", "coordinates": [-3.17299, 55.9719]}},
{"type": "Feature", "id": "V3PJDRXIAu4VPDONE9KFruFriXs=", "properties": {"ref": "1135", "@spider": "lidl_uk", "addr:full": "New Road", "addr:city": "Willenhall", "addr:postcode": "WV13 2BU", "addr:country": "GB", "name": "Willenhall", "brand": "Lidl", "brand:wikidata": "Q151954"}, "geometry": {"type": "Point", "coordinates": [-2.05699, 52.58278]}},
{"type": "Feature", "id": "A_j_2Sfa-Ar-zVSBcwDzQy-tVKg=", "properties": {"ref": "1136", "@spider": "lidl_uk", "addr:full": "Rayne Road", "addr:city": "Braintree", "addr:postcode": "CM7 2QS", "addr:country": "GB", "name": "Braintree", "brand": "Lidl", "brand:wikidata": "Q151954"}, "geometry": {"type": "Point", "coordinates": [0.53737, 51.87856]}},
{"type": "Feature", "id": "I7rdMnWfItIBk7cxpPkMwnGeUN4=", "properties": {"ref": "1138", "@spider": "lidl_uk", "addr:full": "807-829 Longbridge Road", "addr:city": "Greater London", "addr:postcode": "RM8 2DB", "addr:country": "GB", "name": "Dagenham", "brand": "Lidl", "brand:wikidata": "Q151954"}, "geometry": {"type": "Point", "coordinates": [0.11297, 51.55193]}},
{"type": "Feature", "id": "oKTeU7eaVVf02LVd8W6RBlhlc24=", "properties": {"ref": "1144", "@spider": "lidl_uk", "addr:full": "Newhailes Road", "addr:city": "Musselburgh", "addr:postcode": "EH21 6QD", "addr:country": "GB", "name": "Musselburgh", "brand": "Lidl", "brand:wikidata": "Q151954"}, "geometry": {"type": "Point", "coordinates": [-3.06759, 55.94342]}},
{"type": "Feature", "id": "Q2XuxNKGqnqrjIktqDxaje4AvEw=", "properties": {"ref": "1145", "@spider": "lidl_uk", "addr:full": "3-4 Wilmslow Park, Wilmslow Rd.", "addr:city": "Rusholme", "addr:postcode": "M13 9PD", "addr:country": "GB", "name": "Rusholme", "brand": "Lidl", "brand:wikidata": "Q151954"}, "geometry": {"type": "Point", "coordinates": [-2.22732, 53.45883]}},
{"type": "Feature", "id": "MzV7b1u_seQBtRUHqjJhiNT7sjE=", "properties": {"ref": "1146", "@spider": "lidl_uk", "addr:full": "Councillor Lane", "addr:city": "Stockport", "addr:postcode": "SK8 5NU", "addr:country": "GB", "name": "Cheadle", "brand": "Lidl", "brand:wikidata": "Q151954"}, "geometry": {"type": "Point", "coordinates": [-2.18541, 53.38736]}},
{"type": "Feature", "id": "qdjQ7LkSU-mlh0tFPhk6hF7FrAs=", "properties": {"ref": "1147", "@spider": "lidl_uk", "addr:full": "Pengam Road", "addr:city": "Hengoed", "addr:postcode": "CF82 8AA", "addr:country": "GB", "name": "Ystrad Mynach", "brand": "Lidl", "brand:wikidata": "Q151954"}, "geometry": {"type": "Point", "coordinates": [-3.23334, 51.64208]}},
{"type": "Feature", "id": "LGt6qgtwP1FEB5C6-OAto8Tqa5s=", "properties": {"ref": "1148", "@spider": "lidl_uk", "addr:full": "Cecil Road", "addr:city": "London", "addr:postcode": "EN2 6TR", "addr:country": "GB", "name": "Enfield Town", "brand": "Lidl", "brand:wikidata": "Q151954"}, "geometry": {"type": "Point", "coordinates": [-0.08115, 51.65055]}},
{"type": "Feature", "id": "3jr0IvOUEsCjiYe89dRNvYbNTxs=", "properties": {"ref": "1150", "@spider": "lidl_uk", "addr:full": "Battle Hill Drive", "addr:city": "Wallsend", "addr:postcode": "NE28 9EN", "addr:country": "GB", "name": "Battle Hill", "brand": "Lidl", "brand:wikidata": "Q151954"}, "geometry": {"type": "Point", "coordinates": [-1.51945, 55.00579]}},
{"type": "Feature", "id": "QVTaCpAqLPgrr9hNpoQ23SQhVmQ=", "properties": {"ref": "1151", "@spider": "lidl_uk", "addr:full": "Parkside House, Oldbury Road", "addr:city": "Blackheath", "addr:postcode": "B65 0LG", "addr:country": "GB", "name": "Blackheath", "brand": "Lidl", "brand:wikidata": "Q151954"}, "geometry": {"type": "Point", "coordinates": [-2.03631, 52.47617]}},
{"type": "Feature", "id": "7ls-ly0MGX2BhvEJahVJgcmqoow=", "properties": {"ref": "1152", "@spider": "lidl_uk", "addr:full": "151 Colne Road", "addr:city": "Burnley", "addr:postcode": "BB10 1EH", "addr:country": "GB", "name": "Burnley", "brand": "Lidl", "brand:wikidata": "Q151954"}, "geometry": {"type": "Point", "coordinates": [-2.23454, 53.80379]}},
{"type": "Feature", "id": "Arl94gD4fa2H7qehnwSKAXLf2cI=", "properties": {"ref": "1155", "@spider": "lidl_uk", "addr:full": "Wakefield Road", "addr:city": "Huddersfield", "addr:postcode": "HD1 3PD", "addr:country": "GB", "name": "Wakefield Road", "brand": "Lidl", "brand:wikidata": "Q151954"}, "geometry": {"type": "Point", "coordinates": [-1.76976, 53.64264]}},
{"type": "Feature", "id": "cHOsMiYDHnzx-VZImm_f3md64_E=", "properties": {"ref": "1157", "@spider": "lidl_uk", "addr:full": "10 East Cathcart Street", "addr:city": "Buckie", "addr:postcode": "AB56 1PJ", "addr:country": "GB", "name": "Buckie", "brand": "Lidl", "brand:wikidata": "Q151954"}, "geometry": {"type": "Point", "coordinates": [-2.96115, 57.67594]}},
{"type": "Feature", "id": "4tAr2s8rSUznjsTGs8B0Lcn66us=", "properties": {"ref": "1158", "@spider": "lidl_uk", "addr:full": "Tulloch Street", "addr:city": "Dingwall", "addr:postcode": "IV15 9JZ", "addr:country": "GB", "name": "Dingwall", "brand": "Lidl", "brand:wikidata": "Q151954"}, "geometry": {"type": "Point", "coordinates": [-4.4267, 57.5968]}},
{"type": "Feature", "id": "7puxoQgAR3c2EVIgzJki_9E0gow=", "properties": {"ref": "1160", "@spider": "lidl_uk", "addr:full": "Jardine Way", "addr:city": "Oldham", "addr:postcode": "OL9 9QL", "addr:country": "GB", "name": "Chadderton", "brand": "Lidl", "brand:wikidata": "Q151954"}, "geometry": {"type": "Point", "coordinates": [-2.15441, 53.5321]}},
{"type": "Feature", "id": "EPFSBuWaSp4VvZ_RrkasqKaKCO0=", "properties": {"ref": "1161", "@spider": "lidl_uk", "addr:full": "Old Church Street", "addr:city": "Newton Heath", "addr:postcode": "M40 2JE", "addr:country": "GB", "name": "Newton Heath", "brand": "Lidl", "brand:wikidata": "Q151954"}, "geometry": {"type": "Point", "coordinates": [-2.18207, 53.502]}},
{"type": "Feature", "id": "5toxn_I1GA3tCGTv1S5RD3G_8YQ=", "properties": {"ref": "1162", "@spider": "lidl_uk", "addr:full": "Pickaquoy Road", "addr:city": "Kirkwall", "addr:postcode": "KW15 1RP", "addr:country": "GB", "name": "Kirkwall", "brand": "Lidl", "brand:wikidata": "Q151954"}, "geometry": {"type": "Point", "coordinates": [-2.96529, 58.98043]}},
{"type": "Feature", "id": "57eSB_p9rzuytY6zVWbH3IUM07o=", "properties": {"ref": "1163", "@spider": "lidl_uk", "addr:full": "Station Road", "addr:city": "Cupar", "addr:postcode": "KY15 5HB", "addr:country": "GB", "name": "Cupar", "brand": "Lidl", "brand:wikidata": "Q151954"}, "geometry": {"type": "Point", "coordinates": [-3.00888, 56.3181]}},
{"type": "Feature", "id": "ENoI6Vt7f817MCikfxGOnvL41PU=", "properties": {"ref": "117", "@spider": "lidl_uk", "addr:full": "Old Market Retail Park, High Road", "addr:city": "Pitsea", "addr:postcode": "SS13 3AB", "addr:country": "GB", "name": "Pitsea", "brand": "Lidl", "brand:wikidata": "Q151954"}, "geometry": {"type": "Point", "coordinates": [0.50597, 51.56466]}},
{"type": "Feature", "id": "LjdYQVmUEI8nGYNeaccj6vvQHvw=", "properties": {"ref": "1172", "@spider": "lidl_uk", "addr:full": "Southgate Road", "addr:city": "Wincanton", "addr:postcode": "BA9 9EB", "addr:country": "GB", "name": "Wincanton", "brand": "Lidl", "brand:wikidata": "Q151954"}, "geometry": {"type": "Point", "coordinates": [-2.41651, 51.05037]}},
{"type": "Feature", "id": "PquxZlvSpdR7H7lunkzRyWmMm3k=", "properties": {"ref": "1173", "@spider": "lidl_uk", "addr:full": "Falmouth Road", "addr:city": "Falmouth", "addr:postcode": "TR10 8AB", "addr:country": "GB", "name": "Penryn", "brand": "Lidl", "brand:wikidata": "Q151954"}, "geometry": {"type": "Point", "coordinates": [-5.09149, 50.16589]}},
{"type": "Feature", "id": "sd2E1-XmaDInSUTnNvxvxtxgANQ=", "properties": {"ref": "1174", "@spider": "lidl_uk", "addr:full": "Cartersfield Road", "addr:city": "Waltham Abbey", "addr:postcode": "EN9 1JD", "addr:country": "GB", "name": "Waltham Abbey", "brand": "Lidl", "brand:wikidata": "Q151954"}, "geometry": {"type": "Point", "coordinates": [0.00155, 51.68303]}},
{"type": "Feature", "id": "NNF7p8zwQ1LGyV-l9DhYWWEE-j0=", "properties": {"ref": "1176", "@spider": "lidl_uk", "addr:full": "South Road", "addr:city": "Alnwick", "addr:postcode": "NE66 2QL", "addr:country": "GB", "name": "Alnwick", "brand": "Lidl", "brand:wikidata": "Q151954"}, "geometry": {"type": "Point", "coordinates": [-1.69717, 55.41002]}},
{"type": "Feature", "id": "GyhiAhxeBanMXfqwLedgt9j0VHk=", "properties": {"ref": "1177", "@spider": "lidl_uk", "addr:full": "48 Thornborough Road", "addr:city": "Coalville", "addr:postcode": "LE67 3TH", "addr:country": "GB", "name": "Coalville", "brand": "Lidl", "brand:wikidata": "Q151954"}, "geometry": {"type": "Point", "coordinates": [-1.37403, 52.73191]}},
{"type": "Feature", "id": "1OVynacie95ZNJs5BO61LFhdN7o=", "properties": {"ref": "1179", "@spider": "lidl_uk", "addr:full": "1 Hermitage Lane", "addr:city": "London", "addr:postcode": "SW16 3LH", "addr:country": "GB", "name": "Norbury", "brand": "Lidl", "brand:wikidata": "Q151954"}, "geometry": {"type": "Point", "coordinates": [-0.12352, 51.41455]}},
{"type": "Feature", "id": "LFnF7WO8hZvzy-el0y1vf_of-G0=", "properties": {"ref": "1184", "@spider": "lidl_uk", "addr:full": "18 West Road", "addr:city": "Forres", "addr:postcode": "IV36 2GW", "addr:country": "GB", "name": "Forres", "brand": "Lidl", "brand:wikidata": "Q151954"}, "geometry": {"type": "Point", "coordinates": [-3.63083, 57.60784]}},
{"type": "Feature", "id": "RXcfPywEv4-2TbT6a2oVyO6dluo=", "properties": {"ref": "1185", "@spider": "lidl_uk", "addr:full": "Ashworth Street", "addr:city": "Denton", "addr:postcode": "M34 3LJ", "addr:country": "GB", "name": "Denton", "brand": "Lidl", "brand:wikidata": "Q151954"}, "geometry": {"type": "Point", "coordinates": [-2.1156, 53.45697]}},
{"type": "Feature", "id": "VSHcF_zCYDaGLpVLV_RmM58CAeY=", "properties": {"ref": "1186", "@spider": "lidl_uk", "addr:full": "Kingsway", "addr:city": "Ossett", "addr:postcode": "WF5 8DA", "addr:country": "GB", "name": "Ossett", "brand": "Lidl", "brand:wikidata": "Q151954"}, "geometry": {"type": "Point", "coordinates": [-1.58139, 53.68062]}},
{"type": "Feature", "id": "lQ1PJ61ZH0ZuVAfwhRZ4wPaXPm8=", "properties": {"ref": "1187", "@spider": "lidl_uk", "addr:full": "Gravenchon Way", "addr:city": "Street", "addr:postcode": "BA16 0HW", "addr:country": "GB", "name": "Street", "brand": "Lidl", "brand:wikidata": "Q151954"}, "geometry": {"type": "Point", "coordinates": [-2.75565, 51.12636]}},
{"type": "Feature", "id": "1wi858rwskfWZsP21SILUJtSUZQ=", "properties": {"ref": "1194", "@spider": "lidl_uk", "addr:full": "Westgate", "addr:city": "Morecambe", "addr:postcode": "LA3 3PL", "addr:country": "GB", "name": "Morecambe", "brand": "Lidl", "brand:wikidata": "Q151954"}, "geometry": {"type": "Point", "coordinates": [-2.85288, 54.06107]}},
{"type": "Feature", "id": "39qs2-7rAxT7w2KFb1TmBBdcXiI=", "properties": {"ref": "1199", "@spider": "lidl_uk", "addr:full": "Old Station Road", "addr:city": "Barnstaple", "addr:postcode": "EX32 8PB", "addr:country": "GB", "name": "Newport", "brand": "Lidl", "brand:wikidata": "Q151954"}, "geometry": {"type": "Point", "coordinates": [-4.04527, 51.07511]}},
{"type": "Feature", "id": "1U7WY9njcQ8W77XqZspdPfs93I8=", "properties": {"ref": "1200", "@spider": "lidl_uk", "addr:full": "269-271 Seven Sisters Road", "addr:city": "London", "addr:postcode": "N4 2DE", "addr:country": "GB", "name": "Finsbury Park", "brand": "Lidl", "brand:wikidata": "Q151954"}, "geometry": {"type": "Point", "coordinates": [-0.10431, 51.56499]}},
{"type": "Feature", "id": "O2QP-mgjpHvlg1n-2UbwoAo_ark=", "properties": {"ref": "1203", "@spider": "lidl_uk", "addr:full": "Unit 1, Bridgend Retail Park", "addr:city": "Bridgend", "addr:postcode": "CF31 3LG", "addr:country": "GB", "name": "Bridgend", "brand": "Lidl", "brand:wikidata": "Q151954"}, "geometry": {"type": "Point", "coordinates": [-3.56526, 51.49627]}},
{"type": "Feature", "id": "o2kaQCp5rNWWmfxzIXvv9-lVZRI=", "properties": {"ref": "1204", "@spider": "lidl_uk", "addr:full": "Redbrook Road", "addr:city": "Monmouth", "addr:postcode": "NP25 3LY", "addr:country": "GB", "name": "Monmouth", "brand": "Lidl", "brand:wikidata": "Q151954"}, "geometry": {"type": "Point", "coordinates": [-2.70701, 51.80968]}},
{"type": "Feature", "id": "I_gI4Bl_R2u68IOTzeUYHxScSf8=", "properties": {"ref": "1208", "@spider": "lidl_uk", "addr:full": "5 Beddau Way, off Nantgarw Road", "addr:city": "Caerphilly", "addr:postcode": "CF83 2AX", "addr:country": "GB", "name": "Caerphilly", "brand": "Lidl", "brand:wikidata": "Q151954"}, "geometry": {"type": "Point", "coordinates": [-3.24522, 51.5713]}},
{"type": "Feature", "id": "qCJTZW2bPg-03KHZGUNBKTLw03g=", "properties": {"ref": "1210", "@spider": "lidl_uk", "addr:full": "290 Marsh Lane", "addr:city": "Bootle", "addr:postcode": "L20 5BQ", "addr:country": "GB", "name": "Bootle", "brand": "Lidl", "brand:wikidata": "Q151954"}, "geometry": {"type": "Point", "coordinates": [-2.99051, 53.45474]}},
{"type": "Feature", "id": "wOlo95-f8nXNXyZ848DeQJ-8AfY=", "properties": {"ref": "1213", "@spider": "lidl_uk", "addr:full": "Wolseley Road", "addr:city": "Plymouth", "addr:postcode": "PL5 1UD", "addr:country": "GB", "name": "St Budeaux", "brand": "Lidl", "brand:wikidata": "Q151954"}, "geometry": {"type": "Point", "coordinates": [-4.18535, 50.40126]}},
{"type": "Feature", "id": "Gov6iesQ7t19akVnOkXmEP-3sS0=", "properties": {"ref": "1215", "@spider": "lidl_uk", "addr:full": "1 Henderson Place", "addr:city": "Plymouth", "addr:postcode": "PL2 3BW", "addr:country": "GB", "name": "North Prospect", "brand": "Lidl", "brand:wikidata": "Q151954"}, "geometry": {"type": "Point", "coordinates": [-4.16723, 50.38877]}},
{"type": "Feature", "id": "-EEfDXJEZ4WPyu4uh6dMjMJ986U=", "properties": {"ref": "1217", "@spider": "lidl_uk", "addr:full": "469 - 479 Nottingham Road", "addr:city": "Derby", "addr:postcode": "DE21 6NA", "addr:country": "GB", "name": "Chaddesden", "brand": "Lidl", "brand:wikidata": "Q151954"}, "geometry": {"type": "Point", "coordinates": [-1.44101, 52.92542]}},
{"type": "Feature", "id": "xi_EtFlQxVhNQKxDfhaJ1drET2s=", "properties": {"ref": "1218", "@spider": "lidl_uk", "addr:full": "New Hall Lane", "addr:city": "Preston", "addr:postcode": "PR1 4DT", "addr:country": "GB", "name": "New Hall Lane", "brand": "Lidl", "brand:wikidata": "Q151954"}, "geometry": {"type": "Point", "coordinates": [-2.68431, 53.76105]}},
{"type": "Feature", "id": "3pcvjXdRjZwoVjUvYrGnjR9KH1U=", "properties": {"ref": "122", "@spider": "lidl_uk", "addr:full": "4 Anchorsholme Lane West", "addr:city": "Cleveleys", "addr:postcode": "FY5 1LY", "addr:country": "GB", "name": "Cleveleys", "brand": "Lidl", "brand:wikidata": "Q151954"}, "geometry": {"type": "Point", "coordinates": [-3.04376, 53.87216]}},
{"type": "Feature", "id": "8-td9PZYU8g-ZT5PPRhm2ubRQnc=", "properties": {"ref": "1220", "@spider": "lidl_uk", "addr:full": "164-172 Derby Street", "addr:city": "Bolton", "addr:postcode": "BL3 6JR", "addr:country": "GB", "name": "Bolton Central", "brand": "Lidl", "brand:wikidata": "Q151954"}, "geometry": {"type": "Point", "coordinates": [-2.43931, 53.57024]}},
{"type": "Feature", "id": "2Odhladl_SXj9A6KCooDSV3SZh0=", "properties": {"ref": "1221", "@spider": "lidl_uk", "addr:full": "299 Union Street", "addr:city": "Plymouth", "addr:postcode": "PL1 3FA", "addr:country": "GB", "name": "Plymouth", "brand": "Lidl", "brand:wikidata": "Q151954"}, "geometry": {"type": "Point", "coordinates": [-4.15902, 50.36946]}},
{"type": "Feature", "id": "1oDp2vBtWLOW1ZYqx9sPCa0XJT0=", "properties": {"ref": "1223", "@spider": "lidl_uk", "addr:full": "Bypass Road", "addr:city": "Mexborough", "addr:postcode": "S64 9HU", "addr:country": "GB", "name": "Mexborough", "brand": "Lidl", "brand:wikidata": "Q151954"}, "geometry": {"type": "Point", "coordinates": [-1.29482, 53.49266]}},
{"type": "Feature", "id": "ghK-kN7L4ga0CyT7rq6MR5hfm7Q=", "properties": {"ref": "1225", "@spider": "lidl_uk", "addr:full": "Carr House Road", "addr:city": "Halifax", "addr:postcode": "HX3 7QY", "addr:country": "GB", "name": "Shelf", "brand": "Lidl", "brand:wikidata": "Q151954"}, "geometry": {"type": "Point", "coordinates": [-1.80268, 53.75758]}},
{"type": "Feature", "id": "7W7QsgbiPq649JhVDcj5ORl6jrc=", "properties": {"ref": "1226", "@spider": "lidl_uk", "addr:full": "Camanachd Crescent", "addr:city": "Fort William", "addr:postcode": "PH33 6XZ", "addr:country": "GB", "name": "Fort William", "brand": "Lidl", "brand:wikidata": "Q151954"}, "geometry": {"type": "Point", "coordinates": [-5.10084, 56.82224]}},
{"type": "Feature", "id": "GMP3ZCCHy6lQYQidtQlKd147xSY=", "properties": {"ref": "1228", "@spider": "lidl_uk", "addr:full": "1 Lochrin Street", "addr:city": "Coatbridge", "addr:postcode": "ML5 4FQ", "addr:country": "GB", "name": "Coatbridge", "brand": "Lidl", "brand:wikidata": "Q151954"}, "geometry": {"type": "Point", "coordinates": [-4.02102, 55.85398]}},
{"type": "Feature", "id": "-pfMqLFIETcznyO6KGXo3jBLbO4=", "properties": {"ref": "1231", "@spider": "lidl_uk", "addr:full": "Myton Road", "addr:city": "Leamington Spa", "addr:postcode": "CV31 3NY", "addr:country": "GB", "name": "Leamington Spa", "brand": "Lidl", "brand:wikidata": "Q151954"}, "geometry": {"type": "Point", "coordinates": [-1.55172, 52.28275]}},
{"type": "Feature", "id": "k4dfZuB4g41OMZRcN2b3mZJTrrE=", "properties": {"ref": "1233", "@spider": "lidl_uk", "addr:full": "Upper Conran Street", "addr:city": "Harpurhey", "addr:postcode": "M9 4DA", "addr:country": "GB", "name": "Harpurhey", "brand": "Lidl", "brand:wikidata": "Q151954"}, "geometry": {"type": "Point", "coordinates": [-2.20987, 53.5115]}},
{"type": "Feature", "id": "sYwyGA6qZw42b1pRbMdod4BTKZ4=", "properties": {"ref": "1234", "@spider": "lidl_uk", "addr:full": "Usk Way", "addr:city": "Newport", "addr:postcode": "NP20 2AE", "addr:country": "GB", "name": "Newport", "brand": "Lidl", "brand:wikidata": "Q151954"}, "geometry": {"type": "Point", "coordinates": [-2.98868, 51.58424]}},
{"type": "Feature", "id": "b_0IZWPIl9GhhFbPQxsgX5osSIs=", "properties": {"ref": "1235", "@spider": "lidl_uk", "addr:full": "Cromwell Road", "addr:city": "Wisbech", "addr:postcode": "PE14 0RG", "addr:country": "GB", "name": "Wisbech", "brand": "Lidl", "brand:wikidata": "Q151954"}, "geometry": {"type": "Point", "coordinates": [0.14735, 52.6541]}},
{"type": "Feature", "id": "s-4EuW3L8SIfYZCCqMeVyWNLr5k=", "properties": {"ref": "1237", "@spider": "lidl_uk", "addr:full": "Finchfield Hill", "addr:city": "Wolverhampton", "addr:postcode": "WV3 9EN", "addr:country": "GB", "name": "Finchfield", "brand": "Lidl", "brand:wikidata": "Q151954"}, "geometry": {"type": "Point", "coordinates": [-2.17253, 52.5808]}},
{"type": "Feature", "id": "-j5IcNkNbjZcjOOPp6Lfz5g5j74=", "properties": {"ref": "1239", "@spider": "lidl_uk", "addr:full": "Townstal Road", "addr:city": "Dartmouth", "addr:postcode": "TQ6 9LW", "addr:country": "GB", "name": "Dartmouth", "brand": "Lidl", "brand:wikidata": "Q151954"}, "geometry": {"type": "Point", "coordinates": [-3.60115, 50.34769]}},
{"type": "Feature", "id": "dMFvVD4r_xMV0srqTzZTvz1alJk=", "properties": {"ref": "1240", "@spider": "lidl_uk", "addr:full": "Penzance Road", "addr:city": "Helston", "addr:postcode": "TR13 0SF", "addr:country": "GB", "name": "Helston", "brand": "Lidl", "brand:wikidata": "Q151954"}, "geometry": {"type": "Point", "coordinates": [-5.28, 50.10019]}},
{"type": "Feature", "id": "L5qCFJYJ6SlP-h7FKosHwEDdbr8=", "properties": {"ref": "1242", "@spider": "lidl_uk", "addr:full": "118 Gipsy Lane", "addr:city": "Leicester", "addr:postcode": "LE4 6RG", "addr:country": "GB", "name": "Leicester", "brand": "Lidl", "brand:wikidata": "Q151954"}, "geometry": {"type": "Point", "coordinates": [-1.10507, 52.65448]}},
{"type": "Feature", "id": "ey4FZ45JB058-F_Nxjs8gjgKTmo=", "properties": {"ref": "1243", "@spider": "lidl_uk", "addr:full": "Derby Street", "addr:city": "Burton-on-Trent", "addr:postcode": "DE14 2LJ", "addr:country": "GB", "name": "Burton", "brand": "Lidl", "brand:wikidata": "Q151954"}, "geometry": {"type": "Point", "coordinates": [-1.64188, 52.80807]}},
{"type": "Feature", "id": "7WHcsqORsuIPBGNEXpxl3l3em3E=", "properties": {"ref": "1244", "@spider": "lidl_uk", "addr:full": "397 Soho Road", "addr:city": "Birmingham", "addr:postcode": "B21 9SF", "addr:country": "GB", "name": "Handsworth", "brand": "Lidl", "brand:wikidata": "Q151954"}, "geometry": {"type": "Point", "coordinates": [-1.94174, 52.5042]}},
{"type": "Feature", "id": "L_YpLRmYqQ185AA7rRfi6Nf2ODA=", "properties": {"ref": "1245", "@spider": "lidl_uk", "addr:full": "1270 Ashton Old Road", "addr:city": "Openshaw", "addr:postcode": "M11 1JJ", "addr:country": "GB", "name": "Openshaw", "brand": "Lidl", "brand:wikidata": "Q151954"}, "geometry": {"type": "Point", "coordinates": [-2.16665, 53.47296]}},
{"type": "Feature", "id": "LK-BQLfQUz-WG2MBf65k25v-5E8=", "properties": {"ref": "1246", "@spider": "lidl_uk", "addr:full": "Boothen Park, London Road", "addr:city": "Stoke on Trent", "addr:postcode": "ST4 7SG", "addr:country": "GB", "name": "London Road", "brand": "Lidl", "brand:wikidata": "Q151954"}, "geometry": {"type": "Point", "coordinates": [-2.18763, 53.00093]}},
{"type": "Feature", "id": "hERBG37y67eIxGyUAp27Rg8hRpY=", "properties": {"ref": "1247", "@spider": "lidl_uk", "addr:full": "High Street", "addr:city": "Stoke on Trent", "addr:postcode": "ST6 5EG", "addr:country": "GB", "name": "Tunstall", "brand": "Lidl", "brand:wikidata": "Q151954"}, "geometry": {"type": "Point", "coordinates": [-2.21209, 53.06316]}},
{"type": "Feature", "id": "aQ5bgzw4asOCvTYwrACsFIHe9Us=", "properties": {"ref": "1248", "@spider": "lidl_uk", "addr:full": "Barkerend Road", "addr:city": "Bradford", "addr:postcode": "BD3 9BN", "addr:country": "GB", "name": "Barkerend Road", "brand": "Lidl", "brand:wikidata": "Q151954"}, "geometry": {"type": "Point", "coordinates": [-1.73548, 53.7966]}},
{"type": "Feature", "id": "WOlqGVfMc5TU9acbjzgUydt_GTw=", "properties": {"ref": "1249", "@spider": "lidl_uk", "addr:full": "Coleshill Street", "addr:city": "Holywell", "addr:postcode": "CH8 7UP", "addr:country": "GB", "name": "Holywell", "brand": "Lidl", "brand:wikidata": "Q151954"}, "geometry": {"type": "Point", "coordinates": [-3.21841, 53.27301]}},
{"type": "Feature", "id": "Tbz2uKEMAFeA-MqdT2M3bTU1TXQ=", "properties": {"ref": "1250", "@spider": "lidl_uk", "addr:full": "78 Hagley Road", "addr:city": "Halesowen", "addr:postcode": "B63 4RH", "addr:country": "GB", "name": "Halesowen", "brand": "Lidl", "brand:wikidata": "Q151954"}, "geometry": {"type": "Point", "coordinates": [-2.05437, 52.4467]}},
{"type": "Feature", "id": "kzjyvtlqkvg3kLWoRbpoAOjbfTQ=", "properties": {"ref": "1251", "@spider": "lidl_uk", "addr:full": "Stakesby Road", "addr:city": "Whitby", "addr:postcode": "YO21 1HS", "addr:country": "GB", "name": "Whitby", "brand": "Lidl", "brand:wikidata": "Q151954"}, "geometry": {"type": "Point", "coordinates": [-0.63613, 54.48574]}},
{"type": "Feature", "id": "BYkHT0QxSZxEJqJ3tUg_H1X9ie8=", "properties": {"ref": "1254", "@spider": "lidl_uk", "addr:full": "Cambridge Street", "addr:city": "Spennymoor", "addr:postcode": "DL16 6DF", "addr:country": "GB", "name": "Spennymoor", "brand": "Lidl", "brand:wikidata": "Q151954"}, "geometry": {"type": "Point", "coordinates": [-1.6018, 54.69762]}},
{"type": "Feature", "id": "ourIhWwjwTfBiUrcTQb25On_gyo=", "properties": {"ref": "1258", "@spider": "lidl_uk", "addr:full": "Gainsborough Road, Hazel Leys", "addr:city": "Corby", "addr:postcode": "NN18 0RG", "addr:country": "GB", "name": "Corby", "brand": "Lidl", "brand:wikidata": "Q151954"}, "geometry": {"type": "Point", "coordinates": [-0.70019, 52.48319]}},
{"type": "Feature", "id": "z-bp15aFbdkVEMcntDwX0J2Zrs8=", "properties": {"ref": "1259", "@spider": "lidl_uk", "addr:full": "3 Barnfield Road", "addr:city": "Swindon", "addr:postcode": "SN2 2DJ", "addr:country": "GB", "name": "Swindon", "brand": "Lidl", "brand:wikidata": "Q151954"}, "geometry": {"type": "Point", "coordinates": [-1.80888, 51.56802]}},
{"type": "Feature", "id": "KdRr8GipcyDj75s6bgwoivvbqpc=", "properties": {"ref": "1261", "@spider": "lidl_uk", "addr:full": "Sheffield Road", "addr:city": "Chesterfield", "addr:postcode": "S41 8LX", "addr:country": "GB", "name": "Sheffield Road", "brand": "Lidl", "brand:wikidata": "Q151954"}, "geometry": {"type": "Point", "coordinates": [-1.42909, 53.25865]}},
{"type": "Feature", "id": "N6xovJBXdwr0SWeNhjpokMmhDfQ=", "properties": {"ref": "1262", "@spider": "lidl_uk", "addr:full": "Castle Street", "addr:city": "Telford", "addr:postcode": "TF1 5YN", "addr:country": "GB", "name": "Telford", "brand": "Lidl", "brand:wikidata": "Q151954"}, "geometry": {"type": "Point", "coordinates": [-2.47778, 52.70667]}},
{"type": "Feature", "id": "9maVKp6JkTjlUEGtshT788S6P30=", "properties": {"ref": "1264", "@spider": "lidl_uk", "addr:full": "2 Kilwinning Road", "addr:city": "Dalry", "addr:postcode": "KA24 4LA", "addr:country": "GB", "name": "Dalry", "brand": "Lidl", "brand:wikidata": "Q151954"}, "geometry": {"type": "Point", "coordinates": [-4.72455, 55.70402]}},
{"type": "Feature", "id": "2rbLZC7bZaMJ9OiH9tU7_JfzxfE=", "properties": {"ref": "1265", "@spider": "lidl_uk", "addr:full": "Chesterfield Road", "addr:city": "Sheffield", "addr:postcode": "S8 0TW", "addr:country": "GB", "name": "Woodseats", "brand": "Lidl", "brand:wikidata": "Q151954"}, "geometry": {"type": "Point", "coordinates": [-1.47667, 53.35781]}},
{"type": "Feature", "id": "xaC1Lx-WLNd0Ue7omjVOivWpHls=", "properties": {"ref": "1267", "@spider": "lidl_uk", "addr:full": "Bath Road", "addr:city": "Melksham", "addr:postcode": "SN12 8AB", "addr:country": "GB", "name": "Melksham", "brand": "Lidl", "brand:wikidata": "Q151954"}, "geometry": {"type": "Point", "coordinates": [-2.14204, 51.37709]}},
{"type": "Feature", "id": "sPAJ6mMTPXCL4bZs-HVElZcWFeQ=", "properties": {"ref": "1268", "@spider": "lidl_uk", "addr:full": "87 Binley Road", "addr:city": "Coventry", "addr:postcode": "CV3 1HX", "addr:country": "GB", "name": "Binley Road", "brand": "Lidl", "brand:wikidata": "Q151954"}, "geometry": {"type": "Point", "coordinates": [-1.47704, 52.40627]}},
{"type": "Feature", "id": "aSboZUl6wtnnmVBFvs8AeK5WZTo=", "properties": {"ref": "1269", "@spider": "lidl_uk", "addr:full": "Towerfield Drive", "addr:city": "Plymouth", "addr:postcode": "PL6 7FG", "addr:country": "GB", "name": "Woolwell", "brand": "Lidl", "brand:wikidata": "Q151954"}, "geometry": {"type": "Point", "coordinates": [-4.10701, 50.43579]}},
{"type": "Feature", "id": "5hBXFRqe_8BedxBtrCz_PPGLrrQ=", "properties": {"ref": "1270", "@spider": "lidl_uk", "addr:full": "10 High Street", "addr:city": "Johnstone", "addr:postcode": "PA5 8JX", "addr:country": "GB", "name": "Johnstone", "brand": "Lidl", "brand:wikidata": "Q151954"}, "geometry": {"type": "Point", "coordinates": [-4.50701, 55.8368]}},
{"type": "Feature", "id": "2bJ7rCLfmNG7dueAqJPCFIh0njQ=", "properties": {"ref": "1271", "@spider": "lidl_uk", "addr:full": "64 Leatherhead Road", "addr:city": "London", "addr:postcode": "KT9 2HY", "addr:country": "GB", "name": "Chessington", "brand": "Lidl", "brand:wikidata": "Q151954"}, "geometry": {"type": "Point", "coordinates": [-0.30986, 51.3605]}},
{"type": "Feature", "id": "0JcO3ClCOSL73Lfp1WxdbuFRn1Q=", "properties": {"ref": "1272", "@spider": "lidl_uk", "addr:full": "Lyde Road", "addr:city": "Yeovil", "addr:postcode": "BA21 5DW", "addr:country": "GB", "name": "Yeovil", "brand": "Lidl", "brand:wikidata": "Q151954"}, "geometry": {"type": "Point", "coordinates": [-2.6124, 50.9473]}},
{"type": "Feature", "id": "xnn8nJI3chn5DX6rWubb3OJdXXE=", "properties": {"ref": "1273", "@spider": "lidl_uk", "addr:full": "Holt Road", "addr:city": "Fakenham", "addr:postcode": "NR21 8JG", "addr:country": "GB", "name": "Fakenham", "brand": "Lidl", "brand:wikidata": "Q151954"}, "geometry": {"type": "Point", "coordinates": [0.86243, 52.8364]}},
{"type": "Feature", "id": "dwLGOxsY9PWDM5yRyRKUYx482Aw=", "properties": {"ref": "1274", "@spider": "lidl_uk", "addr:full": "81 Somerford Road", "addr:city": "Christchurch", "addr:postcode": "BH23 3PP", "addr:country": "GB", "name": "Christchurch", "brand": "Lidl", "brand:wikidata": "Q151954"}, "geometry": {"type": "Point", "coordinates": [-1.75205, 50.73779]}},
{"type": "Feature", "id": "VRgB1de_LyjMp7J26GNs-a6nkFk=", "properties": {"ref": "1278", "@spider": "lidl_uk", "addr:full": "London Road", "addr:city": "Amesbury", "addr:postcode": "SP4 7RT", "addr:country": "GB", "name": "Amesbury", "brand": "Lidl", "brand:wikidata": "Q151954"}, "geometry": {"type": "Point", "coordinates": [-1.76384, 51.17745]}},
{"type": "Feature", "id": "b0ORkzFAAkzq9k1__HiuEtKJnk4=", "properties": {"ref": "1279", "@spider": "lidl_uk", "addr:full": "River Way", "addr:city": "Newport", "addr:postcode": "PO30 5GL", "addr:country": "GB", "name": "Newport", "brand": "Lidl", "brand:wikidata": "Q151954"}, "geometry": {"type": "Point", "coordinates": [-1.29374, 50.70257]}},
{"type": "Feature", "id": "Ax2__qzvadespC_C6bIDO6nvOrc=", "properties": {"ref": "1285", "@spider": "lidl_uk", "addr:full": "38 High Street", "addr:city": "London", "addr:postcode": "TW2 7LT", "addr:country": "GB", "name": "Whitton", "brand": "Lidl", "brand:wikidata": "Q151954"}, "geometry": {"type": "Point", "coordinates": [-0.35822, 51.45227]}},
{"type": "Feature", "id": "XavkMYYUd_9PwqmOXxqSOl2-GVg=", "properties": {"ref": "1290", "@spider": "lidl_uk", "addr:full": "Off Maesteg Road", "addr:city": "Bridgend", "addr:postcode": "CF32 9DF", "addr:country": "GB", "name": "Tondu", "brand": "Lidl", "brand:wikidata": "Q151954"}, "geometry": {"type": "Point", "coordinates": [-3.59965, 51.54391]}},
{"type": "Feature", "id": "WBnTM39Q2l29VGsp1woz_dxGbc8=", "properties": {"ref": "1291", "@spider": "lidl_uk", "addr:full": "High Street", "addr:city": "Treorchy", "addr:postcode": "CF42 6EJ", "addr:country": "GB", "name": "Treorchy", "brand": "Lidl", "brand:wikidata": "Q151954"}, "geometry": {"type": "Point", "coordinates": [-3.49849, 51.65696]}},
{"type": "Feature", "id": "3e1OE83WKDTGAqyW4xkPrH-qWxA=", "properties": {"ref": "1292", "@spider": "lidl_uk", "addr:full": "Unit 13 Aylesbury Shopping Park", "addr:city": "Aylesbury", "addr:postcode": "HP20 1DG", "addr:country": "GB", "name": "Aylesbury", "brand": "Lidl", "brand:wikidata": "Q151954"}, "geometry": {"type": "Point", "coordinates": [-0.80829, 51.82033]}},
{"type": "Feature", "id": "xUNFGqDeKfDUJL5am7EyYwA41ic=", "properties": {"ref": "1293", "@spider": "lidl_uk", "addr:full": "Duckworth Street", "addr:city": "Darwen", "addr:postcode": "BB3 1QA", "addr:country": "GB", "name": "Darwen", "brand": "Lidl", "brand:wikidata": "Q151954"}, "geometry": {"type": "Point", "coordinates": [-2.47204, 53.69891]}},
{"type": "Feature", "id": "0jkRfuyfAxPOipmh_OZ_9mPtkHg=", "properties": {"ref": "1294", "@spider": "lidl_uk", "addr:full": "83 Haley Hill", "addr:city": "Halifax", "addr:postcode": "HX3 6ED", "addr:country": "GB", "name": "Halifax", "brand": "Lidl", "brand:wikidata": "Q151954"}, "geometry": {"type": "Point", "coordinates": [-1.86218, 53.72924]}},
{"type": "Feature", "id": "UJUNyH2UMGMmHiTJ1FNJGXvN7lA=", "properties": {"ref": "1295", "@spider": "lidl_uk", "addr:full": "Hatches Lane", "addr:city": "Salisbury", "addr:postcode": "SP1 2NZ", "addr:country": "GB", "name": "Salisbury", "brand": "Lidl", "brand:wikidata": "Q151954"}, "geometry": {"type": "Point", "coordinates": [-1.77576, 51.063]}},
{"type": "Feature", "id": "BhnqurE7z78pJHM9okF9PWCWNgA=", "properties": {"ref": "1297", "@spider": "lidl_uk", "addr:full": "Cardiff Road", "addr:city": "Pwllheli", "addr:postcode": "LL53 5NU", "addr:country": "GB", "name": "Pwllheli", "brand": "Lidl", "brand:wikidata": "Q151954"}, "geometry": {"type": "Point", "coordinates": [-4.42191, 52.88692]}},
{"type": "Feature", "id": "ybP2zY571UQQigcqfRhMlZ0FRxA=", "properties": {"ref": "1299", "@spider": "lidl_uk", "addr:full": "31-35 Blagdon Road", "addr:city": "London", "addr:postcode": "KT3 4AH", "addr:country": "GB", "name": "New Malden", "brand": "Lidl", "brand:wikidata": "Q151954"}, "geometry": {"type": "Point", "coordinates": [-0.25384, 51.40031]}},
{"type": "Feature", "id": "0AOvVWCm66TQoNtwATy41_jAtDk=", "properties": {"ref": "13", "@spider": "lidl_uk", "addr:full": "285 Duke Street", "addr:city": "Glasgow", "addr:postcode": "G31 1HX", "addr:country": "GB", "name": "Duke St", "brand": "Lidl", "brand:wikidata": "Q151954"}, "geometry": {"type": "Point", "coordinates": [-4.22553, 55.85855]}},
{"type": "Feature", "id": "OMFwczQf6jNCWvwjA7T1nY9Ei90=", "properties": {"ref": "1301", "@spider": "lidl_uk", "addr:full": "Lower High Street", "addr:city": "Cradley Heath", "addr:postcode": "B64 5AB", "addr:country": "GB", "name": "Cradley Heath", "brand": "Lidl", "brand:wikidata": "Q151954"}, "geometry": {"type": "Point", "coordinates": [-2.08762, 52.47053]}},
{"type": "Feature", "id": "TzAsUS20zZ1kCOwIVzQeHmCEyrk=", "properties": {"ref": "1305", "@spider": "lidl_uk", "addr:full": "2 Broadway Road", "addr:city": "Evesham", "addr:postcode": "WR11 1BH", "addr:country": "GB", "name": "Evesham", "brand": "Lidl", "brand:wikidata": "Q151954"}, "geometry": {"type": "Point", "coordinates": [-1.93536, 52.08955]}},
{"type": "Feature", "id": "PV0JNiG-_CPPO6PGlKjNyVocDoM=", "properties": {"ref": "1311", "@spider": "lidl_uk", "addr:full": "104 Boglemart Street", "addr:city": "Stevenston", "addr:postcode": "KA20 3JL", "addr:country": "GB", "name": "Stevenston", "brand": "Lidl", "brand:wikidata": "Q151954"}, "geometry": {"type": "Point", "coordinates": [-4.76179, 55.63902]}},
{"type": "Feature", "id": "q3Rwch5WFAcowQ2FeZ2kcsURNHY=", "properties": {"ref": "1312", "@spider": "lidl_uk", "addr:full": "Bacup Road", "addr:city": "Rawtenstall", "addr:postcode": "BB4 7ND", "addr:country": "GB", "name": "Rawtenstall", "brand": "Lidl", "brand:wikidata": "Q151954"}, "geometry": {"type": "Point", "coordinates": [-2.28386, 53.70051]}},
{"type": "Feature", "id": "V7gd6UDuYkkRWkWoi-hoLlULuLc=", "properties": {"ref": "1316", "@spider": "lidl_uk", "addr:full": "57-78 High Street", "addr:city": "London", "addr:postcode": "UB1 3DB", "addr:country": "GB", "name": "Southall", "brand": "Lidl", "brand:wikidata": "Q151954"}, "geometry": {"type": "Point", "coordinates": [-0.37332, 51.51083]}},
{"type": "Feature", "id": "2OJP1XZtdDVUIuKdG6_Viy4UuKk=", "properties": {"ref": "1317", "@spider": "lidl_uk", "addr:full": "1 Norway Road", "addr:city": "Portsmouth", "addr:postcode": "PO3 5HT", "addr:country": "GB", "name": "Hilsea", "brand": "Lidl", "brand:wikidata": "Q151954"}, "geometry": {"type": "Point", "coordinates": [-1.06468, 50.83017]}},
{"type": "Feature", "id": "yrBy0ej9msrvg1vIDmIMxuNmjHg=", "properties": {"ref": "1319", "@spider": "lidl_uk", "addr:full": "Newton Road", "addr:city": "Kingsteignton", "addr:postcode": "TQ12 3AQ", "addr:country": "GB", "name": "Kingsteignton", "brand": "Lidl", "brand:wikidata": "Q151954"}, "geometry": {"type": "Point", "coordinates": [-3.59685, 50.54581]}},
{"type": "Feature", "id": "wce0B37lsc2ARkRDrgXLzK3eGfA=", "properties": {"ref": "1322", "@spider": "lidl_uk", "addr:full": "7 St. Kentigern Way", "addr:city": "Penicuik", "addr:postcode": "EH26 8LE", "addr:country": "GB", "name": "Penicuik", "brand": "Lidl", "brand:wikidata": "Q151954"}, "geometry": {"type": "Point", "coordinates": [-3.22043, 55.82795]}},
{"type": "Feature", "id": "y6I7IKWHAtYW5E2E36be4D8DA-I=", "properties": {"ref": "1323", "@spider": "lidl_uk", "addr:full": "Weaver Row", "addr:city": "Stirling", "addr:postcode": "FK7 9AS", "addr:country": "GB", "name": "Stirling", "brand": "Lidl", "brand:wikidata": "Q151954"}, "geometry": {"type": "Point", "coordinates": [-3.94042, 56.10316]}},
{"type": "Feature", "id": "GhlXpf7yLEui97XxVRom5KXVudY=", "properties": {"ref": "1324", "@spider": "lidl_uk", "addr:full": "6 Headley Road", "addr:city": "Woodley", "addr:postcode": "RG5 4JA", "addr:country": "GB", "name": "Woodley", "brand": "Lidl", "brand:wikidata": "Q151954"}, "geometry": {"type": "Point", "coordinates": [-0.90447, 51.45318]}},
{"type": "Feature", "id": "WUiYkEglRNXGRC0tSwa8b7tcOnQ=", "properties": {"ref": "1327", "@spider": "lidl_uk", "addr:full": "Vivis Lane", "addr:city": "Pickering", "addr:postcode": "YO18 8BP", "addr:country": "GB", "name": "Pickering", "brand": "Lidl", "brand:wikidata": "Q151954"}, "geometry": {"type": "Point", "coordinates": [-0.78008, 54.24477]}},
{"type": "Feature", "id": "bsyn0ULyxPiYz7mUjRHNOWD1i7E=", "properties": {"ref": "1328", "@spider": "lidl_uk", "addr:full": "St Andrews Road", "addr:city": "Bridport", "addr:postcode": "DT6 3DJ", "addr:country": "GB", "name": "Bridport", "brand": "Lidl", "brand:wikidata": "Q151954"}, "geometry": {"type": "Point", "coordinates": [-2.74526, 50.74001]}},
{"type": "Feature", "id": "aNk9yRSLGF0fPdoFMk8POWTxCp4=", "properties": {"ref": "1329", "@spider": "lidl_uk", "addr:full": "23-25 The Concourse, Plevna Road", "addr:city": "London", "addr:postcode": "N9 0TY", "addr:country": "GB", "name": "Edmonton Green", "brand": "Lidl", "brand:wikidata": "Q151954"}, "geometry": {"type": "Point", "coordinates": [-0.05963, 51.62468]}},
{"type": "Feature", "id": "LYKT33b3eqDnk3S1bvp_pq5z7qQ=", "properties": {"ref": "133", "@spider": "lidl_uk", "addr:full": "Dogflud Way", "addr:city": "Farnham", "addr:postcode": "GU9 7SW", "addr:country": "GB", "name": "Farnham", "brand": "Lidl", "brand:wikidata": "Q151954"}, "geometry": {"type": "Point", "coordinates": [-0.79398, 51.21664]}},
{"type": "Feature", "id": "U4WzjrdiDLxXUdTbO_-YNXr57Ow=", "properties": {"ref": "1330", "@spider": "lidl_uk", "addr:full": "25 The Atrium Charles Street", "addr:city": "Camberley", "addr:postcode": "GU15 3GP", "addr:country": "GB", "name": "Camberley", "brand": "Lidl", "brand:wikidata": "Q151954"}, "geometry": {"type": "Point", "coordinates": [-0.7491, 51.33707]}},
{"type": "Feature", "id": "l1YMRvKidkNWgHNM3Axm9rLRxz4=", "properties": {"ref": "1331", "@spider": "lidl_uk", "addr:full": "Dinan Way", "addr:city": "Exmouth", "addr:postcode": "EX8 4RZ", "addr:country": "GB", "name": "Exmouth", "brand": "Lidl", "brand:wikidata": "Q151954"}, "geometry": {"type": "Point", "coordinates": [-3.38095, 50.62964]}},
{"type": "Feature", "id": "y2AAFMS8csnjE_lUHeAbxvAprVI=", "properties": {"ref": "1332", "@spider": "lidl_uk", "addr:full": "4a Welham Road", "addr:city": "Norton", "addr:postcode": "YO17 9DP", "addr:country": "GB", "name": "Norton", "brand": "Lidl", "brand:wikidata": "Q151954"}, "geometry": {"type": "Point", "coordinates": [-0.7911, 54.13182]}},
{"type": "Feature", "id": "DujDp-yd8vSJuYsz1HXYT6gldPQ=", "properties": {"ref": "1333", "@spider": "lidl_uk", "addr:full": "142-152 Plymouth Road", "addr:city": "Tavistock", "addr:postcode": "PL19 9DS", "addr:country": "GB", "name": "Tavistock", "brand": "Lidl", "brand:wikidata": "Q151954"}, "geometry": {"type": "Point", "coordinates": [-4.14496, 50.53723]}},
{"type": "Feature", "id": "DcxcV9lHnc9AJOHT46FZkDxYcf0=", "properties": {"ref": "1334", "@spider": "lidl_uk", "addr:full": "18 Mansfield Road", "addr:city": "Alfreton", "addr:postcode": "DE55 7JJ", "addr:country": "GB", "name": "Alfreton", "brand": "Lidl", "brand:wikidata": "Q151954"}, "geometry": {"type": "Point", "coordinates": [-1.38325, 53.09804]}},
{"type": "Feature", "id": "F1iyam4Pj3YhzDTxVcbTSTDekXs=", "properties": {"ref": "1335", "@spider": "lidl_uk", "addr:full": "Durham Road", "addr:city": "Sunderland", "addr:postcode": "SR3 4DF", "addr:country": "GB", "name": "Durham Road", "brand": "Lidl", "brand:wikidata": "Q151954"}, "geometry": {"type": "Point", "coordinates": [-1.41929, 54.88875]}},
{"type": "Feature", "id": "MR_d29w68oZVh35DrtFDnwmeXYA=", "properties": {"ref": "1337", "@spider": "lidl_uk", "addr:full": "Station Road Store, Station Road", "addr:city": "Thirsk", "addr:postcode": "YO7 1TQ", "addr:country": "GB", "name": "Thirsk", "brand": "Lidl", "brand:wikidata": "Q151954"}, "geometry": {"type": "Point", "coordinates": [-1.34892, 54.2316]}},
{"type": "Feature", "id": "9h7tZhnrnbjSYVMsixeRdXXmDNk=", "properties": {"ref": "1338", "@spider": "lidl_uk", "addr:full": "15-17 High Street", "addr:city": "Southampton", "addr:postcode": "SO14 2DF", "addr:country": "GB", "name": "Southampton", "brand": "Lidl", "brand:wikidata": "Q151954"}, "geometry": {"type": "Point", "coordinates": [-1.40387, 50.90137]}},
{"type": "Feature", "id": "_Dawiy3ew24MYnUt-GkMt3uadBk=", "properties": {"ref": "134", "@spider": "lidl_uk", "addr:full": "Falcon Lane", "addr:city": "London", "addr:postcode": "SW11 2LG", "addr:country": "GB", "name": "Clapham", "brand": "Lidl", "brand:wikidata": "Q151954"}, "geometry": {"type": "Point", "coordinates": [-0.16736, 51.46468]}},
{"type": "Feature", "id": "vPQVkhIIBjLyr7irt1itORaAnto=", "properties": {"ref": "1341", "@spider": "lidl_uk", "addr:full": "2 Chatsworth Street, Pemberton", "addr:city": "Wigan", "addr:postcode": "WN5 8BQ", "addr:country": "GB", "name": "Pemberton", "brand": "Lidl", "brand:wikidata": "Q151954"}, "geometry": {"type": "Point", "coordinates": [-2.67591, 53.53504]}},
{"type": "Feature", "id": "sRvdb9m3ecrGSIVHFq7wka4nYd8=", "properties": {"ref": "1342", "@spider": "lidl_uk", "addr:full": "Denbigh Road", "addr:city": "Mold", "addr:postcode": "CH7 1BL", "addr:country": "GB", "name": "Mold", "brand": "Lidl", "brand:wikidata": "Q151954"}, "geometry": {"type": "Point", "coordinates": [-3.14003, 53.1706]}},
{"type": "Feature", "id": "Q1QdIvq1Db3Ap1LhDEOgRAW9hVo=", "properties": {"ref": "1343", "@spider": "lidl_uk", "addr:full": "Hazelwick Avenue", "addr:city": "Crawley", "addr:postcode": "RH10 1NP", "addr:country": "GB", "name": "Crawley", "brand": "Lidl", "brand:wikidata": "Q151954"}, "geometry": {"type": "Point", "coordinates": [-0.16303, 51.1191]}},
{"type": "Feature", "id": "r0dP5bqi6gaWPMCX-9Y9R6Yuf-g=", "properties": {"ref": "1344", "@spider": "lidl_uk", "addr:full": "New Road", "addr:city": "Littlehampton", "addr:postcode": "BN17 5AX", "addr:country": "GB", "name": "Littlehampton", "brand": "Lidl", "brand:wikidata": "Q151954"}, "geometry": {"type": "Point", "coordinates": [-0.54295, 50.80822]}},
{"type": "Feature", "id": "kZ6-vyRSwNFeZNBAu-SVeJ7mquM=", "properties": {"ref": "1345", "@spider": "lidl_uk", "addr:full": "1 Inverurie Retail Park", "addr:city": "Inverurie", "addr:postcode": "AB51 0GZ", "addr:country": "GB", "name": "Inverurie", "brand": "Lidl", "brand:wikidata": "Q151954"}, "geometry": {"type": "Point", "coordinates": [-2.3704, 57.28734]}},
{"type": "Feature", "id": "QGm7ahTHkQqfPJ6n8kcBBIMr16g=", "properties": {"ref": "1346", "@spider": "lidl_uk", "addr:full": "Lower Street", "addr:city": "Newcastle-under-Lyme", "addr:postcode": "ST5 2RS", "addr:country": "GB", "name": "Newcastle Under Lyme", "brand": "Lidl", "brand:wikidata": "Q151954"}, "geometry": {"type": "Point", "coordinates": [-2.23093, 53.01137]}},
{"type": "Feature", "id": "TGFO9H-tFZwI0ohRm7aH0OhBXsc=", "properties": {"ref": "1349", "@spider": "lidl_uk", "addr:full": "Priory Road", "addr:city": "Cornwall", "addr:postcode": "PL31 2AA", "addr:country": "GB", "name": "Bodmin", "brand": "Lidl", "brand:wikidata": "Q151954"}, "geometry": {"type": "Point", "coordinates": [-4.7146, 50.47114]}},
{"type": "Feature", "id": "UVgv8Sr8tXZXKN7doBNslvpvRSo=", "properties": {"ref": "1350", "@spider": "lidl_uk", "addr:full": "91 Preston Road", "addr:city": "Wigan", "addr:postcode": "WN6 0JF", "addr:country": "GB", "name": "Standish", "brand": "Lidl", "brand:wikidata": "Q151954"}, "geometry": {"type": "Point", "coordinates": [-2.66759, 53.5891]}},
{"type": "Feature", "id": "335IIkfMOcBuJmlPfv04OSP69xI=", "properties": {"ref": "1351", "@spider": "lidl_uk", "addr:full": "High Street South", "addr:city": "Durham", "addr:postcode": "DH7 8EU", "addr:country": "GB", "name": "Langley Moor", "brand": "Lidl", "brand:wikidata": "Q151954"}, "geometry": {"type": "Point", "coordinates": [-1.60953, 54.75794]}},
{"type": "Feature", "id": "pwVAyqGKsJwx1MDZMSxPAqNhE_8=", "properties": {"ref": "1352", "@spider": "lidl_uk", "addr:full": "9-17 Western Road", "addr:city": "London", "addr:postcode": "CR4 3ED", "addr:country": "GB", "name": "Mitcham Town Centre", "brand": "Lidl", "brand:wikidata": "Q151954"}, "geometry": {"type": "Point", "coordinates": [-0.1671, 51.40594]}},
{"type": "Feature", "id": "m7uWcWyk4lnQq_ltuQIYL9qNye4=", "properties": {"ref": "1353", "@spider": "lidl_uk", "addr:full": "Bolebridge Street", "addr:city": "Tamworth", "addr:postcode": "B79 7AG", "addr:country": "GB", "name": "Tamworth", "brand": "Lidl", "brand:wikidata": "Q151954"}, "geometry": {"type": "Point", "coordinates": [-1.68801, 52.63199]}},
{"type": "Feature", "id": "7NXTRnnsb6i20SOqjpy7aZisOoc=", "properties": {"ref": "1354", "@spider": "lidl_uk", "addr:full": "37 Jamaica Street", "addr:city": "Glasgow", "addr:postcode": "G1 4NN", "addr:country": "GB", "name": "Jamaica St", "brand": "Lidl", "brand:wikidata": "Q151954"}, "geometry": {"type": "Point", "coordinates": [-4.25667, 55.85743]}},
{"type": "Feature", "id": "fFRUn4XMEuW-KMjeOxn3qFLA7u0=", "properties": {"ref": "1356", "@spider": "lidl_uk", "addr:full": "Pontefract Road", "addr:city": "Featherstone", "addr:postcode": "WF7 5HG", "addr:country": "GB", "name": "Featherstone", "brand": "Lidl", "brand:wikidata": "Q151954"}, "geometry": {"type": "Point", "coordinates": [-1.35856, 53.67402]}},
{"type": "Feature", "id": "kOIF55hk0bBfBzugsF0IpEFGMP8=", "properties": {"ref": "1357", "@spider": "lidl_uk", "addr:full": "Queen's Road", "addr:city": "Nuneaton", "addr:postcode": "CV11 5LD", "addr:country": "GB", "name": "Nuneaton", "brand": "Lidl", "brand:wikidata": "Q151954"}, "geometry": {"type": "Point", "coordinates": [-1.47521, 52.5223]}},
{"type": "Feature", "id": "42KWIt-j7gYwTDKCbUPYlmH-gcg=", "properties": {"ref": "1358", "@spider": "lidl_uk", "addr:full": "164-170 Marsh Road", "addr:city": "Luton", "addr:postcode": "LU3 2QL", "addr:country": "GB", "name": "Luton Leagrave", "brand": "Lidl", "brand:wikidata": "Q151954"}, "geometry": {"type": "Point", "coordinates": [-0.45267, 51.90435]}},
{"type": "Feature", "id": "reLpXRD1jFKXkIcFK4YBPgU45DI=", "properties": {"ref": "1360", "@spider": "lidl_uk", "addr:full": "New Street", "addr:city": "Torrington", "addr:postcode": "EX38 8BX", "addr:country": "GB", "name": "Torrington", "brand": "Lidl", "brand:wikidata": "Q151954"}, "geometry": {"type": "Point", "coordinates": [-4.15104, 50.95295]}},
{"type": "Feature", "id": "vhQC_fyN9WAwHRWSjVinlEbb8w0=", "properties": {"ref": "1361", "@spider": "lidl_uk", "addr:full": "The Fairways", "addr:city": "Westhoughton", "addr:postcode": "BL5 3YY", "addr:country": "GB", "name": "Westhoughton", "brand": "Lidl", "brand:wikidata": "Q151954"}, "geometry": {"type": "Point", "coordinates": [-2.52816, 53.54776]}},
{"type": "Feature", "id": "xZEjTkG1rppcWGcSyZsd_CDNKsY=", "properties": {"ref": "1363", "@spider": "lidl_uk", "addr:full": "49 Lymington Road", "addr:city": "New Milton", "addr:postcode": "BH25 6PR", "addr:country": "GB", "name": "New Milton", "brand": "Lidl", "brand:wikidata": "Q151954"}, "geometry": {"type": "Point", "coordinates": [-1.65852, 50.7465]}},
{"type": "Feature", "id": "bIKGUT632z8K4gRFuFUQqTESU0U=", "properties": {"ref": "1364", "@spider": "lidl_uk", "addr:full": "Roker Avenue", "addr:city": "Sunderland", "addr:postcode": "SR6 0BN", "addr:country": "GB", "name": "Roker", "brand": "Lidl", "brand:wikidata": "Q151954"}, "geometry": {"type": "Point", "coordinates": [-1.37856, 54.91685]}},
{"type": "Feature", "id": "qxiwG1Vy-UyzBCMy2BzGTN7P5r8=", "properties": {"ref": "1366", "@spider": "lidl_uk", "addr:full": "High Street", "addr:city": "Waltham Cross", "addr:postcode": "EN8 7AA", "addr:country": "GB", "name": "Waltham Cross", "brand": "Lidl", "brand:wikidata": "Q151954"}, "geometry": {"type": "Point", "coordinates": [-0.03232, 51.68341]}},
{"type": "Feature", "id": "gze20DUO7Zlgpw0HFlEPTjRBh2M=", "properties": {"ref": "1367", "@spider": "lidl_uk", "addr:full": "300 Victoria Road", "addr:city": "Glasgow", "addr:postcode": "G42 7RP", "addr:country": "GB", "name": "Victoria Road", "brand": "Lidl", "brand:wikidata": "Q151954"}, "geometry": {"type": "Point", "coordinates": [-4.2642, 55.83958]}},
{"type": "Feature", "id": "80dLLIBGn1y4xqXHJ7Hp6VmECoo=", "properties": {"ref": "1368", "@spider": "lidl_uk", "addr:full": "8 Wellington Centre", "addr:city": "Aldershot", "addr:postcode": "GU11 1DB", "addr:country": "GB", "name": "Aldershot", "brand": "Lidl", "brand:wikidata": "Q151954"}, "geometry": {"type": "Point", "coordinates": [-0.76566, 51.24868]}},
{"type": "Feature", "id": "wTfS6tObMOPUXZqjPLwmDUuze6I=", "properties": {"ref": "1369", "@spider": "lidl_uk", "addr:full": "Wilder Road", "addr:city": "Ilfracome", "addr:postcode": "EX34 8BS", "addr:country": "GB", "name": "Ilfracombe", "brand": "Lidl", "brand:wikidata": "Q151954"}, "geometry": {"type": "Point", "coordinates": [-4.12751, 51.20805]}},
{"type": "Feature", "id": "fGE7WJS3-kQhmiXfe-8l6O6sGco=", "properties": {"ref": "1370", "@spider": "lidl_uk", "addr:full": "The George Shopping Centre", "addr:city": "Crewkerne", "addr:postcode": "TA18 7LU", "addr:country": "GB", "name": "Crewkerne", "brand": "Lidl", "brand:wikidata": "Q151954"}, "geometry": {"type": "Point", "coordinates": [-2.79535, 50.88405]}},
{"type": "Feature", "id": "nbvmyeM95Ld-IUygy4NkH9aviTQ=", "properties": {"ref": "1371", "@spider": "lidl_uk", "addr:full": "18 Kingshill Road", "addr:city": "Dursley", "addr:postcode": "GL11 4EJ", "addr:country": "GB", "name": "Dursley", "brand": "Lidl", "brand:wikidata": "Q151954"}, "geometry": {"type": "Point", "coordinates": [-2.36117, 51.68809]}},
{"type": "Feature", "id": "EAu8tpWncKN67do02wyWz_CSsmo=", "properties": {"ref": "1372", "@spider": "lidl_uk", "addr:full": "Harrogate Road, Chapel Allerton", "addr:city": "Leeds", "addr:postcode": "LS7 3PG", "addr:country": "GB", "name": "Chapel Allerton", "brand": "Lidl", "brand:wikidata": "Q151954"}, "geometry": {"type": "Point", "coordinates": [-1.53429, 53.82554]}},
{"type": "Feature", "id": "rjLulqvn5RMbUHNklvYPTVxFZJI=", "properties": {"ref": "1373", "@spider": "lidl_uk", "addr:full": "King Street", "addr:city": "Wigton", "addr:postcode": "CA7 9HG", "addr:country": "GB", "name": "Wigton", "brand": "Lidl", "brand:wikidata": "Q151954"}, "geometry": {"type": "Point", "coordinates": [-3.15677, 54.82682]}},
{"type": "Feature", "id": "2G_KGi5epYYf624oJyAGbDCY8bk=", "properties": {"ref": "1374", "@spider": "lidl_uk", "addr:full": "1 The Grove", "addr:city": "Dorchester", "addr:postcode": "DT1 1XU", "addr:country": "GB", "name": "Dorchester", "brand": "Lidl", "brand:wikidata": "Q151954"}, "geometry": {"type": "Point", "coordinates": [-2.44228, 50.71893]}},
{"type": "Feature", "id": "xwA6xxI6gxdqz2ezwUMiAByvlbU=", "properties": {"ref": "1375", "@spider": "lidl_uk", "addr:full": "Foundry Road", "addr:city": "Ammanford", "addr:postcode": "SA18 2LS", "addr:country": "GB", "name": "Ammanford", "brand": "Lidl", "brand:wikidata": "Q151954"}, "geometry": {"type": "Point", "coordinates": [-3.98419, 51.7914]}},
{"type": "Feature", "id": "W_P5a6GNiuk9Mui40J6DKJFIoo0=", "properties": {"ref": "1376", "@spider": "lidl_uk", "addr:full": "Units 7-8, 88-96 High Road", "addr:city": "London", "addr:postcode": "N22 6HE", "addr:country": "GB", "name": "Wood Green", "brand": "Lidl", "brand:wikidata": "Q151954"}, "geometry": {"type": "Point", "coordinates": [-0.10648, 51.59377]}},
{"type": "Feature", "id": "mreUvY-EG8Qe7jF2HbpVIawtgNM=", "properties": {"ref": "1379", "@spider": "lidl_uk", "addr:full": "Enfield Chase", "addr:city": "Guisborough", "addr:postcode": "TS14 7LG", "addr:country": "GB", "name": "Guisborough", "brand": "Lidl", "brand:wikidata": "Q151954"}, "geometry": {"type": "Point", "coordinates": [-1.05995, 54.5306]}},
{"type": "Feature", "id": "KYICVX9hcPlb4CWl9Fh6djyhJ8E=", "properties": {"ref": "1380", "@spider": "lidl_uk", "addr:full": "1 Midland Way", "addr:city": "Nottingham", "addr:postcode": "NG7 3NY", "addr:country": "GB", "name": "Ilkeston Road", "brand": "Lidl", "brand:wikidata": "Q151954"}, "geometry": {"type": "Point", "coordinates": [-1.18278, 52.95594]}},
{"type": "Feature", "id": "NnvV4X1lXwmYh0nwfJb8f1aAXQQ=", "properties": {"ref": "1381", "@spider": "lidl_uk", "addr:full": "West Richardson Street", "addr:city": "High Wycombe", "addr:postcode": "HP11 2SB", "addr:country": "GB", "name": "High Wycombe", "brand": "Lidl", "brand:wikidata": "Q151954"}, "geometry": {"type": "Point", "coordinates": [-0.76272, 51.63269]}},
{"type": "Feature", "id": "UXs6_2_uX4Nf3s2FF0pOeTb5qyY=", "properties": {"ref": "1382", "@spider": "lidl_uk", "addr:full": "Shawbridge Street", "addr:city": "Clitheroe", "addr:postcode": "BB7 1LZ", "addr:country": "GB", "name": "Clitheroe", "brand": "Lidl", "brand:wikidata": "Q151954"}, "geometry": {"type": "Point", "coordinates": [-2.38736, 53.87132]}},
{"type": "Feature", "id": "hTDRJx_VGlp8Mu-ci-fZCylR3mg=", "properties": {"ref": "1383", "@spider": "lidl_uk", "addr:full": "1 John Wigley Way", "addr:city": "Coventry", "addr:postcode": "CV6 5RF", "addr:country": "GB", "name": "Foleshill", "brand": "Lidl", "brand:wikidata": "Q151954"}, "geometry": {"type": "Point", "coordinates": [-1.4934, 52.43494]}},
{"type": "Feature", "id": "3vJXzbwYgClHi5jV3j1tPRbbftI=", "properties": {"ref": "1385", "@spider": "lidl_uk", "addr:full": "Heathpark Service Station", "addr:city": "Honiton", "addr:postcode": "EX14 1SG", "addr:country": "GB", "name": "Honiton", "brand": "Lidl", "brand:wikidata": "Q151954"}, "geometry": {"type": "Point", "coordinates": [-3.2093, 50.79366]}},
{"type": "Feature", "id": "7RlwoeDQ3p_QZFwD4QDyrcI_EbA=", "properties": {"ref": "1386", "@spider": "lidl_uk", "addr:full": "Thanet Road", "addr:city": "York", "addr:postcode": "YO24 2PE", "addr:country": "GB", "name": "York", "brand": "Lidl", "brand:wikidata": "Q151954"}, "geometry": {"type": "Point", "coordinates": [-1.11993, 53.94382]}},
{"type": "Feature", "id": "idudcAc1DOXsFXfUkXIIkezRjZM=", "properties": {"ref": "1387", "@spider": "lidl_uk", "addr:full": "76-78 Church Street", "addr:city": "London", "addr:postcode": "CR0 1RB", "addr:country": "GB", "name": "Croydon Church Street", "brand": "Lidl", "brand:wikidata": "Q151954"}, "geometry": {"type": "Point", "coordinates": [-0.10379, 51.37356]}},
{"type": "Feature", "id": "yk8VVHaA4yRMhIhf4FTGpEGl8jM=", "properties": {"ref": "1388", "@spider": "lidl_uk", "addr:full": "258-262 Heathway", "addr:city": "Greater London", "addr:postcode": "RM10 8QS", "addr:country": "GB", "name": "Dagenham", "brand": "Lidl", "brand:wikidata": "Q151954"}, "geometry": {"type": "Point", "coordinates": [0.14862, 51.54282]}},
{"type": "Feature", "id": "-HbWMHSvioWcYSRQTTLeTHY3uh8=", "properties": {"ref": "1389", "@spider": "lidl_uk", "addr:full": "137 Cowley Road", "addr:city": "London", "addr:postcode": "UB8 2AG", "addr:country": "GB", "name": "Uxbridge", "brand": "Lidl", "brand:wikidata": "Q151954"}, "geometry": {"type": "Point", "coordinates": [-0.48239, 51.53511]}},
{"type": "Feature", "id": "erYW-d1rYn6YJghvq0PpZ4PKZug=", "properties": {"ref": "139", "@spider": "lidl_uk", "addr:full": "Springburn Road", "addr:city": "Glasgow", "addr:postcode": "G21 1YX", "addr:country": "GB", "name": "Springburn", "brand": "Lidl", "brand:wikidata": "Q151954"}, "geometry": {"type": "Point", "coordinates": [-4.23191, 55.87408]}},
{"type": "Feature", "id": "uOTJZobqCjlgFpjUcXzK3DVU3Zc=", "properties": {"ref": "1390", "@spider": "lidl_uk", "addr:full": "Agar Road", "addr:city": "Pool", "addr:postcode": "TR15 3EE", "addr:country": "GB", "name": "Pool", "brand": "Lidl", "brand:wikidata": "Q151954"}, "geometry": {"type": "Point", "coordinates": [-5.26296, 50.22841]}},
{"type": "Feature", "id": "FBldOPydjoW2z7H2Yu9cg6jfW7g=", "properties": {"ref": "1391", "@spider": "lidl_uk", "addr:full": "The Hub, 3 Drove Road", "addr:city": "Newhaven", "addr:postcode": "BN9 0AD", "addr:country": "GB", "name": "Newhaven", "brand": "Lidl", "brand:wikidata": "Q151954"}, "geometry": {"type": "Point", "coordinates": [0.05731, 50.79603]}},
{"type": "Feature", "id": "GqLUzlDOil-oUhVOzWwDLR_d6jo=", "properties": {"ref": "1393", "@spider": "lidl_uk", "addr:full": "Molly Millars Lane", "addr:city": "Wokingham", "addr:postcode": "RG41 2RU", "addr:country": "GB", "name": "Wokingham", "brand": "Lidl", "brand:wikidata": "Q151954"}, "geometry": {"type": "Point", "coordinates": [-0.84633, 51.40593]}},
{"type": "Feature", "id": "ScxCJOtIUOVAkoTEK1UE6ilZIxs=", "properties": {"ref": "1394", "@spider": "lidl_uk", "addr:full": "59 Whitchurch Lane", "addr:city": "Bristol", "addr:postcode": "BS13 7TE", "addr:country": "GB", "name": "Bishopsworth", "brand": "Lidl", "brand:wikidata": "Q151954"}, "geometry": {"type": "Point", "coordinates": [-2.61087, 51.41395]}},
{"type": "Feature", "id": "_WDU6rtgqU4rd7P6xrjwBF960CQ=", "properties": {"ref": "1395", "@spider": "lidl_uk", "addr:full": "64-70 Camden High Street", "addr:city": "London", "addr:postcode": "NW1 0LT", "addr:country": "GB", "name": "Camden", "brand": "Lidl", "brand:wikidata": "Q151954"}, "geometry": {"type": "Point", "coordinates": [-0.14006, 51.53634]}},
{"type": "Feature", "id": "DekIUDV7qkLnR_jxDx2xFmSjmmI=", "properties": {"ref": "1397", "@spider": "lidl_uk", "addr:full": "63-65 The Broadway", "addr:city": "London", "addr:postcode": "W13 0SA", "addr:country": "GB", "name": "West Ealing", "brand": "Lidl", "brand:wikidata": "Q151954"}, "geometry": {"type": "Point", "coordinates": [-0.32438, 51.51001]}},
{"type": "Feature", "id": "gLgZjIyJh14ZM9ezcstCsuZFqP4=", "properties": {"ref": "1398", "@spider": "lidl_uk", "addr:full": "Launton Rd", "addr:city": "Bicester", "addr:postcode": "OX26 4JQ", "addr:country": "GB", "name": "Bicester", "brand": "Lidl", "brand:wikidata": "Q151954"}, "geometry": {"type": "Point", "coordinates": [-1.13364, 51.90386]}},
{"type": "Feature", "id": "1v4THfangjFCVa5AEpdfkeF-WMs=", "properties": {"ref": "1400", "@spider": "lidl_uk", "addr:full": "Peel Street", "addr:city": "Barnsley", "addr:postcode": "S70 2RE", "addr:country": "GB", "name": "Barnsley", "brand": "Lidl", "brand:wikidata": "Q151954"}, "geometry": {"type": "Point", "coordinates": [-1.48637, 53.55209]}},
{"type": "Feature", "id": "f_7i3V_QhmOGaZtFsVlpIy710VY=", "properties": {"ref": "1401", "@spider": "lidl_uk", "addr:full": "Preston Road", "addr:city": "Lytham", "addr:postcode": "FY8 5AT", "addr:country": "GB", "name": "Lytham", "brand": "Lidl", "brand:wikidata": "Q151954"}, "geometry": {"type": "Point", "coordinates": [-2.94102, 53.74357]}},
{"type": "Feature", "id": "x1WNPu3a5NIX1iraMKen9NfmIeQ=", "properties": {"ref": "1402", "@spider": "lidl_uk", "addr:full": "11 Stukeley Road", "addr:city": "Huntingdon", "addr:postcode": "PE29 6HG", "addr:country": "GB", "name": "Huntingdon", "brand": "Lidl", "brand:wikidata": "Q151954"}, "geometry": {"type": "Point", "coordinates": [-0.19097, 52.33662]}},
{"type": "Feature", "id": "UyQxQh_2ucUHWfMD3N5t6dXe9m4=", "properties": {"ref": "1403", "@spider": "lidl_uk", "addr:full": "London Road", "addr:city": "Thetford", "addr:postcode": "IP24 3RS", "addr:country": "GB", "name": "Thetford", "brand": "Lidl", "brand:wikidata": "Q151954"}, "geometry": {"type": "Point", "coordinates": [0.72495, 52.40415]}},
{"type": "Feature", "id": "jHv7CHRdmIGTH_ldB5gTtpogIMc=", "properties": {"ref": "1405", "@spider": "lidl_uk", "addr:full": "Unit 1 Edwards Road", "addr:city": "Runcorn", "addr:postcode": "WA7 2XP", "addr:country": "GB", "name": "Runcorn", "brand": "Lidl", "brand:wikidata": "Q151954"}, "geometry": {"type": "Point", "coordinates": [-2.69907, 53.3298]}},
{"type": "Feature", "id": "87F2ufhrlgIMs-DW6N5atvMqBrE=", "properties": {"ref": "1406", "@spider": "lidl_uk", "addr:full": "Atherton Way", "addr:city": "Brigg", "addr:postcode": "DN20 8AR", "addr:country": "GB", "name": "Brigg", "brand": "Lidl", "brand:wikidata": "Q151954"}, "geometry": {"type": "Point", "coordinates": [-0.4968, 53.55468]}},
{"type": "Feature", "id": "R0k0JxRz0ysZUC5pJIzB0Wo2DBA=", "properties": {"ref": "1407", "@spider": "lidl_uk", "addr:full": "330 Crofton Road, Locksbottom", "addr:city": "London", "addr:postcode": "BR6 8NW", "addr:country": "GB", "name": "Locksbottom", "brand": "Lidl", "brand:wikidata": "Q151954"}, "geometry": {"type": "Point", "coordinates": [0.05639, 51.36814]}},
{"type": "Feature", "id": "YGoUIY1fGM_LI65124wpwINfXlk=", "properties": {"ref": "1408", "@spider": "lidl_uk", "addr:full": "Harbour Road", "addr:city": "Portishead", "addr:postcode": "BS20 7DE", "addr:country": "GB", "name": "Portishead", "brand": "Lidl", "brand:wikidata": "Q151954"}, "geometry": {"type": "Point", "coordinates": [-2.76382, 51.48576]}},
{"type": "Feature", "id": "3CDf0SgkR0uYPhzQQ-IP4QTcVlc=", "properties": {"ref": "1409", "@spider": "lidl_uk", "addr:full": "Stafferton Way", "addr:city": "Maidenhead", "addr:postcode": "SL6 1AY", "addr:country": "GB", "name": "Maidenhead", "brand": "Lidl", "brand:wikidata": "Q151954"}, "geometry": {"type": "Point", "coordinates": [-0.71658, 51.51794]}},
{"type": "Feature", "id": "Gh6Jow6_ectNKb_h26dIwxzZRwA=", "properties": {"ref": "1412", "@spider": "lidl_uk", "addr:full": "Vincent Lane", "addr:city": "Dorking", "addr:postcode": "RH4 3JD", "addr:country": "GB", "name": "Dorking", "brand": "Lidl", "brand:wikidata": "Q151954"}, "geometry": {"type": "Point", "coordinates": [-0.33732, 51.22939]}},
{"type": "Feature", "id": "tK_SR6gHfPUTc-Iz7LlqmqOoQGI=", "properties": {"ref": "1413", "@spider": "lidl_uk", "addr:full": "80 London Road", "addr:city": "Sevenoaks", "addr:postcode": "TN13 2JD", "addr:country": "GB", "name": "Sevenoaks", "brand": "Lidl", "brand:wikidata": "Q151954"}, "geometry": {"type": "Point", "coordinates": [0.17751, 51.27884]}},
{"type": "Feature", "id": "mtdgXzhTWKZTpQXiNEOj3vj1KZw=", "properties": {"ref": "1414", "@spider": "lidl_uk", "addr:full": "Holt Road", "addr:city": "Cromer", "addr:postcode": "NR27 9JW", "addr:country": "GB", "name": "Cromer", "brand": "Lidl", "brand:wikidata": "Q151954"}, "geometry": {"type": "Point", "coordinates": [1.28661, 52.92637]}},
{"type": "Feature", "id": "ABMA2OSrqMA9IUsaVh1JSWANzrQ=", "properties": {"ref": "1415", "@spider": "lidl_uk", "addr:full": "Instone Road", "addr:city": "DA1 2AG", "addr:postcode": "Dartford", "addr:country": "GB", "name": "Dartford", "brand": "Lidl", "brand:wikidata": "Q151954"}, "geometry": {"type": "Point", "coordinates": [0.21424, 51.44242]}},
{"type": "Feature", "id": "7ikIXrF_W0UT9JOVdkZmUYZx1no=", "properties": {"ref": "1416", "@spider": "lidl_uk", "addr:full": "250-260 Fencepiece Road", "addr:city": "Greater London", "addr:postcode": "IG6 2SU", "addr:country": "GB", "name": "Hainault", "brand": "Lidl", "brand:wikidata": "Q151954"}, "geometry": {"type": "Point", "coordinates": [0.08446, 51.60337]}},
{"type": "Feature", "id": "TZpVFOl7VJJonQwxmfS7pzGwtGc=", "properties": {"ref": "1417", "@spider": "lidl_uk", "addr:full": "Huddersfield Road", "addr:city": "Holmfirth", "addr:postcode": "HD9 3TN", "addr:country": "GB", "name": "Holmfirth", "brand": "Lidl", "brand:wikidata": "Q151954"}, "geometry": {"type": "Point", "coordinates": [-1.78458, 53.57606]}},
{"type": "Feature", "id": "OmR10hEYou7queWwjfsz6t_qiHI=", "properties": {"ref": "142", "@spider": "lidl_uk", "addr:full": "Oldbrook Boulevard", "addr:city": "Milton Keynes", "addr:postcode": "MK6 2YA", "addr:country": "GB", "name": "Milton Keynes", "brand": "Lidl", "brand:wikidata": "Q151954"}, "geometry": {"type": "Point", "coordinates": [-0.7621, 52.02994]}},
{"type": "Feature", "id": "HrPd35XBqegOU6GI5czu2TlZxN8=", "properties": {"ref": "1421", "@spider": "lidl_uk", "addr:full": "Stallings Lane", "addr:city": "Kingswinford", "addr:postcode": "DY6 7BG", "addr:country": "GB", "name": "Kingswinford", "brand": "Lidl", "brand:wikidata": "Q151954"}, "geometry": {"type": "Point", "coordinates": [-2.16808, 52.50451]}},
{"type": "Feature", "id": "0ecj3avUkCe3WD_beL2DWu2Cj18=", "properties": {"ref": "1422", "@spider": "lidl_uk", "addr:full": "Victoria Road", "addr:city": "HA4 0QQ", "addr:postcode": "Ruislip", "addr:country": "GB", "name": "South Ruislip", "brand": "Lidl", "brand:wikidata": "Q151954"}, "geometry": {"type": "Point", "coordinates": [-0.3835, 51.55818]}},
{"type": "Feature", "id": "O3-n4R1Ll-_TVzezHfcyo8eIb_A=", "properties": {"ref": "1423", "@spider": "lidl_uk", "addr:full": "Milton Road", "addr:city": "Kirkintilloch", "addr:postcode": "G66 1SY", "addr:country": "GB", "name": "Kirkintilloch", "brand": "Lidl", "brand:wikidata": "Q151954"}, "geometry": {"type": "Point", "coordinates": [-4.15497, 55.9436]}},
{"type": "Feature", "id": "7hr01xQKYspBdbdC3dDN32de9eE=", "properties": {"ref": "1424", "@spider": "lidl_uk", "addr:full": "Stamfordham Road", "addr:city": "Newcastle Upon Tyne", "addr:postcode": "NE5 2SF", "addr:country": "GB", "name": "Slatyford", "brand": "Lidl", "brand:wikidata": "Q151954"}, "geometry": {"type": "Point", "coordinates": [-1.67465, 54.99105]}},
{"type": "Feature", "id": "l0Ts6Y6Y65lqtESzlvAYlQsxI4s=", "properties": {"ref": "1426", "@spider": "lidl_uk", "addr:full": "Bursledon Road", "addr:city": "Southampton", "addr:postcode": "SO19 8NE", "addr:country": "GB", "name": "Southampton", "brand": "Lidl", "brand:wikidata": "Q151954"}, "geometry": {"type": "Point", "coordinates": [-1.33819, 50.90682]}},
{"type": "Feature", "id": "uqXDGOFer5-O_ZTAK5NN1XLJO08=", "properties": {"ref": "1427", "@spider": "lidl_uk", "addr:full": "Gastons Wood", "addr:city": "Basingstoke", "addr:postcode": "RG24 8TW", "addr:country": "GB", "name": "Chineham", "brand": "Lidl", "brand:wikidata": "Q151954"}, "geometry": {"type": "Point", "coordinates": [-1.07051, 51.2836]}},
{"type": "Feature", "id": "SP5mJN8vBzVo87AJX3TBk7BOUPA=", "properties": {"ref": "1428", "@spider": "lidl_uk", "addr:full": "Broadway", "addr:city": "DA6 7LN", "addr:postcode": "Bexleyheath", "addr:country": "GB", "name": "Bexleyheath", "brand": "Lidl", "brand:wikidata": "Q151954"}, "geometry": {"type": "Point", "coordinates": [0.15195, 51.45569]}},
{"type": "Feature", "id": "Zboj2dTRZhWOnzSZZAcN-kJO9WE=", "properties": {"ref": "1429", "@spider": "lidl_uk", "addr:full": "Victoria Street", "addr:city": "BL8 2QR", "addr:postcode": "Bury", "addr:country": "GB", "name": "Bury", "brand": "Lidl", "brand:wikidata": "Q151954"}, "geometry": {"type": "Point", "coordinates": [-2.31085, 53.59425]}},
{"type": "Feature", "id": "dU9XqtrkP9UnX76ZUKIA_O99pMs=", "properties": {"ref": "1430", "@spider": "lidl_uk", "addr:full": "Beulah Hill", "addr:city": "SE19 3HD", "addr:postcode": "Norwood", "addr:country": "GB", "name": "Norwood", "brand": "Lidl", "brand:wikidata": "Q151954"}, "geometry": {"type": "Point", "coordinates": [-0.10632, 51.42215]}},
{"type": "Feature", "id": "gQnvqPxCK4z_olZw5E2CZXQVRdQ=", "properties": {"ref": "1431", "@spider": "lidl_uk", "addr:full": "Progress Road/Rayleigh Road", "addr:city": "SS9 5PR", "addr:postcode": "Southend on Sea", "addr:country": "GB", "name": "Essex", "brand": "Lidl", "brand:wikidata": "Q151954"}, "geometry": {"type": "Point", "coordinates": [0.64482, 51.57073]}},
{"type": "Feature", "id": "7ZzjXgqtUzbhtg_3EVKQcby1EyQ=", "properties": {"ref": "1434", "@spider": "lidl_uk", "addr:full": "Rhondda Road", "addr:city": "CF37 1TF", "addr:postcode": "Pontypridd", "addr:country": "GB", "name": "Pontypridd", "brand": "Lidl", "brand:wikidata": "Q151954"}, "geometry": {"type": "Point", "coordinates": [-3.34614, 51.60153]}},
{"type": "Feature", "id": "y0lPS3Pi1bvfxwux5CkAj-0s9xE=", "properties": {"ref": "1435", "@spider": "lidl_uk", "addr:full": "17 Richmond Place", "addr:city": "Glasgow-Rutherglen", "addr:postcode": "G73 3BA", "addr:country": "GB", "name": "Cambuslang Road", "brand": "Lidl", "brand:wikidata": "Q151954"}, "geometry": {"type": "Point", "coordinates": [-4.19594, 55.82729]}},
{"type": "Feature", "id": "fbwfVVXJQ9MZsW2Cfnt6yATt3yA=", "properties": {"ref": "1436", "@spider": "lidl_uk", "addr:full": "Station Road", "addr:city": "Petersfield", "addr:postcode": "GU32 3EE", "addr:country": "GB", "name": "Petersfield", "brand": "Lidl", "brand:wikidata": "Q151954"}, "geometry": {"type": "Point", "coordinates": [-0.94145, 51.00723]}},
{"type": "Feature", "id": "Nkst_71JAElQ-Jj2IbvZMOfTS70=", "properties": {"ref": "1437", "@spider": "lidl_uk", "addr:full": "West Street", "addr:city": "Sittingbourne", "addr:postcode": "ME10 1AR", "addr:country": "GB", "name": "Sittingbourne", "brand": "Lidl", "brand:wikidata": "Q151954"}, "geometry": {"type": "Point", "coordinates": [0.73184, 51.34128]}},
{"type": "Feature", "id": "x1n1ZJzKLwHlORZTM-ZjSFcc1yE=", "properties": {"ref": "1439", "@spider": "lidl_uk", "addr:full": "Leckwith Road", "addr:city": "Leckwith", "addr:postcode": "CF11 8AZ", "addr:country": "GB", "name": "Leckwith Road", "brand": "Lidl", "brand:wikidata": "Q151954"}, "geometry": {"type": "Point", "coordinates": [-3.20487, 51.47487]}},
{"type": "Feature", "id": "XbYEKT3XrYy-rjaE4UOf2ILzfPc=", "properties": {"ref": "1440", "@spider": "lidl_uk", "addr:full": "Logie Green Road", "addr:city": "EH7 4HF", "addr:postcode": "Edinburgh", "addr:country": "GB", "name": "Broughton", "brand": "Lidl", "brand:wikidata": "Q151954"}, "geometry": {"type": "Point", "coordinates": [-3.1955, 55.96395]}},
{"type": "Feature", "id": "t-gzkXqrbctIK3GHc0mR2OGI4Ao=", "properties": {"ref": "1442", "@spider": "lidl_uk", "addr:full": "Dixon Street", "addr:city": "Lincoln", "addr:postcode": "LN6 7SA", "addr:country": "GB", "name": "Dixon Street", "brand": "Lidl", "brand:wikidata": "Q151954"}, "geometry": {"type": "Point", "coordinates": [-0.55226, 53.21915]}},
{"type": "Feature", "id": "kb8MSk1atvFJRoYs9zfwJGYIaQQ=", "properties": {"ref": "1443", "@spider": "lidl_uk", "addr:full": "Unit 1-2 The Malthouse Estate", "addr:city": "BN4 36RJ", "addr:postcode": "Shoreham", "addr:country": "GB", "name": "Shoreham", "brand": "Lidl", "brand:wikidata": "Q151954"}, "geometry": {"type": "Point", "coordinates": [-0.25735, 50.83239]}},
{"type": "Feature", "id": "EcpOHmu2ZP8OLCobID9P6Oi6HQI=", "properties": {"ref": "1444", "@spider": "lidl_uk", "addr:full": "Central Avenue", "addr:city": "UB3 2BN", "addr:postcode": "Hayes", "addr:country": "GB", "name": "Hayes", "brand": "Lidl", "brand:wikidata": "Q151954"}, "geometry": {"type": "Point", "coordinates": [-0.41956, 51.50867]}},
{"type": "Feature", "id": "esSFISNmS0fzMzoTTOigtadnNjw=", "properties": {"ref": "1445", "@spider": "lidl_uk", "addr:full": "Blackpole Road", "addr:city": "WR4 9SE", "addr:postcode": "Worcester", "addr:country": "GB", "name": "WOR-Blackpole Road", "brand": "Lidl", "brand:wikidata": "Q151954"}, "geometry": {"type": "Point", "coordinates": [-2.19862, 52.21242]}},
{"type": "Feature", "id": "9kdlJZ3MhdZ_wcOtU4OnOANnfGA=", "properties": {"ref": "1447", "@spider": "lidl_uk", "addr:full": "Caxton Place", "addr:city": "CF23 8AN", "addr:postcode": "Pentwyn", "addr:country": "GB", "name": "Cardiff - Pentwyn", "brand": "Lidl", "brand:wikidata": "Q151954"}, "geometry": {"type": "Point", "coordinates": [-3.1368, 51.52912]}},
{"type": "Feature", "id": "PrA7EceCWeyAaLO775v2kbU0-4w=", "properties": {"ref": "1450", "@spider": "lidl_uk", "addr:full": "Alison Crescent", "addr:city": "S2 1AS", "addr:postcode": "Sheffield", "addr:country": "GB", "name": "Sheffield - Castlebeck", "brand": "Lidl", "brand:wikidata": "Q151954"}, "geometry": {"type": "Point", "coordinates": [-1.41679, 53.3723]}},
{"type": "Feature", "id": "A7dPIDK4EDjUrR4cQP2B4nRsiJY=", "properties": {"ref": "1451", "@spider": "lidl_uk", "addr:full": "Castle Trading Estate, Southampton Road", "addr:city": "PO16 9SF", "addr:postcode": "Portchester", "addr:country": "GB", "name": "Portchester", "brand": "Lidl", "brand:wikidata": "Q151954"}, "geometry": {"type": "Point", "coordinates": [-1.11844, 50.84659]}},
{"type": "Feature", "id": "9BkI3uPOTfGCupdkNGr3smyIfMk=", "properties": {"ref": "1452", "@spider": "lidl_uk", "addr:full": "Mansfield Rd", "addr:city": "Arnold", "addr:postcode": "NG5 6HA", "addr:country": "GB", "name": "Arnold", "brand": "Lidl", "brand:wikidata": "Q151954"}, "geometry": {"type": "Point", "coordinates": [-1.13952, 53.00377]}},
{"type": "Feature", "id": "r2WuonEudx7dGlZG_Jbw2XeZMvk=", "properties": {"ref": "1453", "@spider": "lidl_uk", "addr:full": "Altofts Road", "addr:city": "Normanton", "addr:postcode": "WF6 2AY", "addr:country": "GB", "name": "Normanton", "brand": "Lidl", "brand:wikidata": "Q151954"}, "geometry": {"type": "Point", "coordinates": [-1.42066, 53.7008]}},
{"type": "Feature", "id": "OmIDR2y3G9ffaQ3oz0ZmcF-zArI=", "properties": {"ref": "1454", "@spider": "lidl_uk", "addr:full": "Glebe Way", "addr:city": "BR4 0RJ", "addr:postcode": "West Wickham", "addr:country": "GB", "name": "West Wickham", "brand": "Lidl", "brand:wikidata": "Q151954"}, "geometry": {"type": "Point", "coordinates": [-0.01278, 51.3752]}},
{"type": "Feature", "id": "YT9VQPA0EPesdgASKK3kf27vSos=", "properties": {"ref": "1455", "@spider": "lidl_uk", "addr:full": "Scalford Road", "addr:city": "Melton Mowbray", "addr:postcode": "LE13 1JA", "addr:country": "GB", "name": "Melton Mowbray-Scalford Road", "brand": "Lidl", "brand:wikidata": "Q151954"}, "geometry": {"type": "Point", "coordinates": [-0.8878, 52.76823]}},
{"type": "Feature", "id": "yqSiuTif3ACEchigYOdvseXRleo=", "properties": {"ref": "1456", "@spider": "lidl_uk", "addr:full": "Plymouth Road", "addr:city": "PL7 4NF", "addr:postcode": "Plymouth", "addr:country": "GB", "name": "Plympton", "brand": "Lidl", "brand:wikidata": "Q151954"}, "geometry": {"type": "Point", "coordinates": [-4.07326, 50.39043]}},
{"type": "Feature", "id": "KWfqgsfDNs8EjQBnzoAGVPdY35M=", "properties": {"ref": "1457", "@spider": "lidl_uk", "addr:full": "Station Road", "addr:city": "CM9 4LQ", "addr:postcode": "Maldon", "addr:country": "GB", "name": "Maldon", "brand": "Lidl", "brand:wikidata": "Q151954"}, "geometry": {"type": "Point", "coordinates": [0.68043, 51.73538]}},
{"type": "Feature", "id": "ossdoiPzKWINC3rn6mjAXgyB98I=", "properties": {"ref": "1458", "@spider": "lidl_uk", "addr:full": "Gooshays Drive", "addr:city": "RM3 8AE", "addr:postcode": "Harold Hill", "addr:country": "GB", "name": "Harold Hill", "brand": "Lidl", "brand:wikidata": "Q151954"}, "geometry": {"type": "Point", "coordinates": [0.22471, 51.60574]}},
{"type": "Feature", "id": "SDfwsVv0-JwfUIMDtlaX3JtslBU=", "properties": {"ref": "1459", "@spider": "lidl_uk", "addr:full": "Station Road", "addr:city": "CF14 2FB", "addr:postcode": "Cardiff", "addr:country": "GB", "name": "Llandaff", "brand": "Lidl", "brand:wikidata": "Q151954"}, "geometry": {"type": "Point", "coordinates": [-3.22769, 51.50374]}},
{"type": "Feature", "id": "Uxsnd7LZ_k6NnXOGwnbZn51PIPg=", "properties": {"ref": "1461", "@spider": "lidl_uk", "addr:full": "Richmond Road", "addr:city": "TW1 2EF", "addr:postcode": "East Twickenham", "addr:country": "GB", "name": "East Twickenham", "brand": "Lidl", "brand:wikidata": "Q151954"}, "geometry": {"type": "Point", "coordinates": [-0.31014, 51.45573]}},
{"type": "Feature", "id": "Y5Xf4IrTI3KxS6_6vlqqN3Znvrk=", "properties": {"ref": "1462", "@spider": "lidl_uk", "addr:full": "217 Fosse Road North", "addr:city": "Leicester", "addr:postcode": "LE3 5EZ", "addr:country": "GB", "name": "Leicester Fosse Road", "brand": "Lidl", "brand:wikidata": "Q151954"}, "geometry": {"type": "Point", "coordinates": [-1.15204, 52.63985]}},
{"type": "Feature", "id": "_VvQw5mcxBwyVx7DOz3bkC-Qp7M=", "properties": {"ref": "1463", "@spider": "lidl_uk", "addr:full": "Moseley Road", "addr:city": "B12 9BS", "addr:postcode": "Birmingham", "addr:country": "GB", "name": "Balsall Heath", "brand": "Lidl", "brand:wikidata": "Q151954"}, "geometry": {"type": "Point", "coordinates": [-1.88672, 52.4557]}},
{"type": "Feature", "id": "yLBgWH3nI5DHhWA-9AnD_ECiqSY=", "properties": {"ref": "1464", "@spider": "lidl_uk", "addr:full": "Kentish Town Road 217-223", "addr:city": "London", "addr:postcode": "NW5 2JU", "addr:country": "GB", "name": "Kentish Town", "brand": "Lidl", "brand:wikidata": "Q151954"}, "geometry": {"type": "Point", "coordinates": [-0.1416, 51.54748]}},
{"type": "Feature", "id": "LrfxlsvEgOGgJgFxIhtFSZWPpSU=", "properties": {"ref": "1466", "@spider": "lidl_uk", "addr:full": "Wakefield Road", "addr:city": "HD6 1PE", "addr:postcode": "Brighouse", "addr:country": "GB", "name": "Brighouse", "brand": "Lidl", "brand:wikidata": "Q151954"},