{"type":"FeatureCollection","features":[{"type": "Feature", "id": "8rIPveZO79J4WvpwdOrLmCzcU1g=", "properties": {"ref": "5342", "@spider": "marstons_plc", "addr:full": "Elstree Way", "addr:city": "Swindon", "addr:state": "Wiltshire", "addr:postcode": "SN25 4YX", "addr:country": "GB", "name": "Abbey Meads", "phone": "01793 726208", "website": "https://www.abbeymeadsswindon.co.uk/", "brand": "Marstons Plc"}, "geometry": {"type": "Point", "coordinates": [-1.793553, 51.59877]}},
{"type": "Feature", "id": "7ETXUJAmjwLAiyaa2_jrZ0W-QoY=", "properties": {"ref": "91539", "@spider": "marstons_plc", "addr:full": "James Street", "addr:city": "Selby", "addr:state": "North Yorkshire", "addr:postcode": "YO8 4PY", "addr:country": "GB", "name": "Abbey Vaults", "phone": "01757 702857", "website": "https://www.abbeyvaultspub.co.uk/", "brand": "Marstons Plc"}, "geometry": {"type": "Point", "coordinates": [-1.068534, 53.782936]}},
{"type": "Feature", "id": "rT5NIXurZhdFw9rxmb4a3tzhGjk=", "properties": {"ref": "6649", "@spider": "marstons_plc", "addr:full": "Horeston Grange", "addr:city": "Nuneaton", "addr:state": "Warwickshire", "addr:postcode": "CV11 6GU", "addr:country": "GB", "name": "Acorn", "phone": "02476 352166", "website": "https://www.acornpub.co.uk/", "brand": "Marstons Plc"}, "geometry": {"type": "Point", "coordinates": [-1.438416, 52.52662]}},
{"type": "Feature", "id": "fbu8NTp0PLhGQTgLiDAyFv6dD1A=", "properties": {"ref": "16228", "@spider": "marstons_plc", "addr:full": "Market Place", "addr:city": "Wragby", "addr:state": "Lincolnshire", "addr:postcode": "LN8 5QU", "addr:country": "GB", "name": "Adam & Eve", "brand": "Marstons Plc"}, "geometry": {"type": "Point", "coordinates": [-0.30256, 53.286995]}},
{"type": "Feature", "id": "VW8_m3o0kJGR2LY10V-hdlV0mEM=", "properties": {"ref": "91312", "@spider": "marstons_plc", "addr:full": "Chickerell Road", "addr:city": "Weymouth", "addr:state": "Dorset", "addr:postcode": "DT4 0QU", "addr:country": "GB", "name": "Admiral Hardy", "phone": "01305 784754", "website": "https://www.admiralhardypub.co.uk/", "brand": "Marstons Plc"}, "geometry": {"type": "Point", "coordinates": [-2.474496, 50.607822]}},
{"type": "Feature", "id": "TkhMCWTsqLpqb0SBdE36PTYu1rs=", "properties": {"ref": "93230", "@spider": "marstons_plc", "addr:full": "239 Cowbridge Road East", "addr:city": "Cardiff", "addr:state": "Cardiff", "addr:postcode": "CF11 9AL", "addr:country": "GB", "name": "Admiral Napier Hotel", "phone": "02920 303945", "website": "http://www.marstons.co.uk/", "brand": "Marstons Plc"}, "geometry": {"type": "Point", "coordinates": [-3.199805, 51.48121]}},
{"type": "Feature", "id": "-VBFRMfxDDt-M4d8NgmNKSTQLHc=", "properties": {"ref": "91313", "@spider": "marstons_plc", "addr:full": "Bristol Road", "addr:city": "Bridgwater", "addr:state": "Somerset", "addr:postcode": "TA6 4TN", "addr:country": "GB", "name": "Admiral's Table", "phone": "01278685671", "website": "https://www.admiralstablepubbridgwater.co.uk/", "brand": "Marstons Plc"}, "geometry": {"type": "Point", "coordinates": [-2.986377, 51.16223]}},
{"type": "Feature", "id": "LoZRmA9QgHXtRqqIhD9zW05fjhw=", "properties": {"ref": "93112", "@spider": "marstons_plc", "addr:full": "105 Donald Street", "addr:city": "Cardiff", "addr:state": "Cardiff", "addr:postcode": "CF24 4TL", "addr:country": "GB", "name": "Albany Hotel", "phone": "02920 311075", "website": "https://sabrainpubs.com/pubs-and-hotels/south-wales/cardiff/albany", "brand": "Marstons Plc"}, "geometry": {"type": "Point", "coordinates": [-3.170612, 51.496147]}},
{"type": "Feature", "id": "7QIAmTGZrxA6NXe7cx5tTg111fU=", "properties": {"ref": "40019", "@spider": "marstons_plc", "addr:full": "32 Stanley Street", "addr:city": "Holyhead", "addr:state": "Gwynedd", "addr:postcode": "LL65 1HL", "addr:country": "GB", "name": "Albert Vaults", "phone": "01407238349", "website": "https://www.marstons.co.uk/", "brand": "Marstons Plc"}, "geometry": {"type": "Point", "coordinates": [-4.633134, 53.31256]}},
{"type": "Feature", "id": "DLGVP13-17GfSiAwDkVHCBvrA7Q=", "properties": {"ref": "2222", "@spider": "marstons_plc", "addr:full": "17 Albion Street", "addr:city": "Rugeley", "addr:state": "Staffordshire", "addr:postcode": "WS15 2BY", "addr:country": "GB", "name": "Albion", "phone": "01889358416", "website": "https://www.marstons.co.uk/", "brand": "Marstons Plc"}, "geometry": {"type": "Point", "coordinates": [-1.93406, 52.759884]}},
{"type": "Feature", "id": "YZi3AgEc6YamNX0MZUTiCbC6bjE=", "properties": {"ref": "3380", "@spider": "marstons_plc", "addr:full": "Hanley", "addr:city": "Stoke on Trent", "addr:state": "Staffordshire", "addr:postcode": "ST1 1QS", "addr:country": "GB", "name": "Albion", "phone": "01782 287124", "brand": "Marstons Plc"}, "geometry": {"type": "Point", "coordinates": [-2.174509, 53.023953]}},
{"type": "Feature", "id": "F9aOxkcH54-KupdWsEfi6Dc4h-4=", "properties": {"ref": "90004", "@spider": "marstons_plc", "addr:full": "Shobnall Road", "addr:city": "Burton on Trent", "addr:state": "Staffordshire", "addr:postcode": "DE14 2BE", "addr:country": "GB", "name": "Albion", "phone": "01283 568197", "website": "https://www.albionpubburtonontrent.co.uk/", "brand": "Marstons Plc"}, "geometry": {"type": "Point", "coordinates": [-1.665422, 52.8097]}},
{"type": "Feature", "id": "59aHhQg8zcDvmhE56hyOSeHD9c8=", "properties": {"ref": "15153", "@spider": "marstons_plc", "addr:full": "Station Hill", "addr:city": "St Georges", "addr:state": "Shropshire", "addr:postcode": "TF2 9AD", "addr:country": "GB", "name": "Albion Inn", "phone": "01952614193", "website": "https://www.thealbioninn.co.uk/", "brand": "Marstons Plc"}, "geometry": {"type": "Point", "coordinates": [-2.442715, 52.695698]}},
{"type": "Feature", "id": "Z4b_6ls2ZkVkU9VrsEoYomkoyXs=", "properties": {"ref": "40032", "@spider": "marstons_plc", "addr:full": "160 High Street", "addr:city": "Bangor", "addr:state": "Gwynedd", "addr:postcode": "LL57 1NU", "addr:country": "GB", "name": "Albion Inn", "phone": "01248208556", "brand": "Marstons Plc"}, "geometry": {"type": "Point", "coordinates": [-4.127575, 53.225494]}},
{"type": "Feature", "id": "ZpDjNjtYhMSFWXrv9Q8MuM5b--M=", "properties": {"ref": "92558", "@spider": "marstons_plc", "addr:full": "Worksop Road", "addr:city": "Ollerton", "addr:state": "Nottinghamshire", "addr:postcode": "NG22 9DR", "addr:country": "GB", "name": "Alders", "phone": "01623 272055", "website": "https://www.alderspubollerton.co.uk/", "brand": "Marstons Plc"}, "geometry": {"type": "Point", "coordinates": [-1.02732, 53.200165]}},
{"type": "Feature", "id": "D8AmxSnE2--bDxvofdTHOvhw0rc=", "properties": {"ref": "15138", "@spider": "marstons_plc", "addr:full": "59 Derby Road", "addr:city": "Melbourne", "addr:state": "Derbyshire", "addr:postcode": "DE73 8FE", "addr:country": "GB", "name": "Alma Inn", "phone": "01332 865607", "brand": "Marstons Plc"}, "geometry": {"type": "Point", "coordinates": [-1.429225, 52.824684]}},
{"type": "Feature", "id": "vjdMKwBuqgGt53sQ2uOEAYMfRrk=", "properties": {"ref": "91651", "@spider": "marstons_plc", "addr:full": "Bishop Burton", "addr:city": "Beverley", "addr:state": "East Yorkshire", "addr:postcode": "HU17 8QF", "addr:country": "GB", "name": "Altisidora", "phone": "01964 550284", "website": "https://www.altisidorapubbeverley.co.uk/", "brand": "Marstons Plc"}, "geometry": {"type": "Point", "coordinates": [-0.500337, 53.845512]}},
{"type": "Feature", "id": "lysJgWKzbf00lKJSMpVEG92jeHA=", "properties": {"ref": "9769", "@spider": "marstons_plc", "addr:full": "River Drive", "addr:city": "South Shields", "addr:state": "Tyne and Wear", "addr:postcode": "NE33 1JR", "addr:country": "GB", "name": "Alum House", "phone": "0191 4277245", "website": "https://www.marstons.co.uk/", "brand": "Marstons Plc"}, "geometry": {"type": "Point", "coordinates": [-1.441063, 54.997158]}},
{"type": "Feature", "id": "hDPzKO-3bdJySpINhHBlbYqGF0I=", "properties": {"ref": "15101", "@spider": "marstons_plc", "addr:full": "Chester Road", "addr:city": "Rossett", "addr:state": "Clwyd", "addr:postcode": "LL12 0HE", "addr:country": "GB", "name": "Alyn Hotel", "phone": "01244 570368", "website": "https://www.thealyn.co.uk/", "brand": "Marstons Plc"}, "geometry": {"type": "Point", "coordinates": [-2.952345, 53.107597]}},
{"type": "Feature", "id": "bSP5Ct4s7ATME98UmgZ4rQAuiJc=", "properties": {"ref": "90014", "@spider": "marstons_plc", "addr:full": "5 New Street", "addr:city": "Burton upon Trent", "addr:state": "Staffordshire", "addr:postcode": "DE14 3QN", "addr:country": "GB", "name": "Anchor", "phone": "01283 561005", "brand": "Marstons Plc"}, "geometry": {"type": "Point", "coordinates": [-1.632072, 52.800945]}},
{"type": "Feature", "id": "6Usb1MDnFZfWwGZ3hDDU-Qnf5kE=", "properties": {"ref": "91440", "@spider": "marstons_plc", "addr:full": "Test Lane,Redbridge", "addr:city": "Southampton", "addr:state": "Hampshire", "addr:postcode": "SO16 9BH", "addr:country": "GB", "name": "Anchor", "phone": "02381 843472", "brand": "Marstons Plc"}, "geometry": {"type": "Point", "coordinates": [-1.474495, 50.922558]}},
{"type": "Feature", "id": "nV6DkokCOJLP_6C89VNHrTQH7Y0=", "properties": {"ref": "2592", "@spider": "marstons_plc", "addr:full": "Diglis Road", "addr:city": "Worcester", "addr:state": "Worcestershire", "addr:postcode": "WR5 3BW", "addr:country": "GB", "name": "Anchor Inn", "phone": "01905 351094", "website": "https://www.marstons.co.uk/", "brand": "Marstons Plc"}, "geometry": {"type": "Point", "coordinates": [-2.219507, 52.18415]}},
{"type": "Feature", "id": "jjQfGC57dVs3E_aS3y5oVnmQId8=", "properties": {"ref": "3529", "@spider": "marstons_plc", "addr:full": "Brownhills", "addr:city": "Walsall", "addr:state": "West Midlands", "addr:postcode": "WS8 6DP", "addr:country": "GB", "name": "Anchor Inn", "phone": "01543360219", "website": "https://www.anchorinnpubwalsall.co.uk/", "brand": "Marstons Plc"}, "geometry": {"type": "Point", "coordinates": [-1.920645, 52.639614]}},
{"type": "Feature", "id": "UMqo32dJPhgVJXSqxnmdB1uSHJs=", "properties": {"ref": "15199", "@spider": "marstons_plc", "addr:full": "Bollards Lane", "addr:city": "Sutton Bonington", "addr:state": "Leicestershire", "addr:postcode": "LE12 5PA", "addr:country": "GB", "name": "Anchor Inn", "phone": "01509 673648", "website": "https://www.marstons.co.uk/", "brand": "Marstons Plc"}, "geometry": {"type": "Point", "coordinates": [-1.253174, 52.8245]}},
{"type": "Feature", "id": "IcJ0XxYUy1Tbw6NnLOyBFbXBaO0=", "properties": {"ref": "15227", "@spider": "marstons_plc", "addr:full": "Church Street", "addr:city": "Burbage", "addr:state": "Leicestershire", "addr:postcode": "LE10 2DA", "addr:country": "GB", "name": "Anchor Inn", "phone": "01455636107", "website": "https://www.marstons.co.uk/", "brand": "Marstons Plc"}, "geometry": {"type": "Point", "coordinates": [-1.348228, 52.528225]}},
{"type": "Feature", "id": "W70LQuFdS0ZbhLRrC-yWUJM7RcE=", "properties": {"ref": "91895", "@spider": "marstons_plc", "addr:full": "Hurley 118 Hurley Common", "addr:city": "Atherstone", "addr:state": "Warwickshire", "addr:postcode": "CV9 2LR", "addr:country": "GB", "name": "Anchor Inn", "phone": "01827 870157", "brand": "Marstons Plc"}, "geometry": {"type": "Point", "coordinates": [-1.644712, 52.570686]}},
{"type": "Feature", "id": "RDtgf67ddJLeZocP3jp8Vxzl3rQ=", "properties": {"ref": "17002", "@spider": "marstons_plc", "addr:full": "Market Place", "addr:city": "Whitehaven", "addr:state": "Cumbria", "addr:postcode": "CA28 7JB", "addr:country": "GB", "name": "Anchor Vaults", "phone": "01946 328176", "brand": "Marstons Plc"}, "geometry": {"type": "Point", "coordinates": [-3.590947, 54.546883]}},
{"type": "Feature", "id": "WSwvQ1uu4kvM7hn4euTXVCdVEms=", "properties": {"ref": "2593", "@spider": "marstons_plc", "addr:full": "Severnside", "addr:city": "Stourport on Severn", "addr:state": "Worcestershire", "addr:postcode": "DY13 9EW", "addr:country": "GB", "name": "Angel", "phone": "01299513172", "website": "https://www.angelpubstourport.co.uk/", "brand": "Marstons Plc"}, "geometry": {"type": "Point", "coordinates": [-2.279158, 52.336517]}},
{"type": "Feature", "id": "vJxFpbHPRdIoODC-aVNqAJFt3AQ=", "properties": {"ref": "90024", "@spider": "marstons_plc", "addr:full": "Winshill", "addr:city": "Burton on Trent", "addr:state": "Staffordshire", "addr:postcode": "DE15 0JW", "addr:country": "GB", "name": "Anglesey Arms", "phone": "01283 564791", "website": "https://www.angleseyarmspubburtonontrent.co.uk/", "brand": "Marstons Plc"}, "geometry": {"type": "Point", "coordinates": [-1.608291, 52.80647]}},
{"type": "Feature", "id": "rFwtaprYcTxgiNJ5UObfdXTAHCo=", "properties": {"ref": "90025", "@spider": "marstons_plc", "addr:full": "Tyn-y-Cae", "addr:city": "Caernafon", "addr:state": "Gwynedd", "addr:postcode": "LL55 1SG", "addr:country": "GB", "name": "Anglesey Arms", "phone": "01286 672158", "brand": "Marstons Plc"}, "geometry": {"type": "Point", "coordinates": [-4.278353, 53.13973]}},
{"type": "Feature", "id": "_u5KCE_qo7mOslOUCWa3kOITX1M=", "properties": {"ref": "91655", "@spider": "marstons_plc", "addr:full": "1082 Holderness Road", "addr:city": "Hull", "addr:state": "East Yorkshire", "addr:postcode": "HU9 4AH", "addr:country": "GB", "name": "Apollo", "phone": "01482703908", "website": "https://www.apollohull.co.uk/", "brand": "Marstons Plc"}, "geometry": {"type": "Point", "coordinates": [-0.271139, 53.7717]}},
{"type": "Feature", "id": "GVnEZbxmF0mMYWgkA4AF7LucK4k=", "properties": {"ref": "92113", "@spider": "marstons_plc", "addr:full": "Bellona Drive", "addr:city": "Peterborough", "addr:state": "Cambridgeshire", "addr:postcode": "PE2 8GP", "addr:country": "GB", "name": "Apple Cart", "phone": "01733302480", "website": "https://www.applecartpubpeterborough.co.uk/", "brand": "Marstons Plc"}, "geometry": {"type": "Point", "coordinates": [-0.214236, 52.54604]}},
{"type": "Feature", "id": "CwcUdBH_f_gpq_xVtZ5ieOiVxfU=", "properties": {"ref": "3383", "@spider": "marstons_plc", "addr:full": "5 Central Drive", "addr:city": "Bilston", "addr:state": "West Midlands", "addr:postcode": "WV14 9EW", "addr:country": "GB", "name": "Apple Tree Inn", "phone": "01902 887642", "website": "https://www.appletreeinnbilston.co.uk/", "brand": "Marstons Plc"}, "geometry": {"type": "Point", "coordinates": [-2.087549, 52.5394]}},
{"type": "Feature", "id": "9dOwljSkIZ4F9IDVPaI017HbIks=", "properties": {"ref": "91315", "@spider": "marstons_plc", "addr:full": "The Forum", "addr:city": "Yeovil", "addr:state": "Somerset", "addr:postcode": "BA21 3TL", "addr:country": "GB", "name": "Arrow", "phone": "01935476972", "website": "https://www.arrowyeovil.co.uk/", "brand": "Marstons Plc"}, "geometry": {"type": "Point", "coordinates": [-2.664474, 50.94993]}},
{"type": "Feature", "id": "h1QqxxE6U5xx8cufqwg1cleTNSQ=", "properties": {"ref": "5667", "@spider": "marstons_plc", "addr:full": "Armitage Road", "addr:city": "Rugeley", "addr:state": "Staffordshire", "addr:postcode": "WS15 1PL", "addr:country": "GB", "name": "Ash Tree", "phone": "01889 578314", "website": "https://www.ashtreepub.co.uk/", "brand": "Marstons Plc"}, "geometry": {"type": "Point", "coordinates": [-1.909935, 52.74634]}},
{"type": "Feature", "id": "XbGspb7CudEXYf0DT490_DhTDbs=", "properties": {"ref": "15476", "@spider": "marstons_plc", "addr:full": "80 Areley Common", "addr:city": "Stourport on Severn", "addr:state": "Worcestershire", "addr:postcode": "DY13 0NP", "addr:country": "GB", "name": "Astley Cross", "phone": "01299 823092", "website": "https://www.marstons.co.uk/", "brand": "Marstons Plc"}, "geometry": {"type": "Point", "coordinates": [-2.291826, 52.323452]}},
{"type": "Feature", "id": "yqjSsGNQ2XnSiLh9MZkimDruJZk=", "properties": {"ref": "91951", "@spider": "marstons_plc", "addr:full": "Highfield Road", "addr:city": "Nuneaton", "addr:state": "Warwickshire", "addr:postcode": "CV11 4PL", "addr:country": "GB", "name": "Attleborough Arms", "phone": "02476 383231", "website": "https://www.attleborougharmspub.co.uk/", "brand": "Marstons Plc"}, "geometry": {"type": "Point", "coordinates": [-1.455653, 52.51532]}},
{"type": "Feature", "id": "Xqz9ebBMJeTK6OUGyGtF0MjWN6k=", "properties": {"ref": "93113", "@spider": "marstons_plc", "addr:full": "Swansea Road", "addr:city": "Cardiff", "addr:state": "Cardiff", "addr:postcode": "CF5 6TQ", "addr:country": "GB", "name": "Aubrey Arms", "phone": "01446 781210", "website": "https://sabrainpubs.com/pubs-and-hotels/south-wales/cardiff/aubrey-arms", "brand": "Marstons Plc"}, "geometry": {"type": "Point", "coordinates": [-3.359606, 51.45634]}},
{"type": "Feature", "id": "qtdBRAc4-hqgXDU-UeFiKHU_PqQ=", "properties": {"ref": "91611", "@spider": "marstons_plc", "addr:full": "10-12 Market Square", "addr:city": "Northampton", "addr:state": "Northamptonshire", "addr:postcode": "NN1 2DL", "addr:country": "GB", "name": "Auctioneers", "phone": "01604 259849", "website": "https://www.auctioneerspub.co.uk/", "brand": "Marstons Plc"}, "geometry": {"type": "Point", "coordinates": [-0.896945, 52.237995]}},
{"type": "Feature", "id": "SXivzp4FpvS8D5BOsi99iSfJmJA=", "properties": {"ref": "9661", "@spider": "marstons_plc", "addr:full": "227 Bristol Road", "addr:city": "Gloucester", "addr:state": "Gloucestershire", "addr:postcode": "GL1 5TH", "addr:country": "GB", "name": "Avenue", "phone": "01452 423468", "website": "https://www.avenuepub.co.uk/", "brand": "Marstons Plc"}, "geometry": {"type": "Point", "coordinates": [-2.257641, 51.850338]}},
{"type": "Feature", "id": "Xl9iJVV3BFWZeP6L4bVQ_PuB0VQ=", "properties": {"ref": "91442", "@spider": "marstons_plc", "addr:full": "75 Castle Street", "addr:city": " Salisbury", "addr:state": "Wiltshire", "addr:postcode": "SP1 3SP", "addr:country": "GB", "name": "Avon Brewery", "phone": "01722 33 4744", "website": "https://www.vonbrewerypub.co.uk/", "brand": "Marstons Plc"}, "geometry": {"type": "Point", "coordinates": [-1.79646, 51.07171]}},
{"type": "Feature", "id": "w2xZhW6FWuxlgXFQ4-IMrLZCSjs=", "properties": {"ref": "91361", "@spider": "marstons_plc", "addr:full": "10 Oxford Street", "addr:city": "Newbury", "addr:state": "Berkshire", "addr:postcode": "RG14 1JB", "addr:country": "GB", "name": "Bacon Arms", "phone": "0163531822", "website": "https://www.baconarmspub.co.uk/", "brand": "Marstons Plc"}, "geometry": {"type": "Point", "coordinates": [-1.325768, 51.40611]}},
{"type": "Feature", "id": "sDlnfcQdncbt0bAhZze-75PMbK4=", "properties": {"ref": "5100", "@spider": "marstons_plc", "addr:full": "Stoke Gifford", "addr:city": "Bristol", "addr:state": "Gloucestershire", "addr:postcode": "BS32 8BH", "addr:country": "GB", "name": "Bailey's Court Inn", "phone": "01179 236486", "website": "https://www.baileyscourtinnpub.co.uk/", "brand": "Marstons Plc"}, "geometry": {"type": "Point", "coordinates": [-2.539092, 51.52481]}},
{"type": "Feature", "id": "q3YZmVXoDc9x-_KmKPxP6Lp0Bf4=", "properties": {"ref": "91444", "@spider": "marstons_plc", "addr:full": "140 Monmouth Road", "addr:city": " Dorchester", "addr:state": "Dorset", "addr:postcode": "DT1 2DH", "addr:country": "GB", "name": "Bakers Arms", "phone": "01305264382", "website": "https://www.marstons.co.uk/", "brand": "Marstons Plc"}, "geometry": {"type": "Point", "coordinates": [-2.430709, 50.709126]}},
{"type": "Feature", "id": "YMO6LvK8_9noCdxFxDCBvr5Z2R0=", "properties": {"ref": "15440", "@spider": "marstons_plc", "addr:full": "Worcester Road", "addr:city": "Malvern Link", "addr:state": "Worcestershire", "addr:postcode": "WR14 1SS", "addr:country": "GB", "name": "Bakery Inn", "phone": "01684 574465", "website": "http://www.kings-arms-horbury.business.site/", "brand": "Marstons Plc"}, "geometry": {"type": "Point", "coordinates": [-2.315694, 52.127007]}},
{"type": "Feature", "id": "b9R2OjJls11rJ7-p1cM9_jme5xg=", "properties": {"ref": "40800", "@spider": "marstons_plc", "addr:full": "1 Copperas Lane", "addr:city": "Aspull", "addr:state": "Greater Manchester", "addr:postcode": "WN2 1PA", "addr:country": "GB", "name": "Balcarres Arms", "phone": "01942 833018", "website": "https://www.balcarrespubwigan.co.uk/", "brand": "Marstons Plc"}, "geometry": {"type": "Point", "coordinates": [-2.594189, 53.577072]}},
{"type": "Feature", "id": "8MsxFZsK1EzjqRza6LB2wy7eBPQ=", "properties": {"ref": "91329", "@spider": "marstons_plc", "addr:full": "423 Charminster Road", "addr:city": "Bournemouth", "addr:state": "Dorset", "addr:postcode": "BH8 9QY", "addr:country": "GB", "name": "Fiveways", "phone": "01202549673", "website": "https://www.fivewayspub.co.uk/", "brand": "Marstons Plc"}, "geometry": {"type": "Point", "coordinates": [-1.86183, 50.74369]}},
{"type": "Feature", "id": "4FIPB9L8olsQvgg35NJyETjz_QE=", "properties": {"ref": "40898", "@spider": "marstons_plc", "addr:full": "The Village Holme", "addr:city": "Huddersfield", "addr:state": "West Yorkshire", "addr:postcode": "HD9 2QG", "addr:country": "GB", "name": "Fleece", "phone": "01484 683449", "website": "https://www.fleeceinnholme.co.uk/", "brand": "Marstons Plc"}, "geometry": {"type": "Point", "coordinates": [-1.838259, 53.549507]}},
{"type": "Feature", "id": "JAK1mPgs-6JBbpgKHwgj9BbLsfE=", "properties": {"ref": "91946", "@spider": "marstons_plc", "addr:full": "Coulsdon Road", "addr:city": "Surrey", "addr:state": "Surrey", "addr:postcode": "CR3 5QX", "addr:country": "GB", "name": "Fleeting Brook", "phone": "01883 818087", "website": "https://www.fleetingbrookpubcaterham.co.uk/", "brand": "Marstons Plc"}, "geometry": {"type": "Point", "coordinates": [-0.102006, 51.291233]}},
{"type": "Feature", "id": "cqUnV8DJhvS4nHih1aGjcCEhMYo=", "properties": {"ref": "92931", "@spider": "marstons_plc", "addr:full": "Roston Drive", "addr:city": " Hinckley", "addr:state": "Leicestershire", "addr:postcode": "LE10 0XP", "addr:country": "GB", "name": "Flintlock", "phone": "01455890109", "website": "https://www.flintlockpubhinckley.co.uk/", "brand": "Marstons Plc"}, "geometry": {"type": "Point", "coordinates": [-1.392401, 52.54243]}},
{"type": "Feature", "id": "jV7umIRk4PrFeSy0KBePx5LsFoU=", "properties": {"ref": "8758", "@spider": "marstons_plc", "addr:full": "Woodstone Village", "addr:city": "Fencehouses", "addr:state": "County Durham", "addr:postcode": "DH4 6BQ", "addr:country": "GB", "name": "Floater's Mill", "phone": "01913408272", "website": "https://www.floatermillspubfencehouses.co.uk/", "brand": "Marstons Plc"}, "geometry": {"type": "Point", "coordinates": [-1.517077, 54.85106]}},
{"type": "Feature", "id": "HMegn9waJ9GHGAchCi4g9b18NjM=", "properties": {"ref": "92757", "@spider": "marstons_plc", "addr:full": "Aberford Road", "addr:city": "Garforth", "addr:state": "West Yorkshire", "addr:postcode": "LS25 2EB", "addr:country": "GB", "name": "Fly Line Garforth", "phone": "0113 493 1918", "website": "https://www.theflylinepubgarforth.co.uk/", "brand": "Marstons Plc"}, "geometry": {"type": "Point", "coordinates": [-1.375309, 53.79671]}},
{"type": "Feature", "id": "xJhJBKcLMCpxQyEVRutoDrcfwvY=", "properties": {"ref": "90279", "@spider": "marstons_plc", "addr:full": "Kirby Bellars", "addr:city": "Nr. Melton Mowbray", "addr:state": "Leicestershire", "addr:postcode": "LE14 2DU", "addr:country": "GB", "name": "Flying Childers", "phone": "01664 813972", "website": "https://www.flyingchilderspub.co.uk/", "brand": "Marstons Plc"}, "geometry": {"type": "Point", "coordinates": [-0.941065, 52.750893]}},
{"type": "Feature", "id": "Tse_1vMPBWUaHGdHOXi0LOlDaKo=", "properties": {"ref": "92938", "@spider": "marstons_plc", "addr:full": "Nostell Place", "addr:city": " Doncaster", "addr:state": "South Yorkshire", "addr:postcode": "DN4 7JA", "addr:country": "GB", "name": "Flying Childers", "phone": "01302536592", "website": "https://www.flyingchilderspubdoncaster.co.uk/", "brand": "Marstons Plc"}, "geometry": {"type": "Point", "coordinates": [-1.088022, 53.500237]}},
{"type": "Feature", "id": "b-aPwUvznVFdUHO4N5BHT0hRPI0=", "properties": {"ref": "92398", "@spider": "marstons_plc", "addr:full": "Three Counties Way", "addr:city": "Haverhill", "addr:state": "Suffolk", "addr:postcode": "CB9 7FB", "addr:country": "GB", "name": "Flying Shuttle", "phone": "01440 702853", "website": "https://www.flyingshuttlepubhaverhill.co.uk/", "brand": "Marstons Plc"}, "geometry": {"type": "Point", "coordinates": [0.404644, 52.092964]}},
{"type": "Feature", "id": "u7NYNDY_dRiVszh6fuOTLy7y4NI=", "properties": {"ref": "92795", "@spider": "marstons_plc", "addr:full": "Clayton Road", "addr:city": "Bradford", "addr:state": "West Yorkshire", "addr:postcode": "BD7 2SG", "addr:country": "GB", "name": "Flying Squirrel", "phone": "01274 062690", "website": "https://www.theflyingsquirrelpubbradford.co.uk/", "brand": "Marstons Plc"}, "geometry": {"type": "Point", "coordinates": [-1.795884, 53.783405]}},
{"type": "Feature", "id": "zObcBeuNF-ZJDQBjFLvzdG_NlUo=", "properties": {"ref": "40647", "@spider": "marstons_plc", "addr:full": "5 Frobisher Street", "addr:city": "Norton Green", "addr:state": "Staffordshire", "addr:postcode": "ST6 8PD", "addr:country": "GB", "name": "Foaming Quart", "phone": "01782911171", "website": "https://www.foamingquartpub.co.uk/", "brand": "Marstons Plc"}, "geometry": {"type": "Point", "coordinates": [-2.150071, 53.066082]}},
{"type": "Feature", "id": "gR68UH1b1yrBw1r6yqVRYtU9P4w=", "properties": {"ref": "92939", "@spider": "marstons_plc", "addr:full": "293 Foley Road West", "addr:city": " Sutton Coldfield", "addr:state": "West Midlands", "addr:postcode": "B74 3NU", "addr:country": "GB", "name": "Foley Arms", "phone": "01215808471", "website": "https://www.foleyarmspub.co.uk/", "brand": "Marstons Plc"}, "geometry": {"type": "Point", "coordinates": [-1.90202, 52.58186]}},
{"type": "Feature", "id": "bETkvUqHTT6YKxQhZAcF8NRN4Qs=", "properties": {"ref": "3928", "@spider": "marstons_plc", "addr:full": "Stableford", "addr:city": "Bridgnorth", "addr:state": "Shropshire", "addr:postcode": "WV15 5LR", "addr:country": "GB", "name": "Folley Inn", "brand": "Marstons Plc"}, "geometry": {"type": "Point", "coordinates": [-2.34235, 52.57849]}},
{"type": "Feature", "id": "bQqtCt4b1PE3fnj3JK5sSfc6xK0=", "properties": {"ref": "91821", "@spider": "marstons_plc", "addr:full": "Westerleigh Road", "addr:city": "Emersons Green", "addr:state": "Gloucestershire", "addr:postcode": "BS16 7AJ", "addr:country": "GB", "name": "Folly", "phone": "01179 573961", "website": "https://www.follypub.co.uk/", "brand": "Marstons Plc"}, "geometry": {"type": "Point", "coordinates": [-2.479038, 51.50237]}},
{"type": "Feature", "id": "Hc1WizPWfN0hVZDuN6qNPCpgHW8=", "properties": {"ref": "16146", "@spider": "marstons_plc", "addr:full": "Forest Road", "addr:city": "Skegby", "addr:state": "Nottinghamshire", "addr:postcode": "NG17 3BB", "addr:country": "GB", "name": "Forest Tavern", "phone": "01623 550126", "website": "https://www.foresttavernpub.co.uk/", "brand": "Marstons Plc"}, "geometry": {"type": "Point", "coordinates": [-1.252079, 53.13667]}},
{"type": "Feature", "id": "S5QbPLS9bR0aape2kXTC4OGGl6w=", "properties": {"ref": "16284", "@spider": "marstons_plc", "addr:full": "Beckside", "addr:city": "Beverley", "addr:state": "East Yorkshire", "addr:postcode": "HU17 0PR", "addr:country": "GB", "name": "Foresters Arms", "phone": "01482679012", "website": "https://www.forestersarmspub.co.uk/", "brand": "Marstons Plc"}, "geometry": {"type": "Point", "coordinates": [-0.411937, 53.83969]}},
{"type": "Feature", "id": "D96H2deLMEOEGkyaIDZrqSkUOxU=", "properties": {"ref": "4164", "@spider": "marstons_plc", "addr:full": "Pensnett", "addr:city": "Dudley", "addr:state": "West Midlands", "addr:postcode": "DY5 4TS", "addr:country": "GB", "name": "Forge", "phone": "01384 457359", "website": "https://www.forgepubdudley.co.uk/", "brand": "Marstons Plc"}, "geometry": {"type": "Point", "coordinates": [-2.1328, 52.5101]}},
{"type": "Feature", "id": "YMOx7mos56HHE3Ls__R4FjR8yfs=", "properties": {"ref": "92717", "@spider": "marstons_plc", "addr:full": "39A Queensferry Road", "addr:city": "Edinburgh", "addr:postcode": "EH2 4RA", "addr:country": "GB", "name": "Foundry 39", "phone": "01315106766", "brand": "Marstons Plc"}, "geometry": {"type": "Point", "coordinates": [-3.208886, 55.950714]}},
{"type": "Feature", "id": "CFpOuTQXh9d_L5JUqvQRTDPPFIs=", "properties": {"ref": "91452", "@spider": "marstons_plc", "addr:full": "58 Lagland Street", "addr:city": " Poole", "addr:state": "Dorset", "addr:postcode": "BH15 1QG", "addr:country": "GB", "name": "Foundry Arms", "phone": "01202 772600", "website": "https://www.thefoundryarms.co.uk/", "brand": "Marstons Plc"}, "geometry": {"type": "Point", "coordinates": [-1.983854, 50.715424]}},
{"type": "Feature", "id": "YI5JltgFLpLxHi00pt0Nue8uAZM=", "properties": {"ref": "92745", "@spider": "marstons_plc", "addr:full": "1 - 1a The Ginnel", "addr:city": "Harrogate", "addr:state": "North Yorkshire", "addr:postcode": "HG1 2RB", "addr:country": "GB", "name": "Foundry Project", "phone": "01423740701", "website": "https://www.marstons.co.uk/", "brand": "Marstons Plc"}, "geometry": {"type": "Point", "coordinates": [-1.543069, 53.99322]}},
{"type": "Feature", "id": "VrtXu6ctOIUY8yUCirUyiYTNFFI=", "properties": {"ref": "91931", "@spider": "marstons_plc", "addr:full": "Thomas Street", "addr:city": "Manchester", "addr:state": "Greater Manchester", "addr:postcode": "M4 1BD", "addr:country": "GB", "name": "Foundry Project Manchester", "phone": "0161 839 7195", "website": "https://www.bluu.co.uk/", "brand": "Marstons Plc"}, "geometry": {"type": "Point", "coordinates": [-2.23686, 53.485104]}},
{"type": "Feature", "id": "XdX1FbHh1mslr7EWVgWedHfanPU=", "properties": {"ref": "4069", "@spider": "marstons_plc", "addr:full": "Clent", "addr:city": "Stourbridge", "addr:state": "West Midlands", "addr:postcode": "DY9 9PU", "addr:country": "GB", "name": "Fountain", "phone": "01562 883286", "website": "https://www.marstons.co.uk/", "brand": "Marstons Plc"}, "geometry": {"type": "Point", "coordinates": [-2.114031, 52.414963]}},
{"type": "Feature", "id": "eHMDjz1hj2i2dq_dDHV_lLMEsMs=", "properties": {"ref": "2675", "@spider": "marstons_plc", "addr:full": "Lye", "addr:city": "Stourbridge", "addr:state": "West Midlands", "addr:postcode": "DY9 7EW", "addr:country": "GB", "name": "Fox", "phone": "01384 424744", "brand": "Marstons Plc"}, "geometry": {"type": "Point", "coordinates": [-2.119195, 52.454487]}},
{"type": "Feature", "id": "yeVCK1Tlcc6MW9PLbLvvWgFTYAU=", "properties": {"ref": "5347", "@spider": "marstons_plc", "addr:full": "Broad Lane", "addr:city": "Bristol", "addr:state": "Gloucestershire", "addr:postcode": "BS37 7LD", "addr:country": "GB", "name": "Fox", "phone": "01454 227431", "website": "https://www.foxpub.co.uk/", "brand": "Marstons Plc"}, "geometry": {"type": "Point", "coordinates": [-2.434211, 51.550118]}},
{"type": "Feature", "id": "MtDEun9kVG_ePv6LqdMbKoe7rNA=", "properties": {"ref": "42325", "@spider": "marstons_plc", "addr:full": "Bridgwater Road", "addr:city": "Barrow Gurney", "addr:state": "Somerset", "addr:postcode": "BS48 3SL", "addr:country": "GB", "name": "Fox & Goose", "phone": "01275 472202", "website": "https://www.foxgoosepub.co.uk/", "brand": "Marstons Plc"}, "geometry": {"type": "Point", "coordinates": [-2.675062, 51.399113]}},
{"type": "Feature", "id": "82Q782SGXAbNyN5DFb7JVWrkxIs=", "properties": {"ref": "17003", "@spider": "marstons_plc", "addr:full": "47 Main Street", "addr:city": "Keswick", "addr:state": "Cumbria", "addr:postcode": "CA12 5DS", "addr:country": "GB", "name": "Bank Tavern", "phone": "01768 772663", "brand": "Marstons Plc"}, "geometry": {"type": "Point", "coordinates": [-3.138951, 54.60144]}},
{"type": "Feature", "id": "WX_pbIJDUFz8_7xJay5Wj2D32Ek=", "properties": {"ref": "92724", "@spider": "marstons_plc", "addr:full": "Bankfield Road", "addr:city": "Bilston", "addr:state": "West Midlands", "addr:postcode": "WV14 0EE", "addr:country": "GB", "name": "Bankfield Inn", "phone": "01902504795", "website": "https://www.bankfieldinnpubbilston.co.uk/", "brand": "Marstons Plc"}, "geometry": {"type": "Point", "coordinates": [-2.076031, 52.56269]}},
{"type": "Feature", "id": "t-FoxuI0i7Iw9y9ToTHOFNTjWt8=", "properties": {"ref": "91826", "@spider": "marstons_plc", "addr:full": "1-3 St. George's Square", "addr:city": "New Malden", "addr:state": "Greater London", "addr:postcode": "KT3 4HG", "addr:country": "GB", "name": "Bar Malden", "phone": "02089420656", "website": "https://www.barmaldenpub.co.uk/", "brand": "Marstons Plc"}, "geometry": {"type": "Point", "coordinates": [-0.256304, 51.403565]}},
{"type": "Feature", "id": "tZgnbYuSCsYt8ZNmihe_tKGLnbE=", "properties": {"ref": "3388", "@spider": "marstons_plc", "addr:full": "16 Court Street", "addr:city": "Madeley", "addr:state": "Shropshire", "addr:postcode": "TF7 5EB", "addr:country": "GB", "name": "Barley Mow", "phone": "01952 877136", "brand": "Marstons Plc"}, "geometry": {"type": "Point", "coordinates": [-2.449764, 52.63725]}},
{"type": "Feature", "id": "oIaiMwZ0L0evDtVoX8MzXv0mBUM=", "properties": {"ref": "42111", "@spider": "marstons_plc", "addr:full": "Mwyndy", "addr:city": "Pontyclun", "addr:state": "Cardiff", "addr:postcode": "CF72 8PJ", "addr:country": "GB", "name": "Barn", "phone": "01443222333", "website": "http://barnpontyclun.co.uk/", "brand": "Marstons Plc"}, "geometry": {"type": "Point", "coordinates": [-3.364002, 51.52529]}},
{"type": "Feature", "id": "pQNiJf0ZqInjQvKvH9SYsaSjkAg=", "properties": {"ref": "1231", "@spider": "marstons_plc", "addr:full": "Warndon", "addr:city": "Worcester", "addr:state": "Worcestershire", "addr:postcode": "WR4 9UP", "addr:country": "GB", "name": "Barn Owl", "phone": "01905 458615", "website": "https://www.barnowlpubworcester.co.uk/", "brand": "Marstons Plc"}, "geometry": {"type": "Point", "coordinates": [-2.17731, 52.21291]}},
{"type": "Feature", "id": "dTLJ63yNflRN3w2BvDutGlPHcnA=", "properties": {"ref": "91996", "@spider": "marstons_plc", "addr:full": "Thatcham Avenue", "addr:city": "Gloucester", "addr:state": "Gloucestershire", "addr:postcode": "GL2 2GS", "addr:country": "GB", "name": "Barn Owl", "phone": "01452 720523", "website": "https://www.barnowlpubquedgeley.co.uk/", "brand": "Marstons Plc"}, "geometry": {"type": "Point", "coordinates": [-2.268746, 51.82093]}},
{"type": "Feature", "id": "bA1yZe6JbJXBTuyKNB-Jlpv_FNw=", "properties": {"ref": "15302", "@spider": "marstons_plc", "addr:full": "Barton Turns", "addr:city": "Burton Upon Trent", "addr:state": "Staffordshire", "addr:postcode": "DE13 8EA", "addr:country": "GB", "name": "Barton Turns Inn", "phone": "01283 480682", "brand": "Marstons Plc"}, "geometry": {"type": "Point", "coordinates": [-1.702768, 52.760944]}},
{"type": "Feature", "id": "aVg5BAi0LKsbtr7SVXTQLnDuXe4=", "properties": {"ref": "90040", "@spider": "marstons_plc", "addr:full": "Chestergate", "addr:city": "Macclesfield", "addr:state": "Cheshire", "addr:postcode": "SK11 6BX", "addr:country": "GB", "name": "Bate Hall Hotel", "phone": "01625 611342", "website": "https://www.batehallpubmacclesfield.co.uk/", "brand": "Marstons Plc"}, "geometry": {"type": "Point", "coordinates": [-2.126588, 53.260838]}},
{"type": "Feature", "id": "6QF3J1igM1JHItsUcDZdQnED0gk=", "properties": {"ref": "32001", "@spider": "marstons_plc", "addr:full": "Two Mile Ash", "addr:city": "Horsham", "addr:state": "West Sussex", "addr:postcode": "RH13 0LA", "addr:country": "GB", "name": "Bax Castle", "phone": "01403730369", "website": "https://www.axcastle.co.uk/", "brand": "Marstons Plc"}, "geometry": {"type": "Point", "coordinates": [-0.356951, 51.0405]}},
{"type": "Feature", "id": "oSvbjDc85azbr7ZMDvFVKVrYYyk=", "properties": {"ref": "4517", "@spider": "marstons_plc", "addr:full": "High Street", "addr:city": "Great Broughton", "addr:state": "North Yorkshire", "addr:postcode": "TS9 7EF", "addr:country": "GB", "name": "Bay Horse", "phone": "01642 712319", "website": "https://www.marstons.co.uk/", "brand": "Marstons Plc"}, "geometry": {"type": "Point", "coordinates": [-1.156535, 54.448242]}},
{"type": "Feature", "id": "4JqxEr6x2KwYcbttgzbAdbybGp8=", "properties": {"ref": "5026", "@spider": "marstons_plc", "addr:full": "The Green", "addr:city": "Middridge", "addr:state": "County Durham", "addr:postcode": "DL5 7JD", "addr:country": "GB", "name": "Bay Horse", "phone": "01325 312653", "brand": "Marstons Plc"}, "geometry": {"type": "Point", "coordinates": [-1.613122, 54.62989]}},
{"type": "Feature", "id": "C9qyuctDYZk7QQpf5pPDju1e_l0=", "properties": {"ref": "16262", "@spider": "marstons_plc", "addr:full": "Main Street", "addr:city": "Cherry Burton", "addr:state": "East Yorkshire", "addr:postcode": "HU17 7RF", "addr:country": "GB", "name": "Bay Horse", "phone": "01964769242", "website": "https://www.marstons.co.uk/", "brand": "Marstons Plc"}, "geometry": {"type": "Point", "coordinates": [-0.495816, 53.86603]}},
{"type": "Feature", "id": "wMgXSNhGM7K63618GOdr7h70I-s=", "properties": {"ref": "17115", "@spider": "marstons_plc", "addr:full": "38 Low Green", "addr:city": "Catterick Village", "addr:state": "North Yorkshire", "addr:postcode": "DL10 7LP", "addr:country": "GB", "name": "Bay Horse", "phone": "01748 518400", "website": "https://www.bayhorsecatterickvillage.co.uk/", "brand": "Marstons Plc"}, "geometry": {"type": "Point", "coordinates": [-1.631765, 54.376247]}},
{"type": "Feature", "id": "JN5gzI9kwBge103jTTsov9Cbsu0=", "properties": {"ref": "15342", "@spider": "marstons_plc", "addr:full": "Two Gates", "addr:city": "Tamworth", "addr:state": "Staffordshire", "addr:postcode": "B77 1HW", "addr:country": "GB", "name": "Bulls Head", "phone": "01827259222", "website": "https://www.marstons.co.uk/", "brand": "Marstons Plc"}, "geometry": {"type": "Point", "coordinates": [-1.685207, 52.6128]}},
{"type": "Feature", "id": "ET8Va0GMquWgTFt-COvRkMUByBs=", "properties": {"ref": "15344", "@spider": "marstons_plc", "addr:full": "Youlgreave", "addr:city": "Youlgrave", "addr:state": "Bakewell", "addr:postcode": "DE45 1UR", "addr:country": "GB", "name": "Bulls Head", "phone": "01629636307", "website": "https://www.thebullsheadyoulgrave.co.uk/", "brand": "Marstons Plc"}, "geometry": {"type": "Point", "coordinates": [-1.686332, 53.175125]}},
{"type": "Feature", "id": "vND18OEMmOnw4Ppz3EhRWXJMrsc=", "properties": {"ref": "15378", "@spider": "marstons_plc", "addr:full": "Marchington", "addr:city": "Uttoxeter", "addr:state": "Staffordshire", "addr:postcode": "ST14 8LB", "addr:country": "GB", "name": "Bulls Head", "phone": "01283 820358", "website": "https://www.marstons.co.uk/", "brand": "Marstons Plc"}, "geometry": {"type": "Point", "coordinates": [-1.80442, 52.874493]}},
{"type": "Feature", "id": "mQCCUpVeHMqQNrvlh4Oa3NDt7nQ=", "properties": {"ref": "40074", "@spider": "marstons_plc", "addr:full": "84 London Road", "addr:city": "Manchester", "addr:state": "Greater Manchester", "addr:postcode": "M1 2PN", "addr:country": "GB", "name": "Bulls Head", "phone": "0161 2361724", "brand": "Marstons Plc"}, "geometry": {"type": "Point", "coordinates": [-2.231688, 53.476368]}},
{"type": "Feature", "id": "8_U9DfAuYkJVVVIQvMhiafiOXxA=", "properties": {"ref": "90142", "@spider": "marstons_plc", "addr:full": "Wilsthorpe Road", "addr:city": "Breaston", "addr:state": "Derbyshire", "addr:postcode": "DE72 3EA", "addr:country": "GB", "name": "Bulls Head", "phone": "01332 872118", "website": "https://www.bullsheadpubbreaston.co.uk/", "brand": "Marstons Plc"}, "geometry": {"type": "Point", "coordinates": [-1.312934, 52.898052]}},
{"type": "Feature", "id": "QVlCIkXerbknqngcbitCxU3mm1c=", "properties": {"ref": "92937", "@spider": "marstons_plc", "addr:full": "77 The Green", "addr:city": " Kings Norton", "addr:state": "West Midlands", "addr:postcode": "B38 8RU", "addr:country": "GB", "name": "Bulls Head", "phone": "01214862810", "website": "https://www.bullsheadpub.co.uk/", "brand": "Marstons Plc"}, "geometry": {"type": "Point", "coordinates": [-1.930498, 52.407105]}},
{"type": "Feature", "id": "yGW1-FBmoH-bjR9FIL463hkl3Zc=", "properties": {"ref": "15130", "@spider": "marstons_plc", "addr:full": "23 Forest Road", "addr:city": "Markfield", "addr:state": "Leicestershire", "addr:postcode": "LE67 9UN", "addr:country": "GB", "name": "Bulls Head Inn", "phone": "01530 610522", "brand": "Marstons Plc"}, "geometry": {"type": "Point", "coordinates": [-1.28287, 52.684586]}},
{"type": "Feature", "id": "ljYasIxT5_2G-Mwv6Ozk0Al7onQ=", "properties": {"ref": "91960", "@spider": "marstons_plc", "addr:full": "Sirhowy Enterprise Way", "addr:city": "Gwent", "addr:state": "Blackwood", "addr:postcode": "NP12 2FS", "addr:country": "GB", "name": "Bumble Bee", "phone": "01495 227319", "website": "https://www.bumblebeepub.co.uk/", "brand": "Marstons Plc"}, "geometry": {"type": "Point", "coordinates": [-3.191064, 51.661495]}},
{"type": "Feature", "id": "_MW6nkqu8iwoxrt-sWRTRy1jV8o=", "properties": {"ref": "91705", "@spider": "marstons_plc", "addr:full": "Bure Park", "addr:city": "Bicester", "addr:state": "Oxfordshire", "addr:postcode": "OX26  3HA", "addr:country": "GB", "name": "Bure Farm", "phone": "01869 327578", "website": "https://www.burefarmpub.co.uk/", "brand": "Marstons Plc"}, "geometry": {"type": "Point", "coordinates": [-1.155533, 51.91032]}},
{"type": "Feature", "id": "Ob6L8iAnGgMpGB2_S455sRdApV4=", "properties": {"ref": "8109", "@spider": "marstons_plc", "addr:full": "Hetton Road", "addr:city": "Houghton Le Spring", "addr:state": "Tyne and Wear", "addr:postcode": "DH5 8JN", "addr:country": "GB", "name": "Burn Inn", "phone": "01915 842130", "website": "https://www.burninnpubhoughton.co.uk/", "brand": "Marstons Plc"}, "geometry": {"type": "Point", "coordinates": [-1.465539, 54.8348]}},
{"type": "Feature", "id": "amUHkq7axTOg0iisi9OrAiWT8Cs=", "properties": {"ref": "3883", "@spider": "marstons_plc", "addr:full": "Shenley Brook End", "addr:city": "Milton Keynes", "addr:state": "Buckinghamshire", "addr:postcode": "MK5 7HH", "addr:country": "GB", "name": "Burnt Oak", "phone": "01908521968", "website": "https://www.burntoakpub.co.uk/", "brand": "Marstons Plc"}, "geometry": {"type": "Point", "coordinates": [-0.783575, 52.01449]}},
{"type": "Feature", "id": "b13jT3uzRlBGP-bwazzueMpjXU8=", "properties": {"ref": "91545", "@spider": "marstons_plc", "addr:full": "Arnold", "addr:city": "Nottingham", "addr:state": "Nottinghamshire", "addr:postcode": "NG5 8PQ", "addr:country": "GB", "name": "Burnt Stump", "phone": "0115 9631508", "website": "https://www.burntstumppub.co.uk/", "brand": "Marstons Plc"}, "geometry": {"type": "Point", "coordinates": [-1.132845, 53.048683]}},
{"type": "Feature", "id": "cJ5aUxe5VF972Jm6PL5xS6_2-D8=", "properties": {"ref": "3552", "@spider": "marstons_plc", "addr:full": "Dixons Green", "addr:city": "Dudley", "addr:state": "West Midlands", "addr:postcode": "DY2 8ED", "addr:country": "GB", "name": "Bush Inn", "phone": "01384 253753", "brand": "Marstons Plc"}, "geometry": {"type": "Point", "coordinates": [-2.074749, 52.50308]}},
{"type": "Feature", "id": "ZdNbCmIi0NN19o_pgVENI0vIZIk=", "properties": {"ref": "17019", "@spider": "marstons_plc", "addr:full": "Main Street", "addr:city": "Cockermouth", "addr:state": "Cumbria", "addr:postcode": "CA13 9JS", "addr:country": "GB", "name": "Bush Inn", "phone": "01900 822064", "website": "https://www.bushinncockermouth.co.uk/", "brand": "Marstons Plc"}, "geometry": {"type": "Point", "coordinates": [-3.366497, 54.663345]}},
{"type": "Feature", "id": "cxSIokxjrcPnpbouP3z_aeUzkRk=", "properties": {"ref": "8138", "@spider": "marstons_plc", "addr:full": "Middle Chare", "addr:city": "Chester Le Street", "addr:state": "County Durham", "addr:postcode": "DH3 3QD", "addr:country": "GB", "name": "Butchers Arms", "phone": "0191 3883605", "website": "https://www.marstons.co.uk/", "brand": "Marstons Plc"}, "geometry": {"type": "Point", "coordinates": [-1.573331, 54.85588]}},
{"type": "Feature", "id": "53DiIMPFPZSS-Omiqx43vzmq6Hc=", "properties": {"ref": "91844", "@spider": "marstons_plc", "addr:full": "88 High Street", "addr:city": "Poole", "addr:state": "Dorset", "addr:postcode": "BH15 1DB", "addr:country": "GB", "name": "Butler & Hops", "phone": "01202 662931", "website": "https://www.butlerhopspoole.co.uk/", "brand": "Marstons Plc"}, "geometry": {"type": "Point", "coordinates": [-1.985072, 50.7152]}},
{"type": "Feature", "id": "eaW_1btRx9iU-bv99qfvRd-7H7o=", "properties": {"ref": "91396", "@spider": "marstons_plc", "addr:full": "21-31 Frogmoor", "addr:city": "High Wycombe", "addr:state": "Buckinghamshire", "addr:postcode": "HP13 5DQ", "addr:country": "GB", "name": "Butlers", "phone": "01494558188", "website": "https://www.butlershighwycombe.co.uk/", "brand": "Marstons Plc"}, "geometry": {"type": "Point", "coordinates": [-0.753085, 51.63151]}},
{"type": "Feature", "id": "9s_4JFr4MNr9rBaTzt8Arjin_wk=", "properties": {"ref": "91637", "@spider": "marstons_plc", "addr:full": "60 Northgate", "addr:city": "Wakefield", "addr:state": "West Yorkshire", "addr:postcode": "WF1 3AP", "addr:country": "GB", "name": "Calder and Hops", "phone": "01924 299627", "website": "https://www.alderhopswakefield.co.uk/", "brand": "Marstons Plc"}, "geometry": {"type": "Point", "coordinates": [-1.499072, 53.68421]}},
{"type": "Feature", "id": "Yzax1VUUs7XuwsGI-owLoDUtZ0s=", "properties": {"ref": "93119", "@spider": "marstons_plc", "addr:full": "51 St Mary Street", "addr:city": "Cardiff", "addr:state": "Cardiff", "addr:postcode": "CF10 1AD", "addr:country": "GB", "name": "Cambrian Tap", "phone": "02920 644952", "website": "https://sabrainpubs.com/pubs-and-hotels/south-wales/cardiff/cambrian-tap", "brand": "Marstons Plc"}, "geometry": {"type": "Point", "coordinates": [-3.177094, 51.477665]}},
{"type": "Feature", "id": "b0VuZTtYhhcKxw3_8RudkaIF_BQ=", "properties": {"ref": "92170", "@spider": "marstons_plc", "addr:full": "Kingsway", "addr:city": "Bridgend", "addr:state": "Bridgend", "addr:postcode": "CF31 3RY", "addr:country": "GB", "name": "Cherry Laurel", "phone": "01656 360095", "website": "https://www.cherrylaurelpubbridgend.co.uk/", "brand": "Marstons Plc"}, "geometry": {"type": "Point", "coordinates": [-3.549005, 51.498894]}},
{"type": "Feature", "id": "uMoTPB0q0ZN9dzyfhnwOWHvJkHI=", "properties": {"ref": "7171", "@spider": "marstons_plc", "addr:full": "Barry Road", "addr:city": "Barry", "addr:state": "South Glamorgan", "addr:postcode": "CF62 8EH", "addr:country": "GB", "name": "Cherry Orchard", "phone": "01446 700580", "website": "https://www.cherryorchardpubbarry.co.uk/", "brand": "Marstons Plc"}, "geometry": {"type": "Point", "coordinates": [-3.277889, 51.40895]}},
{"type": "Feature", "id": "lA_g4MoJ149Omv0hcmEL1dFv3xI=", "properties": {"ref": "17022", "@spider": "marstons_plc", "addr:full": "Goldcrest Road", "addr:city": "Ayton Village Washington", "addr:state": "Tyne and Wear", "addr:postcode": "NE38 0DL", "addr:country": "GB", "name": "Cherry Tree", "phone": "01915 979965", "website": "https://www.cherrytreepubwashington.co.uk/", "brand": "Marstons Plc"}, "geometry": {"type": "Point", "coordinates": [-1.551434, 54.89048]}},
{"type": "Feature", "id": "f2h24ZI_dvQRKP0j17D4h7l8QhQ=", "properties": {"ref": "91812", "@spider": "marstons_plc", "addr:full": "Dereham Road", "addr:city": "Norwich", "addr:state": "Norfolk", "addr:postcode": "NR5 8TD", "addr:country": "GB", "name": "Cherry Tree", "phone": "01603749469", "website": "https://www.cherrytreepubnorwich.co.uk/", "brand": "Marstons Plc"}, "geometry": {"type": "Point", "coordinates": [1.236096, 52.641125]}},
{"type": "Feature", "id": "OYNaIt3Iv3N4gqr6GcDyDXDSLI0=", "properties": {"ref": "4329", "@spider": "marstons_plc", "addr:full": "Manchester Road", "addr:city": "Cheadle", "addr:state": "Greater Manchester", "addr:postcode": "SK8 2NZ", "addr:country": "GB", "name": "Cheshire Line", "phone": "01614283352", "website": "https://www.cheshirelinetavern.co.uk/", "brand": "Marstons Plc"}, "geometry": {"type": "Point", "coordinates": [-2.217312, 53.40222]}},
{"type": "Feature", "id": "_7jPAYrFlKkPGpt24BHfdfnqm3Y=", "properties": {"ref": "92187", "@spider": "marstons_plc", "addr:full": "Axletree Way", "addr:city": "Wednesbury", "addr:state": "West Midlands", "addr:postcode": "WS10 9QY", "addr:country": "GB", "name": "Chestnut Tree", "phone": "0121 5688574", "website": "https://www.chestnuttreepubwednesbury.co.uk/", "brand": "Marstons Plc"}, "geometry": {"type": "Point", "coordinates": [-2.00863, 52.56549]}},
{"type": "Feature", "id": "s8yW-vm-cIl_UlCG8o3zyeH6vlA=", "properties": {"ref": "3406", "@spider": "marstons_plc", "addr:full": "Brocton", "addr:city": "Stafford", "addr:state": "Staffordshire", "addr:postcode": "ST17 0ST", "addr:country": "GB", "name": "Chetwynd Arms", "phone": "01785 661089", "website": "https://www.chetwyndarmspub.co.uk/", "brand": "Marstons Plc"}, "geometry": {"type": "Point", "coordinates": [-2.056693, 52.76894]}},
{"type": "Feature", "id": "4E7BSbO2fzSeahD_gG_jJnjLmUw=", "properties": {"ref": "31003", "@spider": "marstons_plc", "addr:full": "Childwall Abbey Road", "addr:city": "Liverpool", "addr:state": "Merseyside", "addr:postcode": "L16 5EY", "addr:country": "GB", "name": "Childwall Abbey Hotel", "phone": "0151 7225293", "website": "https://www.childwallabbeyhotelpub.co.uk/", "brand": "Marstons Plc"}, "geometry": {"type": "Point", "coordinates": [-2.880683, 53.394882]}},
{"type": "Feature", "id": "BzWAUChEQYqLxTBmoPTLa7VQ4tc=", "properties": {"ref": "40114", "@spider": "marstons_plc", "addr:full": "12 Church Street", "addr:city": "Frodsham Nr Warrington", "addr:state": "Cheshire", "addr:postcode": "WA6 7EB", "addr:country": "GB", "name": "Cholmondeley Arms", "phone": "01928 733052", "brand": "Marstons Plc"}, "geometry": {"type": "Point", "coordinates": [-2.725465, 53.29538]}},
{"type": "Feature", "id": "EXLwrkVpuKCJuNX_SpMWgYB7UtU=", "properties": {"ref": "91433", "@spider": "marstons_plc", "addr:full": "18-19 Victoria Parade", "addr:city": "Torquay", "addr:state": "Devon", "addr:postcode": "TQ1 2BB", "addr:country": "GB", "name": "Cinnabar Torquay", "phone": "01803411778", "website": "https://www.marstons.co.uk/", "brand": "Marstons Plc"}, "geometry": {"type": "Point", "coordinates": [-3.529287, 50.468746]}},
{"type": "Feature", "id": "PZIZUJtZQlg2Ne0nxhK8Au8yrfM=", "properties": {"ref": "93120", "@spider": "marstons_plc", "addr:full": "Quay Street", "addr:city": "Cardiff", "addr:state": "Cardiff", "addr:postcode": "CF10 1EA", "addr:country": "GB", "name": "City Arms", "phone": "02920 641913", "website": "https://sabrainpubs.com/pubs-and-hotels/south-wales/cardiff/city-arms", "brand": "Marstons Plc"}, "geometry": {"type": "Point", "coordinates": [-3.18089, 51.479874]}},
{"type": "Feature", "id": "LAipL50JdELNVNSCagNmiQC0Ma4=", "properties": {"ref": "91687", "@spider": "marstons_plc", "addr:full": "Bampton Road", "addr:city": "Clanfield", "addr:state": "Oxfordshire", "addr:postcode": "OX18 2RG", "addr:country": "GB", "name": "Clanfield Tavern", "phone": "01367 810117", "website": "https://www.clanfieldtavern.net/", "brand": "Marstons Plc"}, "geometry": {"type": "Point", "coordinates": [-1.58672, 51.716686]}},
{"type": "Feature", "id": "KGa2j7qLnPO3YdkcFmLwK28GQWg=", "properties": {"ref": "3407", "@spider": "marstons_plc", "addr:full": "Tettenhall", "addr:city": "Wolverhampton", "addr:state": "West Midlands", "addr:postcode": "WV6 9ED", "addr:country": "GB", "name": "Claregate", "phone": "01902 754761", "website": "https://www.claregatepub.co.uk/", "brand": "Marstons Plc"}, "geometry": {"type": "Point", "coordinates": [-2.159626, 52.606323]}},
{"type": "Feature", "id": "FZjmxrG_SMRW33GkJc2t55iMogU=", "properties": {"ref": "3408", "@spider": "marstons_plc", "addr:full": "38 Chapel Ash", "addr:city": "Wolverhampton", "addr:state": "West Midlands", "addr:postcode": "WV3 0TN", "addr:country": "GB", "name": "Clarendon", "phone": "01902 420587", "website": "https://www.clarendonhotelpub.co.uk/", "brand": "Marstons Plc"}, "geometry": {"type": "Point", "coordinates": [-2.137291, 52.584984]}},
{"type": "Feature", "id": "d7ffKBEz9d7eM-QCy6bSKnEF3Bo=", "properties": {"ref": "93121", "@spider": "marstons_plc", "addr:full": "Clifton Street", "addr:city": "Cardiff", "addr:state": "Cardiff", "addr:postcode": "CF24 1PW", "addr:country": "GB", "name": "Clifton Hotel", "phone": "02920 307074", "website": "https://sabrainpubs.com/pubs-and-hotels/south-wales/cardiff/clifton", "brand": "Marstons Plc"}, "geometry": {"type": "Point", "coordinates": [-3.159176, 51.486923]}},
{"type": "Feature", "id": "7d9sd7-_hVeTQ589iwPO-7B_kUc=", "properties": {"ref": "4609", "@spider": "marstons_plc", "addr:full": "Charlton Kings", "addr:city": "Cheltenham", "addr:state": "Gloucestershire", "addr:postcode": "GL53 8EG", "addr:country": "GB", "name": "Clock Tower", "phone": "01242 571794", "website": "https://www.clocktowerpub.co.uk/", "brand": "Marstons Plc"}, "geometry": {"type": "Point", "coordinates": [-2.053272, 51.87216]}},
{"type": "Feature", "id": "8rxb_Ku_5C7RVTWseftVxuirWl4=", "properties": {"ref": "91549", "@spider": "marstons_plc", "addr:full": "Shardlow", "addr:city": "Shardlow", "addr:state": "Derbyshire", "addr:postcode": "DE72 2GL", "addr:country": "GB", "name": "Clock Warehouse", "phone": "01332 650556", "website": "https://www.clockwarehousepub.co.uk/", "brand": "Marstons Plc"}, "geometry": {"type": "Point", "coordinates": [-1.346442, 52.86739]}},
{"type": "Feature", "id": "TK5Y-yx0mYchaw2EXQEPkvTL1yc=", "properties": {"ref": "92806", "@spider": "marstons_plc", "addr:full": "Wind Road", "addr:city": "Ystradgynlais", "addr:postcode": "SA9 1AD", "addr:country": "GB", "name": "Clock Works Ystradgynlais", "phone": "01792 721084", "website": "https://www.theclockworkspubystradgynlais.co.uk/", "brand": "Marstons Plc"}, "geometry": {"type": "Point", "coordinates": [-3.772829, 51.76767]}},
{"type": "Feature", "id": "TCw5_czEAsnvO11Z-bNtz7lReB8=", "properties": {"ref": "3918", "@spider": "marstons_plc", "addr:full": "Long Street", "addr:city": "Wheaton Aston", "addr:state": "Staffordshire", "addr:postcode": "ST19 9NP", "addr:country": "GB", "name": "Coach & Horses", "phone": "01785841048", "brand": "Marstons Plc"}, "geometry": {"type": "Point", "coordinates": [-2.223268, 52.71053]}},
{"type": "Feature", "id": "Lm1FrTIz2cB5hONQsZ4Us_CQogA=", "properties": {"ref": "40297", "@spider": "marstons_plc", "addr:full": "37 Main Road", "addr:city": "Eckington", "addr:state": "Derbyshire", "addr:postcode": "S21 5RH", "addr:country": "GB", "name": "Fox & Hounds", "phone": "01246395102", "website": "https://www.marstons.co.uk/", "brand": "Marstons Plc"}, "geometry": {"type": "Point", "coordinates": [-1.391393, 53.30791]}},
{"type": "Feature", "id": "NKhGW6YFjSUGc9kCIjCXwrQziOI=", "properties": {"ref": "93132", "@spider": "marstons_plc", "addr:full": "Chapel Row", "addr:city": "Cardiff", "addr:state": "Cardiff", "addr:postcode": "CF3 5UB", "addr:country": "GB", "name": "Fox & Hounds Hotel", "phone": "02920 790077", "website": "https://sabrainpubs.com/pubs-and-hotels/south-wales/cardiff/fox-hounds-st-mellons", "brand": "Marstons Plc"}, "geometry": {"type": "Point", "coordinates": [-3.113095, 51.52388]}},
{"type": "Feature", "id": "lMOCHu5-2SW98-FKS-7YTBt5Duw=", "properties": {"ref": "93133", "@spider": "marstons_plc", "addr:full": "Old Church Road", "addr:city": "Cardiff", "addr:state": "Cardiff", "addr:postcode": "CF14 1AD", "addr:country": "GB", "name": "Fox & Hounds Hotel", "phone": "02920 693377", "website": "https://sabrainpubs.com/pubs-and-hotels/south-wales/cardiff/fox-hounds-whitchurch", "brand": "Marstons Plc"}, "geometry": {"type": "Point", "coordinates": [-3.218516, 51.515667]}},
{"type": "Feature", "id": "RP7FDi2IrtdrwSB8Xwo3M-XXQyA=", "properties": {"ref": "92094", "@spider": "marstons_plc", "addr:full": "Durham Gate", "addr:city": "County Durham", "addr:state": "County Durham", "addr:postcode": "DH6 5JY", "addr:country": "GB", "name": "Fox Cub", "phone": "01388 819140", "website": "https://www.foxcubpubspennymoor.co.uk/", "brand": "Marstons Plc"}, "geometry": {"type": "Point", "coordinates": [-1.566171, 54.70567]}},
{"type": "Feature", "id": "ChNhl1ngKiEgmPzwcQeTFsZ-8jc=", "properties": {"ref": "9154", "@spider": "marstons_plc", "addr:full": "Shipley", "addr:city": "Wolverhampton", "addr:state": "Staffordshire", "addr:postcode": "WV6 7EH", "addr:country": "GB", "name": "Fox Inn", "phone": "01902 700376", "website": "https://www.thefoxatshipley.co.uk/", "brand": "Marstons Plc"}, "geometry": {"type": "Point", "coordinates": [-2.259407, 52.56217]}},
{"type": "Feature", "id": "YEuf-LKOOybA7rPXike4AExptCw=", "properties": {"ref": "91550", "@spider": "marstons_plc", "addr:full": "Attleborough", "addr:city": "Nuneaton", "addr:state": "Warwickshire", "addr:postcode": "CV11 4JY", "addr:country": "GB", "name": "Fox Inn", "phone": "02476 351232", "website": "https://www.foxinnpub.co.uk/", "brand": "Marstons Plc"}, "geometry": {"type": "Point", "coordinates": [-1.455855, 52.51328]}},
{"type": "Feature", "id": "HP9hZXuCq7oN3yM-bu9ZBEQedPA=", "properties": {"ref": "91919", "@spider": "marstons_plc", "addr:full": "Fulmar Drive", "addr:city": "Mansfield", "addr:state": "Nottinghamshire", "addr:postcode": "NG19 0GG", "addr:country": "GB", "name": "Foxglove", "phone": "01623 646557", "website": "https://www.foxglovepub.co.uk/", "brand": "Marstons Plc"}, "geometry": {"type": "Point", "coordinates": [-1.173365, 53.15604]}},
{"type": "Feature", "id": "qFVlU1vPznS0O7QPmQ9aksov9pE=", "properties": {"ref": "3400", "@spider": "marstons_plc", "addr:full": "Hassell Street", "addr:city": "Newcastle under Lyme", "addr:state": "Staffordshire", "addr:postcode": "ST5 1AD", "addr:country": "GB", "name": "Foyer", "phone": "01782 911800", "website": "https://www.marstons.co.uk/", "brand": "Marstons Plc"}, "geometry": {"type": "Point", "coordinates": [-2.225471, 53.01053]}},
{"type": "Feature", "id": "Y-OmXqnQy3m6wF6q6UxSINYm0sI=", "properties": {"ref": "15384", "@spider": "marstons_plc", "addr:full": "Bretby Road", "addr:city": "Newhall", "addr:state": "Derbyshire", "addr:postcode": "DE11 0LH", "addr:country": "GB", "name": "Freehold Tavern", "phone": "01283619487", "brand": "Marstons Plc"}, "geometry": {"type": "Point", "coordinates": [-1.576997, 52.785877]}},
{"type": "Feature", "id": "xjB2GZ4MXRaloX6NwvU9C_lD9Hs=", "properties": {"ref": "3820", "@spider": "marstons_plc", "addr:full": "Blurton", "addr:city": "Stoke on Trent", "addr:state": "Staffordshire", "addr:postcode": "ST3 3DS", "addr:country": "GB", "name": "Gables", "phone": "01782 332 343", "website": "https://www.gablespub.co.uk/", "brand": "Marstons Plc"}, "geometry": {"type": "Point", "coordinates": [-2.149406, 52.973305]}},
{"type": "Feature", "id": "pDsgGi5UyJaip1y60qnMMYqdfQo=", "properties": {"ref": "5448", "@spider": "marstons_plc", "addr:full": "Radcliffe Road", "addr:city": "Gamston", "addr:state": "Nottinghamshire", "addr:postcode": "NG2 6NP", "addr:country": "GB", "name": "Gamston Lock", "phone": "01159 989507", "website": "https://www.gamstonlockpubgamston.co.uk/", "brand": "Marstons Plc"}, "geometry": {"type": "Point", "coordinates": [-1.107109, 52.931027]}},
{"type": "Feature", "id": "voWBInVeIAbPibEZ5-GA6_xqmTE=", "properties": {"ref": "92932", "@spider": "marstons_plc", "addr:full": "Fleetwood Road North", "addr:city": " Thornton-Cleveleys", "addr:state": "Lancashire", "addr:postcode": "FY5 4BL", "addr:country": "GB", "name": "Gardeners Arms", "phone": "01253 862501", "website": "https://www.gardenersarmspub.co.uk/", "brand": "Marstons Plc"}, "geometry": {"type": "Point", "coordinates": [-3.010799, 53.877556]}},
{"type": "Feature", "id": "32cOVayccSITGRV7zRO2-8v8D_Y=", "properties": {"ref": "15212", "@spider": "marstons_plc", "addr:full": "Boothen", "addr:city": "Stoke on Trent", "addr:state": "Staffordshire", "addr:postcode": "ST4 4BJ", "addr:country": "GB", "name": "Gardeners Retreat", "phone": "01782911846", "website": "https://www.marstons.co.uk/", "brand": "Marstons Plc"}, "geometry": {"type": "Point", "coordinates": [-2.187232, 52.994385]}},
{"type": "Feature", "id": "KnQhDsrKf4t_vdEMBFt8a-wHcZo=", "properties": {"ref": "4072", "@spider": "marstons_plc", "addr:full": "19 Cross Street", "addr:city": "Stourbridge", "addr:state": "West Midlands", "addr:postcode": "DY8 3XE", "addr:country": "GB", "name": "Garibaldi Inn", "phone": "01384 671866", "brand": "Marstons Plc"}, "geometry": {"type": "Point", "coordinates": [-2.156233, 52.45414]}},
{"type": "Feature", "id": "prsXGsTEHP9rPIcGf0-AEwE4BIs=", "properties": {"ref": "90322", "@spider": "marstons_plc", "addr:full": "Osbaston", "addr:city": "Osbaston", "addr:state": "Leicestershire", "addr:postcode": "CV13 0HP", "addr:country": "GB", "name": "Gate", "phone": "01455 290502", "website": "https://www.gatepubnuneaton.co.uk/", "brand": "Marstons Plc"}, "geometry": {"type": "Point", "coordinates": [-1.38997, 52.63905]}},
{"type": "Feature", "id": "bH52KW-cfgUro39El5TKzQifi9c=", "properties": {"ref": "90326", "@spider": "marstons_plc", "addr:full": "Amington", "addr:city": "Tamworth", "addr:state": "Staffordshire", "addr:postcode": "B77 3BY", "addr:country": "GB", "name": "Gate", "phone": "0182763189", "website": "https://www.gatepubtamworth.co.uk/", "brand": "Marstons Plc"}, "geometry": {"type": "Point", "coordinates": [-1.665072, 52.63478]}},
{"type": "Feature", "id": "e1_t2NA-bN0SDU4NwGxD9xLR9n8=", "properties": {"ref": "15279", "@spider": "marstons_plc", "addr:full": "Well Street", "addr:city": "Brassington", "addr:state": "Derbyshire", "addr:postcode": "DE4 4HJ", "addr:country": "GB", "name": "Gate Inn", "phone": "01629 540448", "website": "https://www.theoldegateinne.co.uk/", "brand": "Marstons Plc"}, "geometry": {"type": "Point", "coordinates": [-1.657874, 53.08493]}},
{"type": "Feature", "id": "NZQrB6Mn_FUzRn4zPojsA-NfneU=", "properties": {"ref": "91885", "@spider": "marstons_plc", "addr:full": "Hartlebury Road", "addr:city": "Stourport on Severn", "addr:state": "Worcestershire", "addr:postcode": "DY13 9JA", "addr:country": "GB", "name": "Bay Horse", "phone": "01299488380", "website": "https://www.bayhorsestourportonsevern.co.uk/", "brand": "Marstons Plc"}, "geometry": {"type": "Point", "coordinates": [-2.259551, 52.34149]}},
{"type": "Feature", "id": "vbb_JrK3t_ew_Pg2AVKhFft8_04=", "properties": {"ref": "205", "@spider": "marstons_plc", "addr:full": "Selly Oak", "addr:city": "Birmingham", "addr:state": "West Midlands", "addr:postcode": "B29 6ND", "addr:country": "GB", "name": "Bear & Staff", "phone": "01214714207", "website": "https://www.bearstaffbirmingham.co.uk/", "brand": "Marstons Plc"}, "geometry": {"type": "Point", "coordinates": [-1.943763, 52.437443]}},
{"type": "Feature", "id": "JD1Ci6ARMzkf98LMGFRttlewqPc=", "properties": {"ref": "91317", "@spider": "marstons_plc", "addr:full": "High Street", "addr:city": "Street", "addr:state": "Somerset", "addr:postcode": "BA16 0EF", "addr:country": "GB", "name": "Bear Inn", "phone": "01458 442021", "website": "https://www.bearinnpubstreet.co.uk/", "brand": "Marstons Plc"}, "geometry": {"type": "Point", "coordinates": [-2.736538, 51.129036]}},
{"type": "Feature", "id": "oE0qvWqdxpwHylvSflItKuP08eg=", "properties": {"ref": "93105", "@spider": "marstons_plc", "addr:full": "18 Pennard Road", "addr:city": "Gower", "addr:state": "Gower", "addr:postcode": "SA3 3JG", "addr:country": "GB", "name": "Beaufort Arms", "phone": "01792 234447", "website": "https://sabrainpubs.com/pubs-and-hotels/south-wales/swansea/beaufort-arms", "brand": "Marstons Plc"}, "geometry": {"type": "Point", "coordinates": [-4.059117, 51.5842]}},
{"type": "Feature", "id": "kd6QboEgZ5Ly1qplOeLZiOfojcI=", "properties": {"ref": "40099", "@spider": "marstons_plc", "addr:full": "2 Bedford Street", "addr:city": "Derby", "addr:state": "Derbyshire", "addr:postcode": "DE22 3PB", "addr:country": "GB", "name": "Bedford Arms", "phone": "01332343065", "brand": "Marstons Plc"}, "geometry": {"type": "Point", "coordinates": [-1.497209, 52.91728]}},
{"type": "Feature", "id": "XHIOOs_-XH8oOGQyugy4k0R53vo=", "properties": {"ref": "3390", "@spider": "marstons_plc", "addr:full": "93 Lythwood Road", "addr:city": "Bayston Hill", "addr:state": "Shropshire", "addr:postcode": "SY3 0NT", "addr:country": "GB", "name": "Beeches", "phone": "01743 384298", "website": "https://www.beechespubbaystonhill.co.uk/", "brand": "Marstons Plc"}, "geometry": {"type": "Point", "coordinates": [-2.773879, 52.673744]}},
{"type": "Feature", "id": "jFcEyAXOt1BMY-Dh3Ld9B4sFaf4=", "properties": {"ref": "91408", "@spider": "marstons_plc", "addr:full": "915 Christchurch Road", "addr:city": "Bournemouth", "addr:state": "Dorset", "addr:postcode": "BH7 6AX", "addr:country": "GB", "name": "Bell", "phone": "01202 097404", "website": "https://www.marstons.co.uk/", "brand": "Marstons Plc"}, "geometry": {"type": "Point", "coordinates": [-1.825483, 50.73052]}},
{"type": "Feature", "id": "V0Dftqd-4RC9SyhfRnKKtPXw-po=", "properties": {"ref": "92007", "@spider": "marstons_plc", "addr:full": "Blackpool Road", "addr:city": "Kirkham", "addr:state": "Lancashire", "addr:postcode": "PR4 3RJ", "addr:country": "GB", "name": "Bell & Bottle", "phone": "01772 684288", "website": "https://www.bellbottlepubkirkham.co.uk/", "brand": "Marstons Plc"}, "geometry": {"type": "Point", "coordinates": [-2.845577, 53.775066]}},
{"type": "Feature", "id": "MA8-hcnGKbKDImO2r1qsDQNScRk=", "properties": {"ref": "3535", "@spider": "marstons_plc", "addr:full": "Bell Lane", "addr:city": "Bloxwich", "addr:state": "West Midlands", "addr:postcode": "WS3 2NJ", "addr:country": "GB", "name": "Bell Inn", "brand": "Marstons Plc"}, "geometry": {"type": "Point", "coordinates": [-2.015377, 52.618305]}},
{"type": "Feature", "id": "tBoqGjQfd8TDwGrzWz6LFFLKY8A=", "properties": {"ref": "15296", "@spider": "marstons_plc", "addr:full": "Anslow", "addr:city": "Burton upon Trent", "addr:state": "Staffordshire", "addr:postcode": "DE13 9QD", "addr:country": "GB", "name": "Bell Inn", "phone": "01283812838", "website": "https://www.marstons.co.uk/", "brand": "Marstons Plc"}, "geometry": {"type": "Point", "coordinates": [-1.687943, 52.82404]}},
{"type": "Feature", "id": "SzyxQ2A8ARGFVMRYRXKEyzIEZ4s=", "properties": {"ref": "3391", "@spider": "marstons_plc", "addr:full": "Tong", "addr:city": "Shifnal", "addr:state": "Shropshire", "addr:postcode": "TF11 8PS", "addr:country": "GB", "name": "Bell Inn, Tong", "phone": "01952 850210", "website": "https://www.bellpubshifnal.co.uk/", "brand": "Marstons Plc"}, "geometry": {"type": "Point", "coordinates": [-2.309749, 52.670097]}},
{"type": "Feature", "id": "wiP3KExW-2YiLLar-Tvbj1k0QEA=", "properties": {"ref": "12001", "@spider": "marstons_plc", "addr:full": "Belle Vue Street", "addr:city": "Filey", "addr:state": "North Yorkshire", "addr:postcode": "YO14 9LQ", "addr:country": "GB", "name": "Belle Vue", "phone": "01723 448257", "brand": "Marstons Plc"}, "geometry": {"type": "Point", "coordinates": [-0.286658, 54.20841]}},
{"type": "Feature", "id": "8fvI6dgVPPrEWfykpIkngmbwj40=", "properties": {"ref": "17005", "@spider": "marstons_plc", "addr:full": "Papcastle", "addr:city": "Cockermouth", "addr:state": "Cumbria", "addr:postcode": "CA13 0NT", "addr:country": "GB", "name": "Belle Vue", "phone": "01900 821388", "brand": "Marstons Plc"}, "geometry": {"type": "Point", "coordinates": [-3.37819, 54.673046]}},
{"type": "Feature", "id": "9XVu5sWy_EUESxP2HEwkIgG38sY=", "properties": {"ref": "90165", "@spider": "marstons_plc", "addr:full": "Parkside Lane", "addr:city": "Preston", "addr:state": "Lancashire", "addr:postcode": "PR3 0JA", "addr:country": "GB", "name": "Bellflower", "phone": "01995 238207", "website": "https://www.bellflowerpubgarstang.co.uk/", "brand": "Marstons Plc"}, "geometry": {"type": "Point", "coordinates": [-2.788173, 53.898792]}},
{"type": "Feature", "id": "LCVYv6A53JjBI1D293SFxsYl99o=", "properties": {"ref": "8127", "@spider": "marstons_plc", "addr:full": "Longbenton", "addr:city": "Newcastle Upon Tyne", "addr:state": "Tyne and Wear", "addr:postcode": "NE7 7XE", "addr:country": "GB", "name": "Benton Ale House", "phone": "01912661512", "brand": "Marstons Plc"}, "geometry": {"type": "Point", "coordinates": [-1.57575, 55.00969]}},
{"type": "Feature", "id": "NNyNsidZjuoloUdI1_B7xgraJpI=", "properties": {"ref": "3723", "@spider": "marstons_plc", "addr:full": "4 School Road", "addr:city": "Worcester", "addr:state": "Worcestershire", "addr:postcode": "WR2 4HF", "addr:country": "GB", "name": "Berkeley Arms", "phone": "01905421427", "website": "https://www.marstons.co.uk/", "brand": "Marstons Plc"}, "geometry": {"type": "Point", "coordinates": [-2.240139, 52.185677]}},
{"type": "Feature", "id": "YCB0cvGVbPFTRtYbaU2YI2dbc0M=", "properties": {"ref": "42309", "@spider": "marstons_plc", "addr:full": "Coedcae Road", "addr:city": "Trehafod", "addr:state": "Rhonda", "addr:postcode": "CF37 2NW", "addr:country": "GB", "name": "Bertie", "phone": "01443 688204", "website": "https://www.bertiepub.co.uk/", "brand": "Marstons Plc"}, "geometry": {"type": "Point", "coordinates": [-3.38394, 51.609905]}},
{"type": "Feature", "id": "CdzE1uz1WaalNMQ2SHIV-UbeGrs=", "properties": {"ref": "90058", "@spider": "marstons_plc", "addr:full": "214 Binley Road", "addr:city": "Stoke", "addr:state": "West Midlands", "addr:postcode": "CV3 1HG", "addr:country": "GB", "name": "Biggin Hall", "phone": "02476 442109", "website": "https://www.bigginhallpub.co.uk/", "brand": "Marstons Plc"}, "geometry": {"type": "Point", "coordinates": [-1.471745, 52.40705]}},
{"type": "Feature", "id": "5meLPzi2nI3yk_RIh7eZJ3eXcPw=", "properties": {"ref": "93114", "@spider": "marstons_plc", "addr:full": "1 - 3 Birchgrove Road", "addr:city": "Cardiff", "addr:state": "Cardiff", "addr:postcode": "CF14 1RR", "addr:country": "GB", "name": "Birchgrove Hotel", "phone": "02920 311319", "website": "https://sabrainpubs.com/pubs-and-hotels/south-wales/cardiff/birchgrove", "brand": "Marstons Plc"}, "geometry": {"type": "Point", "coordinates": [-3.200021, 51.5112]}},
{"type": "Feature", "id": "S7vjoX2Pqe2QdTyMK5-WhDLyftQ=", "properties": {"ref": "15206", "@spider": "marstons_plc", "addr:full": "Austrey", "addr:city": "Atherstone", "addr:state": "Warwickshire", "addr:postcode": "CV9 3EB", "addr:country": "GB", "name": "Bird In Hand", "phone": "01827 830260", "website": "https://www.marstons.co.uk/", "brand": "Marstons Plc"}, "geometry": {"type": "Point", "coordinates": [-1.56354, 52.65466]}},
{"type": "Feature", "id": "bogRoPCkAByRZMVqPreKZuX1IfA=", "properties": {"ref": "31024", "@spider": "marstons_plc", "addr:full": "Mulberry Street", "addr:city": "Liverpool", "addr:state": "Merseyside", "addr:postcode": "L7 7EE", "addr:country": "GB", "name": "Cambridge Hotel", "phone": "01517087150", "brand": "Marstons Plc"}, "geometry": {"type": "Point", "coordinates": [-2.967197, 53.402718]}},
{"type": "Feature", "id": "nas4gPjDNrsiUXWXZ3NA_LSEznc=", "properties": {"ref": "92777", "@spider": "marstons_plc", "addr:full": "1A Fulton Road", "addr:city": "Dundee", "addr:postcode": "DD2 4SW", "addr:country": "GB", "name": "Camperdown Elm Dundee", "phone": "01382 250870", "website": "https://www.camperdownelmpub.co.uk/", "brand": "Marstons Plc"}, "geometry": {"type": "Point", "coordinates": [-3.054867, 56.472744]}},
{"type": "Feature", "id": "N4Cx4k5hcd9J0Q8cDiAR1sUPPaU=", "properties": {"ref": "92430", "@spider": "marstons_plc", "addr:full": "481 Margate Road", "addr:city": "Thanet", "addr:state": "Kent", "addr:postcode": "CT10 2QD", "addr:country": "GB", "name": "Canterbury Bell", "phone": "01843 863892", "website": "https://www.canterburybellpubthanet.co.uk/", "brand": "Marstons Plc"}, "geometry": {"type": "Point", "coordinates": [1.396643, 51.359592]}},
{"type": "Feature", "id": "hXzeUuEKLCei6wh0ijsSAfECqMk=", "properties": {"ref": "92067", "@spider": "marstons_plc", "addr:full": "Parc Pensarn", "addr:city": "Carmarthen", "addr:postcode": "SA31 2NG", "addr:country": "GB", "name": "Caraway", "phone": "01267243303", "website": "https://www.carawaypubcarmarthen.co.uk/", "brand": "Marstons Plc"}, "geometry": {"type": "Point", "coordinates": [-4.310393, 51.846653]}},
{"type": "Feature", "id": "evWwg7sNnq6qUGxXREJab_7D7xo=", "properties": {"ref": "2036", "@spider": "marstons_plc", "addr:full": "140 Acomb Road", "addr:city": "York", "addr:state": "North Yorkshire", "addr:postcode": "YO24 4HA", "addr:country": "GB", "name": "Carlton Tavern", "phone": "01904781181", "website": "https://www.carltonpubyork.co.uk/", "brand": "Marstons Plc"}, "geometry": {"type": "Point", "coordinates": [-1.116454, 53.955856]}},
{"type": "Feature", "id": "rN7OMSxxXkO4jGlU4d3reAgnDQo=", "properties": {"ref": "40113", "@spider": "marstons_plc", "addr:full": "Delamere Road", "addr:city": "Hatchmere", "addr:state": "Cheshire", "addr:postcode": "WA6 6NL", "addr:country": "GB", "name": "Carriers Inn", "phone": "01928 371109", "brand": "Marstons Plc"}, "geometry": {"type": "Point", "coordinates": [-2.669125, 53.2434]}},
{"type": "Feature", "id": "Cku_Gz9dB7vASO-PwtfRTjr8QxA=", "properties": {"ref": "40208", "@spider": "marstons_plc", "addr:full": "271 Huddersfield Road", "addr:city": "Oldham", "addr:state": "Greater Manchester", "addr:postcode": "OL4 2RJ", "addr:country": "GB", "name": "Carrion Crow", "phone": "0161 6334490", "brand": "Marstons Plc"}, "geometry": {"type": "Point", "coordinates": [-2.08279, 53.548897]}},
{"type": "Feature", "id": "kYaF76WPbxb8Ro2dfgzJyXMu7qM=", "properties": {"ref": "90151", "@spider": "marstons_plc", "addr:full": "Sale", "addr:city": "Manchester", "addr:state": "Greater Manchester", "addr:postcode": "M33 2PG", "addr:country": "GB", "name": "Carters Arms", "phone": "01614784485", "website": "https://www.marstons.co.uk/", "brand": "Marstons Plc"}, "geometry": {"type": "Point", "coordinates": [-2.289889, 53.418537]}},
{"type": "Feature", "id": "bpi9rXrDiW73lC5TL29VbgbnZWY=", "properties": {"ref": "42206", "@spider": "marstons_plc", "addr:full": "Little Haven", "addr:city": "Haverfordwest", "addr:state": "Pembrokeshire", "addr:postcode": "SA62 3UG", "addr:country": "GB", "name": "Castle Hotel", "phone": "01437 781445", "website": "https://www.marstons.co.uk/", "brand": "Marstons Plc"}, "geometry": {"type": "Point", "coordinates": [-5.106801, 51.77401]}},
{"type": "Feature", "id": "XzKRbxdA9ab-4ZsZTIL4fzL_y4g=", "properties": {"ref": "3403", "@spider": "marstons_plc", "addr:full": "Wednesfield", "addr:city": "Wolverhampton", "addr:state": "West Midlands", "addr:postcode": "WV11 1NW", "addr:country": "GB", "name": "Castle Inn", "phone": "01902219993", "website": "https://www.castleinnwolverhampton.co.uk/", "brand": "Marstons Plc"}, "geometry": {"type": "Point", "coordinates": [-2.080344, 52.60637]}},
{"type": "Feature", "id": "YGcgy68do41kXF69GP20rfNjxXw=", "properties": {"ref": "90159", "@spider": "marstons_plc", "addr:full": "Hearthcote Road", "addr:city": "Swadlincote", "addr:state": "Derbyshire", "addr:postcode": "DE11 9DU", "addr:country": "GB", "name": "Catchems", "phone": "01283 217654", "website": "https://www.catchemsswadlincote.co.uk/", "brand": "Marstons Plc"}, "geometry": {"type": "Point", "coordinates": [-1.571399, 52.77016]}},
{"type": "Feature", "id": "42fyELIU8yiYqIYjt9v5WHq1PI0=", "properties": {"ref": "40625", "@spider": "marstons_plc", "addr:full": "1161 Uttoxeter Road", "addr:city": "Meir", "addr:state": "Staffordshire", "addr:postcode": "ST3 6HH", "addr:country": "GB", "name": "Catchems Corner", "phone": "01782 499172", "website": "https://www.marstons.co.uk/", "brand": "Marstons Plc"}, "geometry": {"type": "Point", "coordinates": [-2.092139, 52.97499]}},
{"type": "Feature", "id": "TmkTU9WehbqYkjGVN0Aga_JIsGE=", "properties": {"ref": "15297", "@spider": "marstons_plc", "addr:full": "Fountain Street", "addr:city": "Leek", "addr:state": "Staffordshire", "addr:postcode": "ST13 6JR", "addr:country": "GB", "name": "Cattle Market", "phone": "01538528198", "website": "https://www.cattlemarketleek.co.uk/", "brand": "Marstons Plc"}, "geometry": {"type": "Point", "coordinates": [-2.017899, 53.105835]}},
{"type": "Feature", "id": "LVcoC7dt2_sPJG7qr8aefeAV0FU=", "properties": {"ref": "8128", "@spider": "marstons_plc", "addr:full": "Stranton", "addr:city": "Hartlepool", "addr:state": "County Durham", "addr:postcode": "TS24 7QT", "addr:country": "GB", "name": "Causeway", "phone": "01429 263000", "brand": "Marstons Plc"}, "geometry": {"type": "Point", "coordinates": [-1.213064, 54.679997]}},
{"type": "Feature", "id": "DRWZQHlhdViTGWm0vFcluxhzUP4=", "properties": {"ref": "16139", "@spider": "marstons_plc", "addr:full": "Market Place", "addr:city": "Bolsover", "addr:state": "Derbyshire", "addr:postcode": "S44 6PH", "addr:country": "GB", "name": "Cavendish", "phone": "01246768813", "website": "https://www.cavendishhotelchesterfield.co.uk/", "brand": "Marstons Plc"}, "geometry": {"type": "Point", "coordinates": [-1.291612, 53.229614]}},
{"type": "Feature", "id": "dCL-MufHyjLYtxvdoW6ZrR0C1BM=", "properties": {"ref": "40865", "@spider": "marstons_plc", "addr:full": "Sandy Lane", "addr:city": "Brindle", "addr:state": "Lancashire", "addr:postcode": "PR6 8NG", "addr:country": "GB", "name": "Cavendish Arms", "phone": "01254852912", "website": "https://www.marstons.co.uk/", "brand": "Marstons Plc"}, "geometry": {"type": "Point", "coordinates": [-2.610103, 53.712948]}},
{"type": "Feature", "id": "JkFkcQl-GPjjMr1X2UlQa45K-ow=", "properties": {"ref": "2246", "@spider": "marstons_plc", "addr:full": "Uttoxeter Road", "addr:city": "Hill Ridware", "addr:state": "Staffordshire", "addr:postcode": "WS15 3QX", "addr:country": "GB", "name": "Chadwick Arms", "phone": "01543 490552", "website": "https://www.marstons.co.uk/", "brand": "Marstons Plc"}, "geometry": {"type": "Point", "coordinates": [-1.883827, 52.759422]}},
{"type": "Feature", "id": "uB5fdGWrQoKhxncOGIQJ0j3QIEw=", "properties": {"ref": "92504", "@spider": "marstons_plc", "addr:full": "Swineshead Road", "addr:city": "Boston", "addr:state": "Lincolnshire", "addr:postcode": "PE21 7JE", "addr:country": "GB", "name": "Chain Bridge", "phone": "01205205051", "website": "https://www.chainbridgepubboston.com/", "brand": "Marstons Plc"}, "geometry": {"type": "Point", "coordinates": [-0.071438, 52.969196]}},
{"type": "Feature", "id": "Egn7ALCiC12tuxTFY4_s9yaCBRw=", "properties": {"ref": "92213", "@spider": "marstons_plc", "addr:full": "Almondvale Way", "addr:city": "Livingston", "addr:postcode": "EH54 6GA", "addr:country": "GB", "name": "Chain Runner", "phone": "01506 243991", "website": "https://www.chainrunnerpublivingston.co.uk/", "brand": "Marstons Plc"}, "geometry": {"type": "Point", "coordinates": [-3.519424, 55.88274]}},
{"type": "Feature", "id": "z9zrrzcswNs61JW7GSDP7-kJK20=", "properties": {"ref": "4060", "@spider": "marstons_plc", "addr:full": "39 Upper Tything", "addr:city": "Worcester", "addr:state": "Worcestershire", "addr:postcode": "WR1 1JZ", "addr:country": "GB", "name": "Coach & Horses", "phone": "0190522448", "website": "https://www.marstons.co.uk/", "brand": "Marstons Plc"}, "geometry": {"type": "Point", "coordinates": [-2.225324, 52.2006]}},
{"type": "Feature", "id": "VJMZxcohZWK2bPWTK3DtOHAhv4U=", "properties": {"ref": "17023", "@spider": "marstons_plc", "addr:full": "22 Galgate", "addr:city": "Barnard Castle", "addr:state": "County Durham", "addr:postcode": "DL12 8BH", "addr:country": "GB", "name": "Coach & Horses", "phone": "01833 908179", "brand": "Marstons Plc"}, "geometry": {"type": "Point", "coordinates": [-1.923436, 54.54571]}},
{"type": "Feature", "id": "sYeHjjtKxz7CWaxz4CV9RtpUFw8=", "properties": {"ref": "90175", "@spider": "marstons_plc", "addr:full": "The Nook", "addr:city": "Anstey", "addr:state": "Leicestershire", "addr:postcode": "LE7 7AT", "addr:country": "GB", "name": "Coach & Horses", "phone": "0116 236 5816", "brand": "Marstons Plc"}, "geometry": {"type": "Point", "coordinates": [-1.185709, 52.671825]}},
{"type": "Feature", "id": "gqw_kbV0qJvNsO-IX7uD3Bq_1ok=", "properties": {"ref": "92277", "@spider": "marstons_plc", "addr:full": "Balcombe Road", "addr:city": "Crawley", "addr:state": "West Sussex", "addr:postcode": "RH10 7NN", "addr:country": "GB", "name": "Coaching Halt", "phone": "01293 883558", "website": "https://www.coachinghaltpubcrawley.co.uk/", "brand": "Marstons Plc"}, "geometry": {"type": "Point", "coordinates": [-0.143128, 51.10749]}},
{"type": "Feature", "id": "su6K5HWDAbF0AHuyIpxA3r4I8n4=", "properties": {"ref": "91706", "@spider": "marstons_plc", "addr:full": "Carers Way", "addr:city": "Newton Aycliffe", "addr:state": "County Durham", "addr:postcode": "DL5 4SE", "addr:country": "GB", "name": "Cobblers Hall", "phone": "01325 315899", "website": "https://www.cobblershallpub.co.uk/", "brand": "Marstons Plc"}, "geometry": {"type": "Point", "coordinates": [-1.580362, 54.629738]}},
{"type": "Feature", "id": "XAD6PceR5k-bmir_7ZVABBmVQS4=", "properties": {"ref": "92141", "@spider": "marstons_plc", "addr:full": "Wisbech Road", "addr:city": "March", "addr:state": "Cambridgeshire", "addr:postcode": "PE15 0BA", "addr:country": "GB", "name": "Cobblestones", "phone": "01354650312", "website": "https://www.cobblestonespubmarch.co.uk/", "brand": "Marstons Plc"}, "geometry": {"type": "Point", "coordinates": [0.061012, 52.56838]}},
{"type": "Feature", "id": "7ppQ0mjHCW35ZCc0AUhxChmkHN0=", "properties": {"ref": "3746", "@spider": "marstons_plc", "addr:full": "Quinton", "addr:city": "Halesowen", "addr:state": "West Midlands", "addr:postcode": "B62 0JD", "addr:country": "GB", "name": "Cobham Arms", "phone": "0121 4224839", "website": "https://www.cobhamarmshalesowen.co.uk/", "brand": "Marstons Plc"}, "geometry": {"type": "Point", "coordinates": [-2.015935, 52.450382]}},
{"type": "Feature", "id": "EgRO3IiUbp94maepuhhh3CiVz9k=", "properties": {"ref": "3748", "@spider": "marstons_plc", "addr:full": "1 Severnside North", "addr:city": "Bewdley", "addr:state": "Worcestershire", "addr:postcode": "DY12 2EE", "addr:country": "GB", "name": "Cock & Magpie", "phone": "01299 405842", "website": "https://www.marstons.co.uk/", "brand": "Marstons Plc"}, "geometry": {"type": "Point", "coordinates": [-2.31533, 52.37683]}},
{"type": "Feature", "id": "dfM5ulu2O_S--LxyzepMlI0uHcs=", "properties": {"ref": "286", "@spider": "marstons_plc", "addr:full": "Mill Lane", "addr:city": "Hebburn", "addr:state": "Tyne and Wear", "addr:postcode": "NE31 2EY", "addr:country": "GB", "name": "Cock Crow Inn", "phone": "0191 4285730", "website": "https://www.cockcrowinnpub.co.uk/", "brand": "Marstons Plc"}, "geometry": {"type": "Point", "coordinates": [-1.515389, 54.958073]}},
{"type": "Feature", "id": "pYpWWGO0Wxp4JTnBfam5vULJnvg=", "properties": {"ref": "91616", "@spider": "marstons_plc", "addr:full": "Harborough Road", "addr:city": "Northampton", "addr:state": "Northamptonshire", "addr:postcode": "NN2 7AZ", "addr:country": "GB", "name": "Cock Inn", "phone": "01604713441", "website": "https://www.cockinnnorthampton.co.uk/", "brand": "Marstons Plc"}, "geometry": {"type": "Point", "coordinates": [-0.900782, 52.260532]}},
{"type": "Feature", "id": "KG7eqZAf3tsyqbkREdA6BjkClNc=", "properties": {"ref": "91810", "@spider": "marstons_plc", "addr:full": "1 Drayton High Street", "addr:city": "Norwich", "addr:state": "Norfolk", "addr:postcode": "NR8 6AE", "addr:country": "GB", "name": "Cock Inn", "phone": "01603 869598", "website": "https://www.cockinnpub.co.uk/", "brand": "Marstons Plc"}, "geometry": {"type": "Point", "coordinates": [1.22479, 52.675667]}},
{"type": "Feature", "id": "-YhvRENkIHtstlGw-UMIDGK4NZo=", "properties": {"ref": "3747", "@spider": "marstons_plc", "addr:full": "Tupsley", "addr:city": "Hereford", "addr:state": "Herefordshire", "addr:postcode": "HR1 1UT", "addr:country": "GB", "name": "Cock of Tupsley", "phone": "01432 274911", "website": "https://www.cockoftupsleypub.co.uk/", "brand": "Marstons Plc"}, "geometry": {"type": "Point", "coordinates": [-2.680026, 52.060078]}},
{"type": "Feature", "id": "de-HY2WIgC0kBeV9A9aE5VsROp4=", "properties": {"ref": "93106", "@spider": "marstons_plc", "addr:full": "Waunarlwydd Road", "addr:city": "Swansea", "addr:state": "Swansea", "addr:postcode": "SA2 0GB", "addr:country": "GB", "name": "Cockett Inn", "phone": "01792447644", "website": "https://www.cockettinnpub.co.uk/", "brand": "Marstons Plc"}, "geometry": {"type": "Point", "coordinates": [-3.985178, 51.629807]}},
{"type": "Feature", "id": "qGE2FMcOfOedLqmjfvR73OWDE8c=", "properties": {"ref": "91635", "@spider": "marstons_plc", "addr:full": "138 Northgate", "addr:city": "Wakefield", "addr:state": "West Yorkshire", "addr:postcode": "WF1 3QT", "addr:country": "GB", "name": "College", "phone": "01924 374392", "website": "https://www.marstons.co.uk/", "brand": "Marstons Plc"}, "geometry": {"type": "Point", "coordinates": [-1.501229, 53.68752]}},
{"type": "Feature", "id": "5Q6iVkCxLx564Qiok1Zay0VS5HA=", "properties": {"ref": "91711", "@spider": "marstons_plc", "addr:full": "Watchfield", "addr:city": "Swindon", "addr:state": "Oxfordshire", "addr:postcode": "SN6 8TQ", "addr:country": "GB", "name": "College Farm", "phone": "01793 783170", "website": "https://www.collegefarmpub.co.uk/", "brand": "Marstons Plc"}, "geometry": {"type": "Point", "coordinates": [-1.637372, 51.61473]}},
{"type": "Feature", "id": "U7YdCJoUVm9VD0wZkczl1ZJy7Nw=", "properties": {"ref": "90182", "@spider": "marstons_plc", "addr:full": "St.Nicholas Park Estate", "addr:city": "Nuneaton", "addr:state": "Warwickshire", "addr:postcode": "CV11 6JT", "addr:country": "GB", "name": "Coniston Tavern", "phone": "02476 384405", "brand": "Marstons Plc"}, "geometry": {"type": "Point", "coordinates": [-1.442111, 52.535122]}},
{"type": "Feature", "id": "VYCpj7nm-mOe1MMVCpjfhVngPtQ=", "properties": {"ref": "92530", "@spider": "marstons_plc", "addr:full": "Stonestile Lane", "addr:city": "Hastings", "addr:state": "East Sussex", "addr:postcode": "TN34 2RA", "addr:country": "GB", "name": "Conquerors March", "phone": "01424400676", "website": "http://www.conquerorsmarchpubhastings.co.uk/", "brand": "Marstons Plc"}, "geometry": {"type": "Point", "coordinates": [0.621885, 50.896328]}},
{"type": "Feature", "id": "Mjb6HL-U-rUnYwUHU4QZ_rFZPJU=", "properties": {"ref": "16275", "@spider": "marstons_plc", "addr:full": "Sproatley", "addr:city": "Hull", "addr:state": "East Yorkshire", "addr:postcode": "HU11 4PA", "addr:country": "GB", "name": "Constable Arms", "phone": "01482811087", "brand": "Marstons Plc"}, "geometry": {"type": "Point", "coordinates": [-0.191147, 53.79482]}},
{"type": "Feature", "id": "XqaIM6RNSD1hV7U0jJUFag7Wq-c=", "properties": {"ref": "91568", "@spider": "marstons_plc", "addr:full": "Leeming Lane", "addr:city": "Mansfield Woodhouse", "addr:state": "Nottinghamshire", "addr:postcode": "NG19 9HR", "addr:country": "GB", "name": "Coopers", "phone": "01623 391809", "website": "https://www.thecooperspubwoodhouse.co.uk/", "brand": "Marstons Plc"}, "geometry": {"type": "Point", "coordinates": [-1.178548, 53.17203]}},
{"type": "Feature", "id": "KqzLRfbeYSIQecDf32tI5FM7pTg=", "properties": {"ref": "93124", "@spider": "marstons_plc", "addr:full": "Cowbridge Road West", "addr:city": "Cardiff", "addr:state": "Cardiff", "addr:postcode": "CF5 5TF", "addr:country": "GB", "name": "Coopers Carvery", "phone": "02920 311097", "website": "https://sabrainpubs.com/pubs-and-hotels/south-wales/cardiff/coopers-carvery", "brand": "Marstons Plc"}, "geometry": {"type": "Point", "coordinates": [-3.26454, 51.46888]}},
{"type": "Feature", "id": "I2PHiZ6mqK_aoJ4Wq7ZeAdU4ktw=", "properties": {"ref": "8948", "@spider": "marstons_plc", "addr:full": "North Street", "addr:city": "Scarborough", "addr:state": "North Yorkshire", "addr:postcode": "YO11 1DF", "addr:country": "GB", "name": "Black Lion", "phone": "01723 363717", "brand": "Marstons Plc"}, "geometry": {"type": "Point", "coordinates": [-0.401375, 54.28331]}},
{"type": "Feature", "id": "bqwBLU-xXr5-hQKEyuwbl6wT3KQ=", "properties": {"ref": "15069", "@spider": "marstons_plc", "addr:full": "Mold Road", "addr:city": "Buckley", "addr:state": "Clwyd", "addr:postcode": "CH7 2JA", "addr:country": "GB", "name": "Black Lion", "phone": "01244630118", "website": "https://www.marstons.co.uk/", "brand": "Marstons Plc"}, "geometry": {"type": "Point", "coordinates": [-3.08352, 53.168297]}},
{"type": "Feature", "id": "jdFF1-4tEjwZPSVVmWhWFIjJewo=", "properties": {"ref": "93116", "@spider": "marstons_plc", "addr:full": "49 Cardiff Road", "addr:city": "Cardiff", "addr:state": "Cardiff", "addr:postcode": "CF5 2DQ", "addr:country": "GB", "name": "Black Lion Hotel", "phone": "02920 567312", "website": "https://sabrainpubs.com/pubs-and-hotels/south-wales/cardiff/black-lion-llandaff", "brand": "Marstons Plc"}, "geometry": {"type": "Point", "coordinates": [-3.219373, 51.493454]}},
{"type": "Feature", "id": "jp3N4gMbYJNBV4z62QWLSZblFNg=", "properties": {"ref": "16266", "@spider": "marstons_plc", "addr:full": "Brandesburton", "addr:city": "Driffield", "addr:state": "East Yorkshire", "addr:postcode": "YO25 8RG", "addr:country": "GB", "name": "Black Swan", "phone": "01964 542376", "brand": "Marstons Plc"}, "geometry": {"type": "Point", "coordinates": [-0.297874, 53.91227]}},
{"type": "Feature", "id": "um4U3sdxw1RAcjiwN_Kp-YcvvtY=", "properties": {"ref": "3727", "@spider": "marstons_plc", "addr:full": "Blackpole Road", "addr:city": "Worcester", "addr:state": "Worcestershire", "addr:postcode": "WR3 8SQ", "addr:country": "GB", "name": "Blackpole Inn", "phone": "01905 451180", "website": "https://www.blackpoleinnpub.co.uk/", "brand": "Marstons Plc"}, "geometry": {"type": "Point", "coordinates": [-2.198288, 52.21438]}},
{"type": "Feature", "id": "A_H2IwtvaKHmubqAm7h04A1fduM=", "properties": {"ref": "15152", "@spider": "marstons_plc", "addr:full": "Meeting Street", "addr:city": "Quorn", "addr:state": "Loughborough", "addr:postcode": "LE12 8EU", "addr:country": "GB", "name": "Blacksmiths Arms", "phone": "01509 412751", "website": "https://www.marstons.co.uk/", "brand": "Marstons Plc"}, "geometry": {"type": "Point", "coordinates": [-1.171879, 52.741596]}},
{"type": "Feature", "id": "dKZPHDDyl0HCxI-_SSCyYRzbKcQ=", "properties": {"ref": "15401", "@spider": "marstons_plc", "addr:full": "49 Woodland Road", "addr:city": "Stanton", "addr:state": "Derbyshire", "addr:postcode": "DE15 9TH", "addr:country": "GB", "name": "Gate Inn", "phone": "01283 480441", "website": "https://www.gatepubinnburton.co.uk/", "brand": "Marstons Plc"}, "geometry": {"type": "Point", "coordinates": [-1.596373, 52.771866]}},
{"type": "Feature", "id": "aIwMgFMzzJJpLsG-wp2u6BL8l5g=", "properties": {"ref": "16076", "@spider": "marstons_plc", "addr:full": "All Hallows St", "addr:city": "Ordsall near Retford", "addr:state": "Nottinghamshire", "addr:postcode": "DN22 7TP", "addr:country": "GB", "name": "Gate Inn", "phone": "01777470396", "website": "https://www.marstons.co.uk/", "brand": "Marstons Plc"}, "geometry": {"type": "Point", "coordinates": [-0.943977, 53.309876]}},
{"type": "Feature", "id": "LbDvT1pEBxMcUbun2s3oSC9TWdA=", "properties": {"ref": "91189", "@spider": "marstons_plc", "addr:full": "Nether Witacre", "addr:city": "Birmingham", "addr:state": "Warwickshire", "addr:postcode": "B46 2DS", "addr:country": "GB", "name": "Gate Inn", "phone": "01675 481292", "brand": "Marstons Plc"}, "geometry": {"type": "Point", "coordinates": [-1.662956, 52.53121]}},
{"type": "Feature", "id": "ep4_SezWCrLqRcjF1sSomZczciw=", "properties": {"ref": "16184", "@spider": "marstons_plc", "addr:full": "14 Main Street", "addr:city": "Costock", "addr:state": "Nottinghamshire", "addr:postcode": "LE12 6XD", "addr:country": "GB", "name": "Generous Briton", "phone": "01509852852", "website": "https://www.generousbriton.co.uk/", "brand": "Marstons Plc"}, "geometry": {"type": "Point", "coordinates": [-1.150666, 52.83153]}},
{"type": "Feature", "id": "n3lars02iUCychxgx-i6i5PBQCI=", "properties": {"ref": "16131", "@spider": "marstons_plc", "addr:full": "Main Street", "addr:city": "Blidworth", "addr:state": "Nottinghamshire", "addr:postcode": "NG21 0QH", "addr:country": "GB", "name": "Bird in Hand", "phone": "01623 491268", "website": "https://www.birdinhandblidworth.co.uk/", "brand": "Marstons Plc"}, "geometry": {"type": "Point", "coordinates": [-1.124675, 53.09481]}},
{"type": "Feature", "id": "PtJLxRHB7yll6PBaJUB8Z6feMPo=", "properties": {"ref": "90060", "@spider": "marstons_plc", "addr:full": "Messingham", "addr:city": "Scunthorpe", "addr:state": "Lincolnshire", "addr:postcode": "DN17 3SQ", "addr:country": "GB", "name": "Bird in the Barley", "phone": "01724 764744", "website": "https://www.marstons.co.uk/", "brand": "Marstons Plc"}, "geometry": {"type": "Point", "coordinates": [-0.654289, 53.539578]}},
{"type": "Feature", "id": "sa7hF2U3cxGeh_K43k-1v74gu1Y=", "properties": {"ref": "91567", "@spider": "marstons_plc", "addr:full": "Keddington Road", "addr:city": "Bottesford Scunthorpe", "addr:state": "Lincolnshire", "addr:postcode": "DN17 2QU", "addr:country": "GB", "name": "Black Beauty", "phone": "01724 489321", "brand": "Marstons Plc"}, "geometry": {"type": "Point", "coordinates": [-0.658899, 53.556995]}},
{"type": "Feature", "id": "Vd4DObwmf1ChkUK6AQ1eLwr152Q=", "properties": {"ref": "93115", "@spider": "marstons_plc", "addr:full": "444 Gower Road", "addr:city": "Swansea", "addr:state": "Swansea", "addr:postcode": "SA2 7AJ", "addr:country": "GB", "name": "Black Boy", "phone": "01792 299469", "website": "https://sabrainpubs.com/pubs-and-hotels/south-wales/swansea/black-boy", "brand": "Marstons Plc"}, "geometry": {"type": "Point", "coordinates": [-4.019787, 51.617744]}},
{"type": "Feature", "id": "Ly_XZ87lW5te_3RirBO6YpCIS6Y=", "properties": {"ref": "16024", "@spider": "marstons_plc", "addr:full": "Woodhouse Road", "addr:city": "Mansfield", "addr:state": "Nottinghamshire", "addr:postcode": "NG18 2BQ", "addr:country": "GB", "name": "Black Bull", "phone": "01623 624789", "website": "https://www.blackbullpubhotelmansfield.co.uk/", "brand": "Marstons Plc"}, "geometry": {"type": "Point", "coordinates": [-1.193285, 53.154434]}},
{"type": "Feature", "id": "5D1pp2mykkAxBEk1oQurCjzo6O4=", "properties": {"ref": "40241", "@spider": "marstons_plc", "addr:full": "Old Langho Road", "addr:city": "Old Langho", "addr:state": "Lancashire", "addr:postcode": "BB6 8AW", "addr:country": "GB", "name": "Black Bull Hotel", "phone": "01254248801", "brand": "Marstons Plc"}, "geometry": {"type": "Point", "coordinates": [-2.455281, 53.81755]}},
{"type": "Feature", "id": "2YRX-r6furMdV8lVS6MmNTj-da0=", "properties": {"ref": "40260", "@spider": "marstons_plc", "addr:full": "Market Street", "addr:city": "Standish", "addr:state": "Greater Manchester", "addr:postcode": "WN6 0HW", "addr:country": "GB", "name": "Black Bull Hotel", "phone": "01257 427161", "brand": "Marstons Plc"}, "geometry": {"type": "Point", "coordinates": [-2.663132, 53.586643]}},
{"type": "Feature", "id": "szOY-3VEymckZkAmX6A480LsBqY=", "properties": {"ref": "40945", "@spider": "marstons_plc", "addr:full": "172 Elmton Road", "addr:city": "Creswell Worksop", "addr:state": "Derbyshire", "addr:postcode": "S80 4DY", "addr:country": "GB", "name": "Black Diamond", "phone": "01909808545", "brand": "Marstons Plc"}, "geometry": {"type": "Point", "coordinates": [-1.223738, 53.26015]}},
{"type": "Feature", "id": "FFUo-zsexABRxUl3Y9OYVBOofEo=", "properties": {"ref": "16063", "@spider": "marstons_plc", "addr:full": "19 Watergate", "addr:city": "Grantham", "addr:state": "Lincolnshire", "addr:postcode": "NG31 6NS", "addr:country": "GB", "name": "Black Dog", "phone": "01476 978507", "website": "https://www.blackdogpubgrantham.co.uk/", "brand": "Marstons Plc"}, "geometry": {"type": "Point", "coordinates": [-0.643646, 52.913876]}},
{"type": "Feature", "id": "hfnADF_wWIn5bHxvpGZnpKM62rg=", "properties": {"ref": "15304", "@spider": "marstons_plc", "addr:full": "Main Road", "addr:city": "Sheepy Magna", "addr:state": "Warwickshire", "addr:postcode": "CV9 3QR", "addr:country": "GB", "name": "Black Horse", "phone": "01827 880555", "website": "https://www.marstons.co.uk/", "brand": "Marstons Plc"}, "geometry": {"type": "Point", "coordinates": [-1.518363, 52.610336]}},
{"type": "Feature", "id": "sQJeZ7IRSB6CWeFiFyxHGJKG694=", "properties": {"ref": "91362", "@spider": "marstons_plc", "addr:full": "Castle Street", "addr:city": "Cirencester", "addr:state": "Gloucestershire", "addr:postcode": "GL7 1QD", "addr:country": "GB", "name": "Black Horse", "phone": "01285 653187", "website": "https://www.blackhorsepubcirencester.co.uk/", "brand": "Marstons Plc"}, "geometry": {"type": "Point", "coordinates": [-1.970031, 51.71624]}},
{"type": "Feature", "id": "LUl_EL-mPM_0bGSEQ-55jUCThTc=", "properties": {"ref": "15272", "@spider": "marstons_plc", "addr:full": "Upper Bond Street", "addr:city": "Hinckley", "addr:state": "Leicestershire", "addr:postcode": "LE10 1RJ", "addr:country": "GB", "name": "Black Horse Inn", "phone": "01455 612541", "brand": "Marstons Plc"}, "geometry": {"type": "Point", "coordinates": [-1.372684, 52.5457]}},
{"type": "Feature", "id": "MyeCc_53i9g4BlidfNaoilTtiaU=", "properties": {"ref": "92250", "@spider": "marstons_plc", "addr:full": "Hawker Siddley Way", "addr:city": "Andover", "addr:state": "Hampshire", "addr:postcode": "SP11 8BF", "addr:country": "GB", "name": "Chalkhill Blue", "phone": "01264 356023", "website": "https://www.chalkhillbluepubandover.co.uk/", "brand": "Marstons Plc"}, "geometry": {"type": "Point", "coordinates": [-1.519349, 51.21029]}},
{"type": "Feature", "id": "X4Y9RVzbai8c2pKz89squVR-cg8=", "properties": {"ref": "91322", "@spider": "marstons_plc", "addr:full": "105 High Street", "addr:city": "Eastleigh", "addr:state": "Hampshire", "addr:postcode": "SO50 5LS", "addr:country": "GB", "name": "Chamberlayne", "phone": "02380612067", "website": "https://www.chamberlayneeastleighpub.co.uk/", "brand": "Marstons Plc"}, "geometry": {"type": "Point", "coordinates": [-1.354321, 50.965443]}},
{"type": "Feature", "id": "mj-A8JZNIgiGtUDa6hIyX5rosuw=", "properties": {"ref": "8110", "@spider": "marstons_plc", "addr:full": "Hartburn Drive", "addr:city": "Newcastle Upon Tyne", "addr:state": "Tyne and Wear", "addr:postcode": "NE5 1TE", "addr:country": "GB", "name": "Chapel Park Hotel", "phone": "01912676887", "website": "https://www.marstons.co.uk/", "brand": "Marstons Plc"}, "geometry": {"type": "Point", "coordinates": [-1.71173, 55.002033]}},
{"type": "Feature", "id": "Bux5-N7zPGXDodTBnTX8hiPfUvE=", "properties": {"ref": "92590", "@spider": "marstons_plc", "addr:full": "Shripney Road", "addr:city": "Bognor Regis", "addr:state": "West Sussex", "addr:postcode": "PO22 9FL", "addr:country": "GB", "name": "Charlie Purley", "phone": "01243200440", "website": "https://www.thecharliepurleypubbognor.co.uk/", "brand": "Marstons Plc"}, "geometry": {"type": "Point", "coordinates": [-0.665833, 50.797527]}},
{"type": "Feature", "id": "O6L-f1B-VISx57vMl4jwrMsoOjg=", "properties": {"ref": "3405", "@spider": "marstons_plc", "addr:full": "Hagley Road", "addr:city": "Rugeley", "addr:state": "Staffordshire", "addr:postcode": "WS15 2AW", "addr:country": "GB", "name": "Chase", "phone": "01889 582504", "website": "https://www.chasepub.co.uk/", "brand": "Marstons Plc"}, "geometry": {"type": "Point", "coordinates": [-1.946521, 52.76053]}},
{"type": "Feature", "id": "liamoAPQaKszLA36AvriJuDo8Mc=", "properties": {"ref": "91615", "@spider": "marstons_plc", "addr:full": "Lark Rise", "addr:city": "Brackley", "addr:state": "Northamptonshire", "addr:postcode": "NN13 6JR", "addr:country": "GB", "name": "Chequered Flag", "phone": "01280 705706", "website": "https://www.chequeredflagpub.co.uk/", "brand": "Marstons Plc"}, "geometry": {"type": "Point", "coordinates": [-1.153676, 52.03747]}},
{"type": "Feature", "id": "D9YqIY9djhr1xdEySs2P9FcKzPc=", "properties": {"ref": "91070", "@spider": "marstons_plc", "addr:full": "Ullesthorpe", "addr:city": "Lutterworth", "addr:state": "Leicestershire", "addr:postcode": "LE17 5BT", "addr:country": "GB", "name": "Chequers Country Inn", "phone": "01455 208151", "website": "https://www.chequerscountryinnlutterworth.co.uk/", "brand": "Marstons Plc"}, "geometry": {"type": "Point", "coordinates": [-1.256608, 52.484974]}},