{"type":"FeatureCollection","features":[{"type": "Feature", "id": "TIliK54tL43tqbbZy-4cxPWU7Rc=", "properties": {"ref": "00-4037", "@spider": "merkur", "addr:full": "Habaustr.1", "addr:city": "Perg", "addr:state": "Oberoesterreich", "addr:postcode": "4320", "addr:country": "AT", "name": "BILLA AG FIL. 4037", "phone": "059915 04037", "brand": "Merkur", "brand:wikidata": "Q1921857"}, "geometry": {"type": "Point", "coordinates": [14.62504, 48.24125]}},
{"type": "Feature", "id": "O-5QmVCghhOA1_PdoSuuqv-2qcQ=", "properties": {"ref": "00-6486", "@spider": "merkur", "addr:full": "Ganzsteinweg 2", "addr:city": "Muerzzuschlag", "addr:state": "Steiermark", "addr:postcode": "8680", "addr:country": "AT", "name": "BILLA AG FIL. 6486", "phone": "059915 06486", "brand": "Merkur", "brand:wikidata": "Q1921857"}, "geometry": {"type": "Point", "coordinates": [15.66494, 47.59604]}},
{"type": "Feature", "id": "r3y8n3Y70R42g-xtMQeHsw8ABNg=", "properties": {"ref": "00-5967", "@spider": "merkur", "addr:full": "Linzerberg 23", "addr:city": "Engerwitzdorf", "addr:state": "Oberoesterreich", "addr:postcode": "4210", "addr:country": "AT", "name": "BILLA AG FIL. 5967", "phone": "059915 05967", "brand": "Merkur", "brand:wikidata": "Q1921857"}, "geometry": {"type": "Point", "coordinates": [14.4104726, 48.3506275]}},
{"type": "Feature", "id": "xkbPD8tim9lTqiL1cfMnKo89vbU=", "properties": {"ref": "00-5116", "@spider": "merkur", "addr:full": "Sparkassenstrasse 21", "addr:city": "Bischofshofen", "addr:state": "Salzburg", "addr:postcode": "5500", "addr:country": "AT", "name": "BILLA AG FIL. 5116", "phone": "059915 05116", "brand": "Merkur", "brand:wikidata": "Q1921857"}, "geometry": {"type": "Point", "coordinates": [13.2175767, 47.4177869]}},
{"type": "Feature", "id": "R6hTUdMe9NwVmzS2IYEXCuov5ss=", "properties": {"ref": "00-5264", "@spider": "merkur", "addr:full": "Fuerstenallee 36a", "addr:city": "Salzburg", "addr:state": "Salzburg", "addr:postcode": "5020", "addr:country": "AT", "name": "BILLA AG FIL. 5264", "phone": "059915 05264", "brand": "Merkur", "brand:wikidata": "Q1921857"}, "geometry": {"type": "Point", "coordinates": [13.04725, 47.787937]}},
{"type": "Feature", "id": "_JWguqwhNk5AKimZS5qJEQTzaNQ=", "properties": {"ref": "00-4655", "@spider": "merkur", "addr:full": "Linzerstr.10", "addr:city": "Eferding", "addr:state": "Oberoesterreich", "addr:postcode": "4070", "addr:country": "AT", "name": "BILLA AG FIL. 4655", "phone": "059915 04655", "brand": "Merkur", "brand:wikidata": "Q1921857"}, "geometry": {"type": "Point", "coordinates": [14.02667, 48.30419]}},
{"type": "Feature", "id": "b-UPcz3veLsFyfs9rlT4ccg-UWU=", "properties": {"ref": "00-4812", "@spider": "merkur", "addr:full": "Eferdingerstrasse 16", "addr:city": "Wels", "addr:state": "Oberoesterreich", "addr:postcode": "4600", "addr:country": "AT", "name": "BILLA AG FIL. 4812", "phone": "059915 04812", "brand": "Merkur", "brand:wikidata": "Q1921857"}, "geometry": {"type": "Point", "coordinates": [14.02538, 48.16861]}},
{"type": "Feature", "id": "nn1A5wDSD_VxiiPEziwxz19lK-8=", "properties": {"ref": "00-7602", "@spider": "merkur", "addr:full": "Dorfstrasse 44", "addr:city": "Bad Kleinkirchheim", "addr:state": "Kaernten", "addr:postcode": "9546", "addr:country": "AT", "name": "BILLA AG FIL. 7602", "phone": "059915 07602", "brand": "Merkur", "brand:wikidata": "Q1921857"}, "geometry": {"type": "Point", "coordinates": [13.7902104, 46.8135824]}},
{"type": "Feature", "id": "KHfh10ag3nCS2gICwi1LlpoCS7Q=", "properties": {"ref": "00-2295", "@spider": "merkur", "addr:full": "Pilotengasse  76", "addr:city": "Wien", "addr:state": "Wien", "addr:postcode": "1220", "addr:country": "AT", "name": "BILLA AG FIL. 2295", "phone": "059915 02295", "brand": "Merkur", "brand:wikidata": "Q1921857"}, "geometry": {"type": "Point", "coordinates": [16.48844, 48.21956]}},
{"type": "Feature", "id": "Aa030Qpm7QwlEcIWt-HbfDgdnPc=", "properties": {"ref": "00-7584", "@spider": "merkur", "addr:full": "Egger-Seeuferstrasse 5", "addr:city": "Egg/Faakersee", "addr:state": "Kaernten", "addr:postcode": "9580", "addr:country": "AT", "name": "BILLA AG FIL. 7584", "phone": "059915 07584", "brand": "Merkur", "brand:wikidata": "Q1921857"}, "geometry": {"type": "Point", "coordinates": [13.9353176, 46.5880859]}},
{"type": "Feature", "id": "m54X-cyy_G-rYZNgea4Y3qENl4Y=", "properties": {"ref": "00-5359", "@spider": "merkur", "addr:full": "Tauernstrasse 30", "addr:city": "Radstadt", "addr:state": "Salzburg", "addr:postcode": "5550", "addr:country": "AT", "name": "BILLA AG FIL. 5359", "phone": "059915 05359", "brand": "Merkur", "brand:wikidata": "Q1921857"}, "geometry": {"type": "Point", "coordinates": [13.47261, 47.37927]}},
{"type": "Feature", "id": "w4ZaJ7onYzE_6tWZcfyoiY0dgDA=", "properties": {"ref": "00-4424", "@spider": "merkur", "addr:full": "Poschacherstrasse 4", "addr:city": "Mauthausen", "addr:state": "Oberoesterreich", "addr:postcode": "4310", "addr:country": "AT", "name": "BILLA AG FIL. 4424", "phone": "059915 04424", "brand": "Merkur", "brand:wikidata": "Q1921857"}, "geometry": {"type": "Point", "coordinates": [14.52675, 48.2398]}},
{"type": "Feature", "id": "5xbbbFacc1uFu-GbP0RutGVl0mk=", "properties": {"ref": "00-4432", "@spider": "merkur", "addr:full": "Bundesstrasse 56", "addr:city": "Bad Goisern", "addr:state": "Oberoesterreich", "addr:postcode": "4822", "addr:country": "AT", "name": "BILLA AG FIL. 4432", "phone": "059915 04432", "brand": "Merkur", "brand:wikidata": "Q1921857"}, "geometry": {"type": "Point", "coordinates": [13.60939, 47.65494]}},
{"type": "Feature", "id": "3X_78GiL75pqdBDAgwEUYN3jAz4=", "properties": {"ref": "00-4440", "@spider": "merkur", "addr:full": "Robert Sitter Strasse 2", "addr:city": "Lambach", "addr:state": "Oberoesterreich", "addr:postcode": "4650", "addr:country": "AT", "name": "BILLA AG FIL. 4440", "phone": "059915 04440", "brand": "Merkur", "brand:wikidata": "Q1921857"}, "geometry": {"type": "Point", "coordinates": [13.86744, 48.09127]}},
{"type": "Feature", "id": "vjDLlRoxDTr7MgP81yqw9vQBkaU=", "properties": {"ref": "00-4531", "@spider": "merkur", "addr:full": "Linzerstrasse 51", "addr:city": "Freistadt", "addr:state": "Oberoesterreich", "addr:postcode": "4240", "addr:country": "AT", "name": "BILLA AG FIL. 4531", "phone": "059915 04531", "brand": "Merkur", "brand:wikidata": "Q1921857"}, "geometry": {"type": "Point", "coordinates": [14.5036159, 48.4993532]}},
{"type": "Feature", "id": "ziyXYWWWg8L4QBIFDh8jPPbpWl0=", "properties": {"ref": "00-4540", "@spider": "merkur", "addr:full": "Pichlinger Str. 1-3", "addr:city": "Linz-Pichling", "addr:state": "Oberoesterreich", "addr:postcode": "4030", "addr:country": "AT", "name": "BILLA AG FIL. 4540", "phone": "059915 04540", "brand": "Merkur", "brand:wikidata": "Q1921857"}, "geometry": {"type": "Point", "coordinates": [14.36211, 48.24281]}},
{"type": "Feature", "id": "xquFYLOeAGgZPPJevhFIPloEhdo=", "properties": {"ref": "00-4581", "@spider": "merkur", "addr:full": "Freistaedterstrasse 2-4", "addr:city": "Linz", "addr:state": "Oberoesterreich", "addr:postcode": "4040", "addr:country": "AT", "name": "BILLA AG FIL. 4581", "phone": "059915 04581", "brand": "Merkur", "brand:wikidata": "Q1921857"}, "geometry": {"type": "Point", "coordinates": [14.28091, 48.31571]}},
{"type": "Feature", "id": "psMNygtUxUdFAmYsFiQeOX6hBGE=", "properties": {"ref": "00-4606", "@spider": "merkur", "addr:full": "Stockhofstrasse 31", "addr:city": "Linz", "addr:state": "Oberoesterreich", "addr:postcode": "4020", "addr:country": "AT", "name": "BILLA AG FIL. 4606", "phone": "059915 04606", "brand": "Merkur", "brand:wikidata": "Q1921857"}, "geometry": {"type": "Point", "coordinates": [14.28654, 48.2946]}},
{"type": "Feature", "id": "W_QGMLmLBMFKwAitTOWoVfEBQcQ=", "properties": {"ref": "00-4673", "@spider": "merkur", "addr:full": "Schulstrasse 13", "addr:city": "Wolfern", "addr:state": "Oberoesterreich", "addr:postcode": "4493", "addr:country": "AT", "name": "BILLA AG FIL. 4673", "phone": "059915 04673", "brand": "Merkur", "brand:wikidata": "Q1921857"}, "geometry": {"type": "Point", "coordinates": [14.37481, 48.07935]}},
{"type": "Feature", "id": "yy1ABliT2zGhLjbGzF68YfsXd7A=", "properties": {"ref": "00-4697", "@spider": "merkur", "addr:full": "Schulstrasse 15", "addr:city": "Haid", "addr:state": "Oberoesterreich", "addr:postcode": "4053", "addr:country": "AT", "name": "BILLA AG FIL. 4697", "phone": "059915 04697", "brand": "Merkur", "brand:wikidata": "Q1921857"}, "geometry": {"type": "Point", "coordinates": [14.2547467, 48.2043093]}},
{"type": "Feature", "id": "KE-_Ks6PXMITFFlSKl86jSbK5io=", "properties": {"ref": "00-4721", "@spider": "merkur", "addr:full": "Bahnhofstrasse 45", "addr:city": "Peuerbach", "addr:state": "Oberoesterreich", "addr:postcode": "4722", "addr:country": "AT", "name": "BILLA AG FIL. 4721", "phone": "059915 04721", "brand": "Merkur", "brand:wikidata": "Q1921857"}, "geometry": {"type": "Point", "coordinates": [13.77298, 48.33647]}},
{"type": "Feature", "id": "Kcly1aj7Lx4q3Ewi3axuX7P9Tes=", "properties": {"ref": "00-1750", "@spider": "merkur", "addr:full": "Kalvarienbergg. 67-69", "addr:city": "Wien", "addr:state": "Wien", "addr:postcode": "1170", "addr:country": "AT", "name": "BILLA AG FIL. 1750", "phone": "059915 01750", "brand": "Merkur", "brand:wikidata": "Q1921857"}, "geometry": {"type": "Point", "coordinates": [16.3354465, 48.2230354]}},
{"type": "Feature", "id": "_EM4UDNvLiKdpFWEPxGxLjqbb0E=", "properties": {"ref": "00-1768", "@spider": "merkur", "addr:full": "Hernalser Hauptstr.215", "addr:city": "Wien", "addr:state": "Wien", "addr:postcode": "1170", "addr:country": "AT", "name": "BILLA AG FIL. 1768", "phone": "059915 01768", "brand": "Merkur", "brand:wikidata": "Q1921857"}, "geometry": {"type": "Point", "coordinates": [16.3101631, 48.2251685]}},
{"type": "Feature", "id": "VG_2szPSbgGqQOBdZlIR3jX2Qpg=", "properties": {"ref": "00-1826", "@spider": "merkur", "addr:full": "Gersthoferstr. 141", "addr:city": "Wien", "addr:state": "Wien", "addr:postcode": "1180", "addr:country": "AT", "name": "BILLA AG FIL. 1826", "phone": "059915 01826", "brand": "Merkur", "brand:wikidata": "Q1921857"}, "geometry": {"type": "Point", "coordinates": [16.31881, 48.23857]}},
{"type": "Feature", "id": "Rp3uWAx4v8XyvrKnSTyqoVpusU4=", "properties": {"ref": "00-1900", "@spider": "merkur", "addr:full": "Heiligenstaedterstr. 123", "addr:city": "Wien", "addr:state": "Wien", "addr:postcode": "1190", "addr:country": "AT", "name": "BILLA AG FIL. 1900", "phone": "059915 01900", "brand": "Merkur", "brand:wikidata": "Q1921857"}, "geometry": {"type": "Point", "coordinates": [16.362318, 48.2494963]}},
{"type": "Feature", "id": "xqZ0zu0mRIhRkqd16Q-I9nqGSyE=", "properties": {"ref": "00-1925", "@spider": "merkur", "addr:full": "Heiligenstaedterstr.81-87", "addr:city": "Wien", "addr:state": "Wien", "addr:postcode": "1190", "addr:country": "AT", "name": "BILLA AG FIL. 1925", "phone": "059915 01925", "brand": "Merkur", "brand:wikidata": "Q1921857"}, "geometry": {"type": "Point", "coordinates": [16.36134, 48.24514]}},
{"type": "Feature", "id": "_9U9wAUkrESbXyxzlq8nZ_tHgew=", "properties": {"ref": "00-1941", "@spider": "merkur", "addr:full": "Obkirchergasse 36", "addr:city": "Wien", "addr:state": "Wien", "addr:postcode": "1190", "addr:country": "AT", "name": "BILLA AG FIL. 1941", "phone": "059915 01941", "brand": "Merkur", "brand:wikidata": "Q1921857"}, "geometry": {"type": "Point", "coordinates": [16.3424228, 48.2447037]}},
{"type": "Feature", "id": "If44KLYk8ySiuGWfssv38hcIdgc=", "properties": {"ref": "00-1958", "@spider": "merkur", "addr:full": "Flotowgasse 4-6", "addr:city": "Wien", "addr:state": "Wien", "addr:postcode": "1190", "addr:country": "AT", "name": "BILLA AG FIL. 1958", "phone": "059915 01958", "brand": "Merkur", "brand:wikidata": "Q1921857"}, "geometry": {"type": "Point", "coordinates": [16.33898, 48.24135]}},
{"type": "Feature", "id": "jAdcYzED6bIz-k71mV7h2m9yUYM=", "properties": {"ref": "00-1974", "@spider": "merkur", "addr:full": "Strassergasse 3", "addr:city": "Wien", "addr:state": "Wien", "addr:postcode": "1190", "addr:country": "AT", "name": "BILLA AG FIL. 1974", "phone": "059915 01974", "brand": "Merkur", "brand:wikidata": "Q1921857"}, "geometry": {"type": "Point", "coordinates": [16.3420354, 48.2545559]}},
{"type": "Feature", "id": "JQKYkxwVzEJ_9HoVGNFjrBMrfLQ=", "properties": {"ref": "00-2006", "@spider": "merkur", "addr:full": "Troststrasse 63-67", "addr:city": "Wien", "addr:state": "Wien", "addr:postcode": "1100", "addr:country": "AT", "name": "BILLA AG FIL. 2006", "phone": "059915 02006", "brand": "Merkur", "brand:wikidata": "Q1921857"}, "geometry": {"type": "Point", "coordinates": [16.3649267, 48.1697412]}},
{"type": "Feature", "id": "kCWzS9QeFQMV0W7Xfjm1fpGHY80=", "properties": {"ref": "00-2015", "@spider": "merkur", "addr:full": "Leystrasse  2-4", "addr:city": "Wien", "addr:state": "Wien", "addr:postcode": "1200", "addr:country": "AT", "name": "BILLA AG FIL. 2015", "phone": "059915 02015", "brand": "Merkur", "brand:wikidata": "Q1921857"}, "geometry": {"type": "Point", "coordinates": [16.37492, 48.24658]}},
{"type": "Feature", "id": "zCtMK5l6vNOlDhnOmpUyA0iKGlc=", "properties": {"ref": "00-2063", "@spider": "merkur", "addr:full": "Klosterneuburgerstr. 33", "addr:city": "Wien", "addr:state": "Wien", "addr:postcode": "1200", "addr:country": "AT", "name": "BILLA AG FIL. 2063", "phone": "059915 02063", "brand": "Merkur", "brand:wikidata": "Q1921857"}, "geometry": {"type": "Point", "coordinates": [16.3673927, 48.2298986]}},
{"type": "Feature", "id": "IhLMgbJx0A-cmUpq-jQNzVnWDGk=", "properties": {"ref": "00-2100", "@spider": "merkur", "addr:full": "Edergasse 1-3", "addr:city": "Wien", "addr:state": "Wien", "addr:postcode": "1210", "addr:country": "AT", "name": "BILLA AG FIL. 2100", "phone": "059915 02100", "brand": "Merkur", "brand:wikidata": "Q1921857"}, "geometry": {"type": "Point", "coordinates": [16.40977, 48.27755]}},
{"type": "Feature", "id": "hHAgL2eDeZ4LvhWNO_CUEGzxo0s=", "properties": {"ref": "00-8237", "@spider": "merkur", "addr:full": "Sillian 42b", "addr:city": "Sillian", "addr:state": "Tirol", "addr:postcode": "9920", "addr:country": "AT", "name": "BILLA AG FIL. 8237", "phone": "059915 08237", "brand": "Merkur", "brand:wikidata": "Q1921857"}, "geometry": {"type": "Point", "coordinates": [12.42135, 46.74969]}},
{"type": "Feature", "id": "k21bhoms1KhFwiUDhwziBktHJE0=", "properties": {"ref": "00-8240", "@spider": "merkur", "addr:full": "Andreas Hofer-Strasse 13", "addr:city": "Innsbruck", "addr:state": "Tirol", "addr:postcode": "6020", "addr:country": "AT", "name": "BILLA AG FIL. 8240", "phone": "059915 08240", "brand": "Merkur", "brand:wikidata": "Q1921857"}, "geometry": {"type": "Point", "coordinates": [11.39186, 47.2609]}},
{"type": "Feature", "id": "QwgFl8nc6aD7W-U7ZsbWRJCKPcw=", "properties": {"ref": "00-8280", "@spider": "merkur", "addr:full": "Lustenauerstr.2", "addr:city": "Hohenems", "addr:state": "Vorarlberg", "addr:postcode": "6845", "addr:country": "AT", "name": "BILLA AG FIL. 8280", "phone": "059915 08280", "brand": "Merkur", "brand:wikidata": "Q1921857"}, "geometry": {"type": "Point", "coordinates": [9.66336, 47.35543]}},
{"type": "Feature", "id": "G9huj8fYsHePUwlIQNWMMKs2eqw=", "properties": {"ref": "00-8315", "@spider": "merkur", "addr:full": "Dr.Glatzstrasse 30", "addr:city": "Innsbruck", "addr:state": "Tirol", "addr:postcode": "6020", "addr:country": "AT", "name": "BILLA AG FIL. 8315", "phone": "059915 08315", "brand": "Merkur", "brand:wikidata": "Q1921857"}, "geometry": {"type": "Point", "coordinates": [11.41525, 47.2587]}},
{"type": "Feature", "id": "byWLf2fKBnWABJ16GoKlZB_NUjk=", "properties": {"ref": "00-8342", "@spider": "merkur", "addr:full": "Siedlungstrasse 8a", "addr:city": "Haiming", "addr:state": "Tirol", "addr:postcode": "6425", "addr:country": "AT", "name": "BILLA AG FIL. 8342", "phone": "059915 08342", "brand": "Merkur", "brand:wikidata": "Q1921857"}, "geometry": {"type": "Point", "coordinates": [10.88081, 47.25529]}},
{"type": "Feature", "id": "RLCVDJ8QXeIwQHc0XGm3pfzuWoM=", "properties": {"ref": "00-8349", "@spider": "merkur", "addr:full": "Brennerstr.77a", "addr:city": "Steinach Am Brenner", "addr:state": "Tirol", "addr:postcode": "6150", "addr:country": "AT", "name": "BILLA AG FIL. 8349", "phone": "059915 08349", "brand": "Merkur", "brand:wikidata": "Q1921857"}, "geometry": {"type": "Point", "coordinates": [11.46777, 47.08865]}},
{"type": "Feature", "id": "p84eqUHzxV4tAMT4Anj06fMznEs=", "properties": {"ref": "00-8375", "@spider": "merkur", "addr:full": "Kuglgasse 40", "addr:city": "Kramsach", "addr:state": "Tirol", "addr:postcode": "6233", "addr:country": "AT", "name": "BILLA AG FIL. 8375", "phone": "059915 08375", "brand": "Merkur", "brand:wikidata": "Q1921857"}, "geometry": {"type": "Point", "coordinates": [11.88331, 47.4465]}},
{"type": "Feature", "id": "dQZwoRieIHD1arTqfilkYml9Wnc=", "properties": {"ref": "00-8400", "@spider": "merkur", "addr:full": "Reichstrasse 167", "addr:city": "Feldkirch", "addr:state": "Vorarlberg", "addr:postcode": "6800", "addr:country": "AT", "name": "BILLA AG FIL. 8400", "phone": "059915 08400", "brand": "Merkur", "brand:wikidata": "Q1921857"}, "geometry": {"type": "Point", "coordinates": [9.60429, 47.24244]}},
{"type": "Feature", "id": "pe7ABdjwbq6QsIwppGuH7fzru30=", "properties": {"ref": "00-8433", "@spider": "merkur", "addr:full": "Roesselmuehlgasse 12", "addr:city": "Graz", "addr:state": "Steiermark", "addr:postcode": "8020", "addr:country": "AT", "name": "BILLA AG FIL. 8433", "phone": "059915 08433", "brand": "Merkur", "brand:wikidata": "Q1921857"}, "geometry": {"type": "Point", "coordinates": [15.42995, 47.06722]}},
{"type": "Feature", "id": "qNeGZdszIofWCUXel7sZkJPMBBg=", "properties": {"ref": "00-8466", "@spider": "merkur", "addr:full": "Hubertusstrasse 2", "addr:city": "Graz-St.Peter", "addr:state": "Steiermark", "addr:postcode": "8042", "addr:country": "AT", "name": "BILLA AG FIL. 8466", "phone": "059915 08466", "brand": "Merkur", "brand:wikidata": "Q1921857"}, "geometry": {"type": "Point", "coordinates": [15.47829, 47.05069]}},
{"type": "Feature", "id": "qqtQb2d_BuwARrR3-3c0Kj9oCW8=", "properties": {"ref": "00-8482", "@spider": "merkur", "addr:full": "Peter Rosegger Str.30", "addr:city": "Graz", "addr:state": "Steiermark", "addr:postcode": "8053", "addr:country": "AT", "name": "BILLA AG FIL. 8482", "phone": "059915 08482", "brand": "Merkur", "brand:wikidata": "Q1921857"}, "geometry": {"type": "Point", "coordinates": [15.41147, 47.05461]}},
{"type": "Feature", "id": "Xsv2Q8TJqCUysD7oB0MH0yrHick=", "properties": {"ref": "00-3138", "@spider": "merkur", "addr:full": "Franz V\u00f6lker Gasse 1", "addr:city": "Klosterneuburg", "addr:state": "Niederoesterreich", "addr:postcode": "3400", "addr:country": "AT", "name": "BILLA AG FIL. 3138", "phone": "059915 03138", "brand": "Merkur", "brand:wikidata": "Q1921857"}, "geometry": {"type": "Point", "coordinates": [16.25663, 48.30944]}},
{"type": "Feature", "id": "ekWquJAVTrkGgHg5WpH6SXL648A=", "properties": {"ref": "00-6024", "@spider": "merkur", "addr:full": "Ludwig-Binder-Str. 22", "addr:city": "Gleisdorf", "addr:state": "Steiermark", "addr:postcode": "8200", "addr:country": "AT", "name": "BILLA AG FIL. 6024", "phone": "059915 06024", "brand": "Merkur", "brand:wikidata": "Q1921857"}, "geometry": {"type": "Point", "coordinates": [15.7043546, 47.1058565]}},
{"type": "Feature", "id": "3F3ilT3ZRxZVaKBLkzvZpqTDUi0=", "properties": {"ref": "00-6569", "@spider": "merkur", "addr:full": "Siglstrasse 1", "addr:city": "Langenwang", "addr:state": "Steiermark", "addr:postcode": "8665", "addr:country": "AT", "name": "BILLA AG FIL. 6569", "phone": "059915 06569", "brand": "Merkur", "brand:wikidata": "Q1921857"}, "geometry": {"type": "Point", "coordinates": [15.61956, 47.5687]}},
{"type": "Feature", "id": "K9yYbcvm_q_Hf6vmCvPWVkE_MoY=", "properties": {"ref": "00-4465", "@spider": "merkur", "addr:full": "Bahnhofstrasse 1", "addr:city": "Lenzing", "addr:state": "Oberoesterreich", "addr:postcode": "4860", "addr:country": "AT", "name": "BILLA AG FIL. 4465", "phone": "059915 04465", "brand": "Merkur", "brand:wikidata": "Q1921857"}, "geometry": {"type": "Point", "coordinates": [13.61206, 47.98067]}},
{"type": "Feature", "id": "JGIQTP8W4R2WSCARcC5HCE4InbY=", "properties": {"ref": "00-3949", "@spider": "merkur", "addr:full": "Andre Freyskorn-Str. 16", "addr:city": "Zwettl", "addr:state": "Niederoesterreich", "addr:postcode": "3910", "addr:country": "AT", "name": "BILLA AG FIL. 3949", "phone": "059915 03949", "brand": "Merkur", "brand:wikidata": "Q1921857"}, "geometry": {"type": "Point", "coordinates": [15.18863, 48.6008]}},
{"type": "Feature", "id": "csFyCRiLTvxVIVmmQPl98QQkQEI=", "properties": {"ref": "00-3012", "@spider": "merkur", "addr:full": "Wassergasse 14", "addr:city": "Baden", "addr:state": "Niederoesterreich", "addr:postcode": "2500", "addr:country": "AT", "name": "BILLA AG FIL. 3012", "phone": "059915 03012", "brand": "Merkur", "brand:wikidata": "Q1921857"}, "geometry": {"type": "Point", "coordinates": [16.2360725, 48.0060629]}},
{"type": "Feature", "id": "AkVT4cRCWVcGY5z6gb_9XPtDLoc=", "properties": {"ref": "00-2045", "@spider": "merkur", "addr:full": "Adalbert Stifterstr.33", "addr:city": "Wien", "addr:state": "Wien", "addr:postcode": "1200", "addr:country": "AT", "name": "BILLA AG FIL. 2045", "phone": "059915 02045", "brand": "Merkur", "brand:wikidata": "Q1921857"}, "geometry": {"type": "Point", "coordinates": [16.3687555, 48.2398506]}},
{"type": "Feature", "id": "qz7Mk-jEyN9LkyHgBiK0XLlHOo8=", "properties": {"ref": "00-4770", "@spider": "merkur", "addr:full": "Agerstrasse 36", "addr:city": "Schoerfling", "addr:state": "Oberoesterreich", "addr:postcode": "4861", "addr:country": "AT", "name": "BILLA AG FIL. 4770", "phone": "059915 04770", "brand": "Merkur", "brand:wikidata": "Q1921857"}, "geometry": {"type": "Point", "coordinates": [13.59608, 47.94759]}},
{"type": "Feature", "id": "x5HQIKMlZpXOXAeJPs_nZ-zelX8=", "properties": {"ref": "00-5171", "@spider": "merkur", "addr:full": "Franz-Lederer-Strasse 26", "addr:city": "Bruck/Grossglockner", "addr:state": "Salzburg", "addr:postcode": "5671", "addr:country": "AT", "name": "BILLA AG FIL. 5171", "phone": "059915 05171", "brand": "Merkur", "brand:wikidata": "Q1921857"}, "geometry": {"type": "Point", "coordinates": [12.8248717, 47.2810253]}},
{"type": "Feature", "id": "L2BJ13m4RfK5NPUORiHwR5vdPdU=", "properties": {"ref": "00-5391", "@spider": "merkur", "addr:full": "Oberndorferstrasse 2", "addr:city": "Altenmarkt Im Pongau", "addr:state": "Salzburg", "addr:postcode": "5541", "addr:country": "AT", "name": "BILLA AG FIL. 5391", "phone": "059915 05391", "brand": "Merkur", "brand:wikidata": "Q1921857"}, "geometry": {"type": "Point", "coordinates": [13.4181, 47.381817]}},
{"type": "Feature", "id": "sU2WZYkvjGLUf2xnV0GOpg7wp2s=", "properties": {"ref": "00-4888", "@spider": "merkur", "addr:full": "Wilhelm Redl Str. 2a", "addr:city": "Andorf", "addr:state": "Oberoesterreich", "addr:postcode": "4770", "addr:country": "AT", "name": "BILLA AG FIL. 4888", "phone": "059915 04888", "brand": "Merkur", "brand:wikidata": "Q1921857"}, "geometry": {"type": "Point", "coordinates": [13.56739, 48.3657]}},
{"type": "Feature", "id": "sDIFcL1uyM8A2dRi-3YtGYa_psQ=", "properties": {"ref": "00-4629", "@spider": "merkur", "addr:full": "Vor Der Au Nr. 5", "addr:city": "Schwanenstadt", "addr:state": "Oberoesterreich", "addr:postcode": "4690", "addr:country": "AT", "name": "BILLA AG FIL. 4629", "phone": "059915 04629", "brand": "Merkur", "brand:wikidata": "Q1921857"}, "geometry": {"type": "Point", "coordinates": [13.78149, 48.04803]}},
{"type": "Feature", "id": "T_vyacWleJ38ygWOc7FtbAca5dQ=", "properties": {"ref": "00-4038", "@spider": "merkur", "addr:full": "Landstrasse 60", "addr:city": "Linz", "addr:state": "Oberoesterreich", "addr:postcode": "4020", "addr:country": "AT", "name": "BILLA AG FIL. 4038", "phone": "059915 04038", "brand": "Merkur", "brand:wikidata": "Q1921857"}, "geometry": {"type": "Point", "coordinates": [14.2908519, 48.2994154]}},
{"type": "Feature", "id": "KR0MTOzY2bVtrKLvfXuo-LoVAzQ=", "properties": {"ref": "00-4128", "@spider": "merkur", "addr:full": "Stadtplatz 30", "addr:city": "Steyr", "addr:state": "Oberoesterreich", "addr:postcode": "4400", "addr:country": "AT", "name": "BILLA AG FIL. 4128", "phone": "059915 04128", "brand": "Merkur", "brand:wikidata": "Q1921857"}, "geometry": {"type": "Point", "coordinates": [14.418761, 48.0391151]}},
{"type": "Feature", "id": "iobXaWje7nPNF95-0ZnRAASB2vg=", "properties": {"ref": "00-4158", "@spider": "merkur", "addr:full": "Stadtplatz 44", "addr:city": "Braunau", "addr:state": "Oberoesterreich", "addr:postcode": "5280", "addr:country": "AT", "name": "BILLA AG FIL. 4158", "phone": "059915 04158", "brand": "Merkur", "brand:wikidata": "Q1921857"}, "geometry": {"type": "Point", "coordinates": [13.03533, 48.25849]}},
{"type": "Feature", "id": "Fg5w27uVbfuGZR-dibEkc4mOd7Q=", "properties": {"ref": "00-5128", "@spider": "merkur", "addr:full": "Stadtplatz 2", "addr:city": "Zell Am See", "addr:state": "Salzburg", "addr:postcode": "5700", "addr:country": "AT", "name": "BILLA AG FIL. 5128", "phone": "059915 05128", "brand": "Merkur", "brand:wikidata": "Q1921857"}, "geometry": {"type": "Point", "coordinates": [12.79792, 47.32303]}},
{"type": "Feature", "id": "1z3xEOFp1PHkjR4IapBD25471Wo=", "properties": {"ref": "00-6018", "@spider": "merkur", "addr:full": "Plueddemanngasse 98", "addr:city": "Graz", "addr:state": "Steiermark", "addr:postcode": "8010", "addr:country": "AT", "name": "BILLA AG FIL. 6018", "phone": "059915 06018", "brand": "Merkur", "brand:wikidata": "Q1921857"}, "geometry": {"type": "Point", "coordinates": [15.46818, 47.0605]}},
{"type": "Feature", "id": "Y2isPfunLr23pMrdIVivKd59LDw=", "properties": {"ref": "00-6138", "@spider": "merkur", "addr:full": "Mariatrosterstrasse 142", "addr:city": "Graz", "addr:state": "Steiermark", "addr:postcode": "8044", "addr:country": "AT", "name": "BILLA AG FIL. 6138", "phone": "059915 06138", "brand": "Merkur", "brand:wikidata": "Q1921857"}, "geometry": {"type": "Point", "coordinates": [15.47563, 47.09918]}},
{"type": "Feature", "id": "Gy3EOSkIuC41K896aYiWdkEZiUY=", "properties": {"ref": "00-6468", "@spider": "merkur", "addr:full": "Herzog Ernst-Gasse 6", "addr:city": "Bruck A.D.Mur", "addr:state": "Steiermark", "addr:postcode": "8600", "addr:country": "AT", "name": "BILLA AG FIL. 6468", "phone": "059915 06468", "brand": "Merkur", "brand:wikidata": "Q1921857"}, "geometry": {"type": "Point", "coordinates": [15.2703468, 47.410823]}},
{"type": "Feature", "id": "VtaOS50Bk34_-9aE1bIhFTZ6DEw=", "properties": {"ref": "00-7528", "@spider": "merkur", "addr:full": "Hauptplatz 19", "addr:city": "St.Veit An Der Glan", "addr:state": "Kaernten", "addr:postcode": "9300", "addr:country": "AT", "name": "BILLA AG FIL. 7528", "phone": "059915 07528", "brand": "Merkur", "brand:wikidata": "Q1921857"}, "geometry": {"type": "Point", "coordinates": [14.357469, 46.766801]}},
{"type": "Feature", "id": "Tm1lWNj-ra00tu1I6hYS8h05e3M=", "properties": {"ref": "00-8018", "@spider": "merkur", "addr:full": "Vorderstadt 25", "addr:city": "Kitzbuehel", "addr:state": "Tirol", "addr:postcode": "6370", "addr:country": "AT", "name": "BILLA AG FIL. 8018", "phone": "059915 08018", "brand": "Merkur", "brand:wikidata": "Q1921857"}, "geometry": {"type": "Point", "coordinates": [12.39158, 47.44609]}},
{"type": "Feature", "id": "wfcGYLqeiQ-f2_j6kHPVJ8-HfvQ=", "properties": {"ref": "00-8520", "@spider": "merkur", "addr:full": "Bahnhofstrasse 34", "addr:city": "Lustenau", "addr:state": "Vorarlberg", "addr:postcode": "6890", "addr:country": "AT", "name": "BILLA AG FIL. 8520", "phone": "059915 08520", "brand": "Merkur", "brand:wikidata": "Q1921857"}, "geometry": {"type": "Point", "coordinates": [9.658789, 47.442828]}},
{"type": "Feature", "id": "V2jdI7xEtlgMWbZAovhZ0EVs5F0=", "properties": {"ref": "00-3996", "@spider": "merkur", "addr:full": "Wagmeisterstrasse 36-40", "addr:city": "Amstetten", "addr:state": "Niederoesterreich", "addr:postcode": "3300", "addr:country": "AT", "name": "BILLA AG FIL. 3996", "phone": "059915 03996", "brand": "Merkur", "brand:wikidata": "Q1921857"}, "geometry": {"type": "Point", "coordinates": [14.88375, 48.12515]}},
{"type": "Feature", "id": "eBZydGjn4YVGqud8jLGf1jg3y8M=", "properties": {"ref": "00-4005", "@spider": "merkur", "addr:full": "Mueller Guttenbrunn Str.2", "addr:city": "Linz", "addr:state": "Oberoesterreich", "addr:postcode": "4020", "addr:country": "AT", "name": "BILLA AG FIL. 4005", "phone": "059915 04005", "brand": "Merkur", "brand:wikidata": "Q1921857"}, "geometry": {"type": "Point", "coordinates": [14.29849, 48.27114]}},
{"type": "Feature", "id": "-b_LUdr31yzSKWPiaH3tBmp-cmQ=", "properties": {"ref": "00-4028", "@spider": "merkur", "addr:full": "Lederergasse 27a", "addr:city": "Linz", "addr:state": "Oberoesterreich", "addr:postcode": "4020", "addr:country": "AT", "name": "BILLA AG FIL. 4028", "phone": "059915 04028", "brand": "Merkur", "brand:wikidata": "Q1921857"}, "geometry": {"type": "Point", "coordinates": [14.29534, 48.3074]}},
{"type": "Feature", "id": "imZCKJQIBFPNxkwKpD4rlCBVZz4=", "properties": {"ref": "00-4051", "@spider": "merkur", "addr:full": "Ringstrasse 48", "addr:city": "Braunau", "addr:state": "Oberoesterreich", "addr:postcode": "5280", "addr:country": "AT", "name": "BILLA AG FIL. 4051", "phone": "059915 04051", "brand": "Merkur", "brand:wikidata": "Q1921857"}, "geometry": {"type": "Point", "coordinates": [13.0367223, 48.2559652]}},
{"type": "Feature", "id": "oNrc434yMt2G4aTtK4gDf0wj3Eo=", "properties": {"ref": "00-4093", "@spider": "merkur", "addr:full": "Stadlgasse 2", "addr:city": "Enns", "addr:state": "Oberoesterreich", "addr:postcode": "4470", "addr:country": "AT", "name": "BILLA AG FIL. 4093", "phone": "059915 04093", "brand": "Merkur", "brand:wikidata": "Q1921857"}, "geometry": {"type": "Point", "coordinates": [14.4778625, 48.2172093]}},
{"type": "Feature", "id": "7phA07KSeU-0zUIF7ROdNTeL_P4=", "properties": {"ref": "00-4113", "@spider": "merkur", "addr:full": "Bambergstrasse 21", "addr:city": "Kirchdorf/Krems", "addr:state": "Oberoesterreich", "addr:postcode": "4560", "addr:country": "AT", "name": "BILLA AG FIL. 4113", "phone": "059915 04113", "brand": "Merkur", "brand:wikidata": "Q1921857"}, "geometry": {"type": "Point", "coordinates": [14.1203616, 47.9059548]}},
{"type": "Feature", "id": "Aa4pvmVm3VMf1zq-0XMWDTmAOc8=", "properties": {"ref": "00-4135", "@spider": "merkur", "addr:full": "Hostauerstrasse 90", "addr:city": "Ottensheim", "addr:state": "Oberoesterreich", "addr:postcode": "4100", "addr:country": "AT", "name": "BILLA AG FIL. 4135", "phone": "059915 04135", "brand": "Merkur", "brand:wikidata": "Q1921857"}, "geometry": {"type": "Point", "coordinates": [14.16696, 48.34049]}},
{"type": "Feature", "id": "vGjPfphNy4VMMVwS-BgHyrHcFMI=", "properties": {"ref": "00-4226", "@spider": "merkur", "addr:full": "Ennsfeld 11", "addr:city": "Linz-Ebelsberg", "addr:state": "Oberoesterreich", "addr:postcode": "4030", "addr:country": "AT", "name": "BILLA AG FIL. 4226", "phone": "059915 04226", "brand": "Merkur", "brand:wikidata": "Q1921857"}, "geometry": {"type": "Point", "coordinates": [14.337127, 48.2431562]}},
{"type": "Feature", "id": "m15XTLw2asPddeMSUFaYeCUcR3o=", "properties": {"ref": "00-4283", "@spider": "merkur", "addr:full": "Gmundner Strasse 5", "addr:city": "Laakirchen", "addr:state": "Oberoesterreich", "addr:postcode": "4663", "addr:country": "AT", "name": "BILLA AG FIL. 4283", "phone": "059915 04283", "brand": "Merkur", "brand:wikidata": "Q1921857"}, "geometry": {"type": "Point", "coordinates": [13.82423, 47.98087]}},
{"type": "Feature", "id": "S4y1C1aXSWZzjw-J9iNzv66dM98=", "properties": {"ref": "00-4408", "@spider": "merkur", "addr:full": "Spaunstrasse 12", "addr:city": "Linz", "addr:state": "Oberoesterreich", "addr:postcode": "4020", "addr:country": "AT", "name": "BILLA AG FIL. 4408", "phone": "059915 04408", "brand": "Merkur", "brand:wikidata": "Q1921857"}, "geometry": {"type": "Point", "coordinates": [14.31101, 48.27454]}},
{"type": "Feature", "id": "houN2KxVT-jOZWD3g_IP9RLUtHs=", "properties": {"ref": "00-3510", "@spider": "merkur", "addr:full": "Landhausboulevard 2", "addr:city": "St. Poelten", "addr:state": "Niederoesterreich", "addr:postcode": "3100", "addr:country": "AT", "name": "BILLA AG FIL. 3510", "phone": "059915 03510", "brand": "Merkur", "brand:wikidata": "Q1921857"}, "geometry": {"type": "Point", "coordinates": [15.63329, 48.2022]}},
{"type": "Feature", "id": "eDf8yDV3GsuYZXZCBR0e_izG5x4=", "properties": {"ref": "00-9712", "@spider": "merkur", "addr:full": "Lobaustrasse 4", "addr:city": "Gross-Enzersdorf", "addr:state": "Niederoesterreich", "addr:postcode": "2301", "addr:country": "AT", "name": "BILLA AG FIL. 9712", "phone": "059915 09712", "brand": "Merkur", "brand:wikidata": "Q1921857"}, "geometry": {"type": "Point", "coordinates": [16.54917, 48.1992]}},
{"type": "Feature", "id": "KZOInBaeEFlHTFX1lk2Rzwh5Xt8=", "properties": {"ref": "00-9753", "@spider": "merkur", "addr:full": "Wienerstrasse 34", "addr:city": "Poysdorf", "addr:state": "Niederoesterreich", "addr:postcode": "2170", "addr:country": "AT", "name": "BILLA AG FIL. 9753", "phone": "059915 09753", "brand": "Merkur", "brand:wikidata": "Q1921857"}, "geometry": {"type": "Point", "coordinates": [16.62813, 48.66337]}},
{"type": "Feature", "id": "DPOyr7DpJJ4Q0CQl4_hnM_CxQBk=", "properties": {"ref": "00-9795", "@spider": "merkur", "addr:full": "Wr.Neustaedter Str.103", "addr:city": "Sollenau", "addr:state": "Niederoesterreich", "addr:postcode": "2601", "addr:country": "AT", "name": "BILLA AG FIL. 9795", "phone": "059915 09795", "brand": "Merkur", "brand:wikidata": "Q1921857"}, "geometry": {"type": "Point", "coordinates": [16.2507, 47.88047]}},
{"type": "Feature", "id": "GMJC1qVkXUIdus8FhFMAUsTSCvw=", "properties": {"ref": "00-9829", "@spider": "merkur", "addr:full": "Waidhofnerstr. 63", "addr:city": "Amstetten", "addr:state": "Niederoesterreich", "addr:postcode": "3300", "addr:country": "AT", "name": "BILLA AG FIL. 9829", "phone": "059915 09829", "brand": "Merkur", "brand:wikidata": "Q1921857"}, "geometry": {"type": "Point", "coordinates": [14.86296, 48.12082]}},
{"type": "Feature", "id": "L4R0s-o5L7k9Y59GWQ5RUX4kWRg=", "properties": {"ref": "00-9860", "@spider": "merkur", "addr:full": "Wienerstrasse 99", "addr:city": "Baden", "addr:state": "Niederoesterreich", "addr:postcode": "2500", "addr:country": "AT", "name": "BILLA AG FIL. 9860", "phone": "059915 09860", "brand": "Merkur", "brand:wikidata": "Q1921857"}, "geometry": {"type": "Point", "coordinates": [16.25463, 48.01384]}},
{"type": "Feature", "id": "IvTTT49WVMgS7BGEiT4-coXx-Qw=", "properties": {"ref": "00-9894", "@spider": "merkur", "addr:full": "Guntramsdorferstrasse 87", "addr:city": "Moedling", "addr:state": "Niederoesterreich", "addr:postcode": "2340", "addr:country": "AT", "name": "BILLA AG FIL. 9894", "phone": "059915 09894", "brand": "Merkur", "brand:wikidata": "Q1921857"}, "geometry": {"type": "Point", "coordinates": [16.30072, 48.07205]}},
{"type": "Feature", "id": "Kwn1Cw7i7cuZdKbOb_I_MH-OAk8=", "properties": {"ref": "00-7749", "@spider": "merkur", "addr:full": "Koschatstr. 129", "addr:city": "Klagenfurt", "addr:state": "Kaernten", "addr:postcode": "9010", "addr:country": "AT", "name": "BILLA AG FIL. 7749", "phone": "059915 07749", "brand": "Merkur", "brand:wikidata": "Q1921857"}, "geometry": {"type": "Point", "coordinates": [14.28413, 46.62253]}},
{"type": "Feature", "id": "D333rJ3N53Ywj0bAkpngD4Z0PgQ=", "properties": {"ref": "00-7601", "@spider": "merkur", "addr:full": "Goeltschacherstrasse 2", "addr:city": "Maria Rain", "addr:state": "Kaernten", "addr:postcode": "9161", "addr:country": "AT", "name": "BILLA AG FIL. 7601", "phone": "059915 07601", "brand": "Merkur", "brand:wikidata": "Q1921857"}, "geometry": {"type": "Point", "coordinates": [14.28216, 46.56028]}},
{"type": "Feature", "id": "B0tFxi282Zlz22AN61kX1HnperY=", "properties": {"ref": "00-1368", "@spider": "merkur", "addr:full": "Speisinger Str. 57 - 59", "addr:city": "Wien", "addr:state": "Wien", "addr:postcode": "1130", "addr:country": "AT", "name": "BILLA AG FIL. 1368", "phone": "059915 01368", "brand": "Merkur", "brand:wikidata": "Q1921857"}, "geometry": {"type": "Point", "coordinates": [16.2838, 48.16774]}},
{"type": "Feature", "id": "ZcfcUkbnFn4SB8uf4CmyiQ9dFzE=", "properties": {"ref": "00-4400", "@spider": "merkur", "addr:full": "Salzburgerstrasse 80", "addr:city": "Bad Ischl", "addr:state": "Oberoesterreich", "addr:postcode": "4820", "addr:country": "AT", "name": "BILLA AG FIL. 4400", "phone": "059915 04400", "brand": "Merkur", "brand:wikidata": "Q1921857"}, "geometry": {"type": "Point", "coordinates": [13.59558, 47.71806]}},
{"type": "Feature", "id": "TvgFOxXf8fIjI4CvhUiyojVYxyY=", "properties": {"ref": "00-1537", "@spider": "merkur", "addr:full": "Mariahilferstrasse 144", "addr:city": "Wien", "addr:state": "Wien", "addr:postcode": "1150", "addr:country": "AT", "name": "BILLA AG FIL. 1537", "phone": "059915 01537", "brand": "Merkur", "brand:wikidata": "Q1921857"}, "geometry": {"type": "Point", "coordinates": [16.33516, 48.19454]}},
{"type": "Feature", "id": "kwZhbEUiotqXXGSofzrC_XDivfo=", "properties": {"ref": "00-5319", "@spider": "merkur", "addr:full": "Aignerstr. 67 U. 69", "addr:city": "Salzburg", "addr:state": "Salzburg", "addr:postcode": "5020", "addr:country": "AT", "name": "BILLA AG FIL. 5319", "phone": "059915 05319", "brand": "Merkur", "brand:wikidata": "Q1921857"}, "geometry": {"type": "Point", "coordinates": [13.07747, 47.78923]}},
{"type": "Feature", "id": "PnV_sVv8HzeSJbopOUN2KAx10Bg=", "properties": {"ref": "00-1242", "@spider": "merkur", "addr:full": "Oswaldg. 27 - 31", "addr:city": "Wien", "addr:state": "Wien", "addr:postcode": "1120", "addr:country": "AT", "name": "BILLA AG FIL. 1242", "phone": "059915 01242", "brand": "Merkur", "brand:wikidata": "Q1921857"}, "geometry": {"type": "Point", "coordinates": [16.32587, 48.16853]}},
{"type": "Feature", "id": "kkHSKPPlz9SFvkDYAkB4d7aXzO0=", "properties": {"ref": "00-8339", "@spider": "merkur", "addr:full": "Eugen Getzner-Str.11", "addr:city": "Nenzing", "addr:state": "Vorarlberg", "addr:postcode": "6710", "addr:country": "AT", "name": "BILLA AG FIL. 8339", "phone": "059915 08339", "brand": "Merkur", "brand:wikidata": "Q1921857"}, "geometry": {"type": "Point", "coordinates": [9.70945, 47.18657]}},
{"type": "Feature", "id": "nMb1j_rbZgqTpKamk5HXnWICH18=", "properties": {"ref": "00-6348", "@spider": "merkur", "addr:full": "Hauptplatz 3", "addr:city": "Graz", "addr:state": "Steiermark", "addr:postcode": "8010", "addr:country": "AT", "name": "BILLA AG FIL. 6348", "phone": "059915 06348", "brand": "Merkur", "brand:wikidata": "Q1921857"}, "geometry": {"type": "Point", "coordinates": [15.4378159, 47.07052]}},
{"type": "Feature", "id": "LJcLLO7SFWwbvBUbqtPA-1xZ2H4=", "properties": {"ref": "00-4478", "@spider": "merkur", "addr:full": "Ziegeleistrasse 66", "addr:city": "Linz", "addr:state": "Oberoesterreich", "addr:postcode": "4020", "addr:country": "AT", "name": "BILLA AG FIL. 4478", "phone": "059915 04478", "brand": "Merkur", "brand:wikidata": "Q1921857"}, "geometry": {"type": "Point", "coordinates": [14.27692, 48.29064]}},
{"type": "Feature", "id": "kl7TahTe3FpNY8ETCqh-nC9jUFA=", "properties": {"ref": "00-4498", "@spider": "merkur", "addr:full": "Hauptstrasse 18", "addr:city": "Linz", "addr:state": "Oberoesterreich", "addr:postcode": "4040", "addr:country": "AT", "name": "BILLA AG FIL. 4498", "phone": "059915 04498", "brand": "Merkur", "brand:wikidata": "Q1921857"}, "geometry": {"type": "Point", "coordinates": [14.283136, 48.311349]}},
{"type": "Feature", "id": "nB_hrjLPu3gre54cZWx4B_-Xvxs=", "properties": {"ref": "00-5308", "@spider": "merkur", "addr:full": "Rene Marcic-Strasse 1", "addr:city": "Salzburg", "addr:state": "Salzburg", "addr:postcode": "5020", "addr:country": "AT", "name": "BILLA AG FIL. 5308", "phone": "059915 05308", "brand": "Merkur", "brand:wikidata": "Q1921857"}, "geometry": {"type": "Point", "coordinates": [13.02879, 47.79141]}},
{"type": "Feature", "id": "RAHrPjw6dI-bbcxx4NtkmV8vems=", "properties": {"ref": "00-521", "@spider": "merkur", "addr:full": "Kliebergasse 2", "addr:city": "Wien", "addr:state": "Wien", "addr:postcode": "1050", "addr:country": "AT", "name": "BILLA AG FIL. 521", "phone": "059915 00521", "brand": "Merkur", "brand:wikidata": "Q1921857"}, "geometry": {"type": "Point", "coordinates": [16.3639907, 48.1834283]}},
{"type": "Feature", "id": "J4QPjdn8eOFWPaE377kfk1NHWQw=", "properties": {"ref": "00-968", "@spider": "merkur", "addr:full": "Waehringer Guertel 104", "addr:city": "Wien", "addr:state": "Wien", "addr:postcode": "1090", "addr:country": "AT", "name": "BILLA AG FIL. 968", "phone": "059915 00968", "brand": "Merkur", "brand:wikidata": "Q1921857"}, "geometry": {"type": "Point", "coordinates": [16.3495686, 48.2258897]}},
{"type": "Feature", "id": "GdxQJWIYTkXb3mRoY5cFIxSmIko=", "properties": {"ref": "00-281", "@spider": "merkur", "addr:full": "Praterstern", "addr:city": "Wien", "addr:state": "Wien", "addr:postcode": "1020", "addr:country": "AT", "name": "BILLA AG FIL. 281", "phone": "059915 00281", "brand": "Merkur", "brand:wikidata": "Q1921857"}, "geometry": {"type": "Point", "coordinates": [16.3920491, 48.2186883]}},
{"type": "Feature", "id": "4XRtV71JBghnv01w3-jks84trWU=", "properties": {"ref": "00-7970", "@spider": "merkur", "addr:full": "Schiefling-Keutschacher Strasse 28", "addr:city": "Schiefling Am See", "addr:state": "Kaernten", "addr:postcode": "9535", "addr:country": "AT", "name": "BILLA AG FIL. 7970", "phone": "059915 07970", "brand": "Merkur", "brand:wikidata": "Q1921857"}, "geometry": {"type": "Point", "coordinates": [14.0965, 46.60234]}},
{"type": "Feature", "id": "Pn0MDS_jYU9HMPeIJaCP_Y2X7Nc=", "properties": {"ref": "00-3860", "@spider": "merkur", "addr:full": "Simon Scheiner-Str. 19", "addr:city": "Laa An Der Thaya", "addr:state": "Niederoesterreich", "addr:postcode": "2136", "addr:country": "AT", "name": "BILLA AG FIL. 3860", "phone": "059915 03860", "brand": "Merkur", "brand:wikidata": "Q1921857"}, "geometry": {"type": "Point", "coordinates": [16.39805, 48.71842]}},
{"type": "Feature", "id": "IimLfWvKvVJ8m7hnMN3Wa0qcZjA=", "properties": {"ref": "00-4925", "@spider": "merkur", "addr:full": "Geranienstrasse 4", "addr:city": "Asten", "addr:state": "Oberoesterreich", "addr:postcode": "4481", "addr:country": "AT", "name": "BILLA AG FIL. 4925", "phone": "059915 04925", "brand": "Merkur", "brand:wikidata": "Q1921857"}, "geometry": {"type": "Point", "coordinates": [14.42227, 48.21779]}},
{"type": "Feature", "id": "FSCfDykk6zfrIjbx5txy0DDliRc=", "properties": {"ref": "00-6325", "@spider": "merkur", "addr:full": "Radlpassstrasse 15", "addr:city": "Deutschlandsberg", "addr:state": "Steiermark", "addr:postcode": "8530", "addr:country": "AT", "name": "BILLA AG FIL. 6325", "phone": "059915 06325", "brand": "Merkur", "brand:wikidata": "Q1921857"}, "geometry": {"type": "Point", "coordinates": [15.23606, 46.81556]}},
{"type": "Feature", "id": "ygl5AuAYG0K737xpeTpJCNOCH20=", "properties": {"ref": "00-7835", "@spider": "merkur", "addr:full": "Gendarmerieplatz 3", "addr:city": "Velden", "addr:state": "Kaernten", "addr:postcode": "9220", "addr:country": "AT", "name": "BILLA AG FIL. 7835", "phone": "059915 07835", "brand": "Merkur", "brand:wikidata": "Q1921857"}, "geometry": {"type": "Point", "coordinates": [14.04622, 46.61709]}},
{"type": "Feature", "id": "yE6YYXHDoeVhsiANhEK48SA7MSw=", "properties": {"ref": "00-7849", "@spider": "merkur", "addr:full": "Burgstall 108", "addr:city": "St. Andrae/Lavanttal", "addr:state": "Kaernten", "addr:postcode": "9433", "addr:country": "AT", "name": "BILLA AG FIL. 7849", "phone": "059915 07849", "brand": "Merkur", "brand:wikidata": "Q1921857"}, "geometry": {"type": "Point", "coordinates": [14.82233, 46.76044]}},
{"type": "Feature", "id": "a8KV8Yuvgr5uC6Iy7fWxYTCFt0s=", "properties": {"ref": "00-428", "@spider": "merkur", "addr:full": "Paulanergasse 16", "addr:city": "Wien", "addr:state": "Wien", "addr:postcode": "1040", "addr:country": "AT", "name": "BILLA AG FIL. 428", "phone": "059915 00428", "brand": "Merkur", "brand:wikidata": "Q1921857"}, "geometry": {"type": "Point", "coordinates": [16.365481, 48.1964366]}},
{"type": "Feature", "id": "J3Qa8AZz6S2tSCSLB0Sx_SojI6E=", "properties": {"ref": "00-3535", "@spider": "merkur", "addr:full": "Wiener Neustaedterstr.16", "addr:city": "Weigelsdorf", "addr:state": "Niederoesterreich", "addr:postcode": "2484", "addr:country": "AT", "name": "BILLA AG FIL. 3535", "phone": "059915 03535", "brand": "Merkur", "brand:wikidata": "Q1921857"}, "geometry": {"type": "Point", "coordinates": [16.4069934, 47.952568]}},
{"type": "Feature", "id": "0chohJ_gfpJuDQCq9WiPPFYyC6A=", "properties": {"ref": "00-4291", "@spider": "merkur", "addr:full": "Am Schlosswald 2", "addr:city": "Altmuenster", "addr:state": "Oberoesterreich", "addr:postcode": "4813", "addr:country": "AT", "name": "BILLA AG FIL. 4291", "phone": "059915 04291", "brand": "Merkur", "brand:wikidata": "Q1921857"}, "geometry": {"type": "Point", "coordinates": [13.7659336, 47.8923202]}},
{"type": "Feature", "id": "ZcRK5IcMhIRbBpODQnHtrUTFzSw=", "properties": {"ref": "00-6429", "@spider": "merkur", "addr:full": "Grazerplatz 9", "addr:city": "Fuerstenfeld", "addr:state": "Steiermark", "addr:postcode": "8280", "addr:country": "AT", "name": "BILLA AG FIL. 6429", "phone": "059915 06429", "brand": "Merkur", "brand:wikidata": "Q1921857"}, "geometry": {"type": "Point", "coordinates": [16.07372, 47.0517]}},
{"type": "Feature", "id": "4o7zBfbZ7cRkPbl6rUm-hUQ4LuQ=", "properties": {"ref": "00-6460", "@spider": "merkur", "addr:full": "Bad Gamser Strasse Nr. 2", "addr:city": "Stainz", "addr:state": "Steiermark", "addr:postcode": "8510", "addr:country": "AT", "name": "BILLA AG FIL. 6460", "phone": "059915 06460", "brand": "Merkur", "brand:wikidata": "Q1921857"}, "geometry": {"type": "Point", "coordinates": [15.2586, 46.88838]}},
{"type": "Feature", "id": "FpoW1SqYUJ2EeEJVCcvtKSwWVVc=", "properties": {"ref": "00-6494", "@spider": "merkur", "addr:full": "Halbenrainerstr.14", "addr:city": "Bad Radkersburg", "addr:state": "Steiermark", "addr:postcode": "8490", "addr:country": "AT", "name": "BILLA AG FIL. 6494", "phone": "03476 3335", "brand": "Merkur", "brand:wikidata": "Q1921857"}, "geometry": {"type": "Point", "coordinates": [15.98302, 46.69131]}},
{"type": "Feature", "id": "UdAQNG8iUKczZhJPMfXNSXbK6nw=", "properties": {"ref": "00-6528", "@spider": "merkur", "addr:full": "Eggenberger Allee 26", "addr:city": "Graz", "addr:state": "Steiermark", "addr:postcode": "8020", "addr:country": "AT", "name": "BILLA AG FIL. 6528", "phone": "059915 06528", "brand": "Merkur", "brand:wikidata": "Q1921857"}, "geometry": {"type": "Point", "coordinates": [15.4044552, 47.0704988]}},
{"type": "Feature", "id": "SR6bCPR1CsUpNaTn8xkLbDhwlhU=", "properties": {"ref": "00-5397", "@spider": "merkur", "addr:full": "Boecksteiner Bundesstr.40", "addr:city": "Bad Gastein", "addr:state": "Salzburg", "addr:postcode": "5640", "addr:country": "AT", "name": "BILLA AG FIL. 5397", "phone": "059915 05397", "brand": "Merkur", "brand:wikidata": "Q1921857"}, "geometry": {"type": "Point", "coordinates": [13.12687, 47.10066]}},
{"type": "Feature", "id": "y_ODZhx0efg7Q2txy01n6oZ0tjk=", "properties": {"ref": "00-5405", "@spider": "merkur", "addr:full": "Lofer 192", "addr:city": "St.Martin/Lofer", "addr:state": "Salzburg", "addr:postcode": "5092", "addr:country": "AT", "name": "BILLA AG FIL. 5405", "phone": "059915 05405", "brand": "Merkur", "brand:wikidata": "Q1921857"}, "geometry": {"type": "Point", "coordinates": [12.69902, 47.58016]}},
{"type": "Feature", "id": "F3fFHnFsh-WoHZnhmvN4Hy7-jWM=", "properties": {"ref": "00-5421", "@spider": "merkur", "addr:full": "Bruckdorf 476", "addr:city": "Mariapfarr", "addr:state": "Salzburg", "addr:postcode": "5571", "addr:country": "AT", "name": "BILLA AG FIL. 5421", "phone": "059915 05421", "brand": "Merkur", "brand:wikidata": "Q1921857"}, "geometry": {"type": "Point", "coordinates": [13.7339642, 47.1478094]}},
{"type": "Feature", "id": "ov8krfWkTInBsBv1_TiKS0RYT7o=", "properties": {"ref": "00-5430", "@spider": "merkur", "addr:full": "Markt 169", "addr:city": "Wagrain", "addr:state": "Salzburg", "addr:postcode": "5602", "addr:country": "AT", "name": "BILLA AG FIL. 5430", "phone": "059915 05430", "brand": "Merkur", "brand:wikidata": "Q1921857"}, "geometry": {"type": "Point", "coordinates": [13.29331, 47.3341]}},
{"type": "Feature", "id": "S2YusI3hTnQvUNEXC74OAkmHonk=", "properties": {"ref": "00-5454", "@spider": "merkur", "addr:full": "Gartenweg 185", "addr:city": "Saalbach-Hinterglemm", "addr:state": "Salzburg", "addr:postcode": "5753", "addr:country": "AT", "name": "BILLA AG FIL. 5454", "phone": "059915 05454", "brand": "Merkur", "brand:wikidata": "Q1921857"}, "geometry": {"type": "Point", "coordinates": [12.64541, 47.38881]}},
{"type": "Feature", "id": "Vh7OhUw6_kl3_YcmMeHHna7QPHo=", "properties": {"ref": "00-5561", "@spider": "merkur", "addr:full": "Lehrstr.8", "addr:city": "Voecklamarkt", "addr:state": "Oberoesterreich", "addr:postcode": "4870", "addr:country": "AT", "name": "BILLA AG FIL. 5561", "phone": "059915 05561", "brand": "Merkur", "brand:wikidata": "Q1921857"}, "geometry": {"type": "Point", "coordinates": [13.49085, 48.0033]}},
{"type": "Feature", "id": "Zsc1EOV1xNCnlczqKeW9RPIbOjA=", "properties": {"ref": "00-5603", "@spider": "merkur", "addr:full": "Max Plank-Strasse 2", "addr:city": "Voecklabruck", "addr:state": "Oberoesterreich", "addr:postcode": "4840", "addr:country": "AT", "name": "BILLA AG FIL. 5603", "phone": "059915 05603", "brand": "Merkur", "brand:wikidata": "Q1921857"}, "geometry": {"type": "Point", "coordinates": [13.67772, 48.0036716]}},
{"type": "Feature", "id": "vY5JZzbi7jxQB33hoa3LbkTgzA8=", "properties": {"ref": "00-6498", "@spider": "merkur", "addr:full": "Sparbersbachg.65-67a", "addr:city": "Graz", "addr:state": "Steiermark", "addr:postcode": "8010", "addr:country": "AT", "name": "BILLA AG FIL. 6498", "phone": "059915 06498", "brand": "Merkur", "brand:wikidata": "Q1921857"}, "geometry": {"type": "Point", "coordinates": [15.4548299, 47.0700939]}},
{"type": "Feature", "id": "VdWbJeM9AslGZFoDoba5UaZcGfA=", "properties": {"ref": "00-7616", "@spider": "merkur", "addr:full": "Altenmarkt 23", "addr:city": "Moellbruecke", "addr:state": "Kaernten", "addr:postcode": "9813", "addr:country": "AT", "name": "BILLA AG FIL. 7616", "phone": "059915 07616", "brand": "Merkur", "brand:wikidata": "Q1921857"}, "geometry": {"type": "Point", "coordinates": [13.38063, 46.83268]}},
{"type": "Feature", "id": "4eHL_5EXZvw-H4dtLXeD4ZLfLrg=", "properties": {"ref": "00-7659", "@spider": "merkur", "addr:full": "Kotschatstrasse 1", "addr:city": "Reifnitz", "addr:state": "Kaernten", "addr:postcode": "9081", "addr:country": "AT", "name": "BILLA AG FIL. 7659", "phone": "059915 07659", "brand": "Merkur", "brand:wikidata": "Q1921857"}, "geometry": {"type": "Point", "coordinates": [14.17707, 46.60445]}},
{"type": "Feature", "id": "WgPWjFjTN7IIovVl__VG8XzEJl0=", "properties": {"ref": "00-7676", "@spider": "merkur", "addr:full": "Gries 29", "addr:city": "Greifenburg", "addr:state": "Kaernten", "addr:postcode": "9761", "addr:country": "AT", "name": "BILLA AG FIL. 7676", "phone": "059915 07676", "brand": "Merkur", "brand:wikidata": "Q1921857"}, "geometry": {"type": "Point", "coordinates": [13.17617, 46.75089]}},
{"type": "Feature", "id": "idkC_c8cJvPg9L3t8EO6V_b2c5o=", "properties": {"ref": "00-7700", "@spider": "merkur", "addr:full": "Maria Gailer-Strasse 37", "addr:city": "Villach", "addr:state": "Kaernten", "addr:postcode": "9500", "addr:country": "AT", "name": "BILLA AG FIL. 7700", "phone": "059915 07700", "brand": "Merkur", "brand:wikidata": "Q1921857"}, "geometry": {"type": "Point", "coordinates": [13.86602, 46.60541]}},
{"type": "Feature", "id": "OP9z2xaOUPIEoBflpK_mJCvY3Kg=", "properties": {"ref": "00-7710", "@spider": "merkur", "addr:full": "Feldkirchner Strasse 27", "addr:city": "Moosburg", "addr:state": "Kaernten", "addr:postcode": "9062", "addr:country": "AT", "name": "BILLA AG FIL. 7710", "phone": "059915 07710", "brand": "Merkur", "brand:wikidata": "Q1921857"}, "geometry": {"type": "Point", "coordinates": [14.170012, 46.6612659]}},
{"type": "Feature", "id": "H4smD5aU3ZhAAaOhWdYW8554RK8=", "properties": {"ref": "00-7724", "@spider": "merkur", "addr:full": "Rudner Strasse 17", "addr:city": "Griffen", "addr:state": "Kaernten", "addr:postcode": "9112", "addr:country": "AT", "name": "BILLA AG FIL. 7724", "phone": "059915 07724", "brand": "Merkur", "brand:wikidata": "Q1921857"}, "geometry": {"type": "Point", "coordinates": [14.72974, 46.70123]}},
{"type": "Feature", "id": "zbhj1EkWJDrwmCH8H2a-zchg0B0=", "properties": {"ref": "00-7759", "@spider": "merkur", "addr:full": "Eisenkappler Strasse 1", "addr:city": "Eberndorf", "addr:state": "Kaernten", "addr:postcode": "9141", "addr:country": "AT", "name": "BILLA AG FIL. 7759", "phone": "059915 07759", "brand": "Merkur", "brand:wikidata": "Q1921857"}, "geometry": {"type": "Point", "coordinates": [14.63907, 46.5898]}},
{"type": "Feature", "id": "ZUyO2_4gRBt8u6S3vgaQXRBBpHk=", "properties": {"ref": "00-7765", "@spider": "merkur", "addr:full": "Feldkirchner Strasse 112", "addr:city": "Klagenfurt", "addr:state": "Kaernten", "addr:postcode": "9020", "addr:country": "AT", "name": "BILLA AG FIL. 7765", "phone": "059915 07765", "brand": "Merkur", "brand:wikidata": "Q1921857"}, "geometry": {"type": "Point", "coordinates": [14.29401, 46.63898]}},
{"type": "Feature", "id": "BXRKbmpdQNHYcGdb1CS7tmRUeAg=", "properties": {"ref": "00-7778", "@spider": "merkur", "addr:full": "Franz Xaver Wirth Str.17", "addr:city": "Villach", "addr:state": "Kaernten", "addr:postcode": "9500", "addr:country": "AT", "name": "BILLA AG FIL. 7778", "phone": "059915 07778", "brand": "Merkur", "brand:wikidata": "Q1921857"}, "geometry": {"type": "Point", "coordinates": [13.84001, 46.62028]}},
{"type": "Feature", "id": "hhEjuOQdFaeP0z4Ql9J1uh2S108=", "properties": {"ref": "00-7783", "@spider": "merkur", "addr:full": "Bundesstrasse 14", "addr:city": "Wernberg", "addr:state": "Kaernten", "addr:postcode": "9241", "addr:country": "AT", "name": "BILLA AG FIL. 7783", "phone": "059915 07783", "brand": "Merkur", "brand:wikidata": "Q1921857"}, "geometry": {"type": "Point", "coordinates": [13.9395224, 46.6227963]}},
{"type": "Feature", "id": "gee1zjiDSsFL-zxnkVzCsPSU2bc=", "properties": {"ref": "00-7807", "@spider": "merkur", "addr:full": "Bahnhofstrasse 43", "addr:city": "St.Veit/Glan", "addr:state": "Kaernten", "addr:postcode": "9300", "addr:country": "AT", "name": "BILLA AG FIL. 7807", "phone": "059915 07807", "brand": "Merkur", "brand:wikidata": "Q1921857"}, "geometry": {"type": "Point", "coordinates": [14.36555, 46.7705]}},
{"type": "Feature", "id": "3PCuXohg-yJf6tWstuCiyG3Abio=", "properties": {"ref": "00-6579", "@spider": "merkur", "addr:full": "Wiener Strasse 29", "addr:city": "Neumarkt", "addr:state": "Steiermark", "addr:postcode": "8820", "addr:country": "AT", "name": "BILLA AG FIL. 6579", "phone": "059915 06579", "brand": "Merkur", "brand:wikidata": "Q1921857"}, "geometry": {"type": "Point", "coordinates": [14.42524, 47.07912]}},
{"type": "Feature", "id": "KE0YiJnaJLgq8CBA3nuk6OTjG38=", "properties": {"ref": "00-6585", "@spider": "merkur", "addr:full": "Josefiplatz 1", "addr:city": "Fohnsdorf", "addr:state": "Steiermark", "addr:postcode": "8753", "addr:country": "AT", "name": "BILLA AG FIL. 6585", "phone": "059915 06585", "brand": "Merkur", "brand:wikidata": "Q1921857"}, "geometry": {"type": "Point", "coordinates": [14.67214, 47.20761]}},
{"type": "Feature", "id": "dgJbclAygcTuTgG2GB-NWk_JKY4=", "properties": {"ref": "00-6593", "@spider": "merkur", "addr:full": "Kaerntner Strasse 364", "addr:city": "Graz", "addr:state": "Steiermark", "addr:postcode": "8054", "addr:country": "AT", "name": "BILLA AG FIL. 6593", "phone": "059915 06593", "brand": "Merkur", "brand:wikidata": "Q1921857"}, "geometry": {"type": "Point", "coordinates": [15.40073, 47.02734]}},
{"type": "Feature", "id": "92GeCT4S6QILADkw064foO7xMqo=", "properties": {"ref": "00-6617", "@spider": "merkur", "addr:full": "Sulmtalerstrasse 249", "addr:city": "Gleinstaetten", "addr:state": "Steiermark", "addr:postcode": "8443", "addr:country": "AT", "name": "BILLA AG FIL. 6617", "phone": "059915 06617", "brand": "Merkur", "brand:wikidata": "Q1921857"}, "geometry": {"type": "Point", "coordinates": [15.35717, 46.75192]}},
{"type": "Feature", "id": "3y591ISMpUf1bjksXx3Y4X_-U5Q=", "properties": {"ref": "00-6676", "@spider": "merkur", "addr:full": "Jakominiplatz 12", "addr:city": "Graz", "addr:state": "Steiermark", "addr:postcode": "8010", "addr:country": "AT", "name": "BILLA AG FIL. 6676", "phone": "059915 06676", "brand": "Merkur", "brand:wikidata": "Q1921857"}, "geometry": {"type": "Point", "coordinates": [15.4440211, 47.0674729]}},
{"type": "Feature", "id": "2vhtqDideVRinC2RJRFyqvXl8gg=", "properties": {"ref": "00-6684", "@spider": "merkur", "addr:full": "Ragnitzstrasse 147", "addr:city": "Graz-Ragnitz", "addr:state": "Steiermark", "addr:postcode": "8047", "addr:country": "AT", "name": "BILLA AG FIL. 6684", "phone": "059915 06684", "brand": "Merkur", "brand:wikidata": "Q1921857"}, "geometry": {"type": "Point", "coordinates": [15.49493, 47.07767]}},
{"type": "Feature", "id": "w5QuxooxabAuLKWIS2GTlQaonpg=", "properties": {"ref": "00-8360", "@spider": "merkur", "addr:full": "Austrasse 28", "addr:city": "Jenbach", "addr:state": "Tirol", "addr:postcode": "6200", "addr:country": "AT", "name": "BILLA AG FIL. 8360", "phone": "059915 08360", "brand": "Merkur", "brand:wikidata": "Q1921857"}, "geometry": {"type": "Point", "coordinates": [11.78175, 47.388]}},
{"type": "Feature", "id": "4OWs_OdtxkMV9Wrr68Q6rURDptk=", "properties": {"ref": "00-8385", "@spider": "merkur", "addr:full": "Florianplatz 6", "addr:city": "Ischgl", "addr:state": "Tirol", "addr:postcode": "6561", "addr:country": "AT", "name": "BILLA AG FIL. 8385", "phone": "059915 08385", "brand": "Merkur", "brand:wikidata": "Q1921857"}, "geometry": {"type": "Point", "coordinates": [10.2946496, 47.0141023]}},
{"type": "Feature", "id": "nDyxjDb0ydZfUfpcPzO2xegkgZI=", "properties": {"ref": "00-4107", "@spider": "merkur", "addr:full": "Kaufpark 8", "addr:city": "Walding", "addr:state": "Oberoesterreich", "addr:postcode": "4111", "addr:country": "AT", "name": "BILLA AG FIL. 4107", "phone": "059915 04107", "brand": "Merkur", "brand:wikidata": "Q1921857"}, "geometry": {"type": "Point", "coordinates": [14.16185, 48.34455]}},
{"type": "Feature", "id": "Epl26V73kJ6OLiyQ1tfmQ3wsk-I=", "properties": {"ref": "00-4170", "@spider": "merkur", "addr:full": "Kasernstrasse 1", "addr:city": "Hoersching", "addr:state": "Oberoesterreich", "addr:postcode": "4063", "addr:country": "AT", "name": "BILLA AG FIL. 4170", "phone": "059915 04170", "brand": "Merkur", "brand:wikidata": "Q1921857"}, "geometry": {"type": "Point", "coordinates": [14.19086, 48.22021]}},
{"type": "Feature", "id": "0oPhLl2pKukV8KEAI0dXPcvJqbw=", "properties": {"ref": "00-5777", "@spider": "merkur", "addr:full": "Steyrtalstrasse 24", "addr:city": "Neuzeug", "addr:state": "Oberoesterreich", "addr:postcode": "4523", "addr:country": "AT", "name": "BILLA AG FIL. 5777", "phone": "059915 05777", "brand": "Merkur", "brand:wikidata": "Q1921857"}, "geometry": {"type": "Point", "coordinates": [14.33375, 48.04745]}},
{"type": "Feature", "id": "KnDrw6i0amqgYLrBrzbszSUYQ44=", "properties": {"ref": "00-919", "@spider": "merkur", "addr:full": "Nussdorferstrasse 59", "addr:city": "Wien", "addr:state": "Wien", "addr:postcode": "1090", "addr:country": "AT", "name": "BILLA AG FIL. 919", "phone": "059915 00919", "brand": "Merkur", "brand:wikidata": "Q1921857"}, "geometry": {"type": "Point", "coordinates": [16.3542519, 48.2292623]}},
{"type": "Feature", "id": "gKXvY7NNlPPPpqKtjnc90fBU2l8=", "properties": {"ref": "00-950", "@spider": "merkur", "addr:full": "Jul.Tandler Pl.3/F.J. Bhf", "addr:city": "Wien", "addr:state": "Wien", "addr:postcode": "1090", "addr:country": "AT", "name": "BILLA AG FIL. 950", "phone": "059915 00950", "brand": "Merkur", "brand:wikidata": "Q1921857"}, "geometry": {"type": "Point", "coordinates": [16.36117, 48.22578]}},
{"type": "Feature", "id": "lzCf8N4GXEAeTdaLfbn4DLGtiyA=", "properties": {"ref": "00-984", "@spider": "merkur", "addr:full": "Alser Strasse 34", "addr:city": "Wien", "addr:state": "Wien", "addr:postcode": "1090", "addr:country": "AT", "name": "BILLA AG FIL. 984", "phone": "059915 00984", "brand": "Merkur", "brand:wikidata": "Q1921857"}, "geometry": {"type": "Point", "coordinates": [16.3459429, 48.2156131]}},
{"type": "Feature", "id": "jifUEO_YSHLNwh0gKXEa28w_Wvo=", "properties": {"ref": "00-1039", "@spider": "merkur", "addr:full": "Himbergerstrasse 26", "addr:city": "Wien", "addr:state": "Wien", "addr:postcode": "1100", "addr:country": "AT", "name": "BILLA AG FIL. 1039", "phone": "059915 01039", "brand": "Merkur", "brand:wikidata": "Q1921857"}, "geometry": {"type": "Point", "coordinates": [16.382004, 48.142321]}},
{"type": "Feature", "id": "uQhM3vSzXD8j-g96x9d3TrR73z8=", "properties": {"ref": "00-133", "@spider": "merkur", "addr:full": "Gonzagagasse 9", "addr:city": "Wien", "addr:state": "Wien", "addr:postcode": "1010", "addr:country": "AT", "name": "BILLA AG FIL. 133", "phone": "059915 00133", "brand": "Merkur", "brand:wikidata": "Q1921857"}, "geometry": {"type": "Point", "coordinates": [16.3711338, 48.2145641]}},
{"type": "Feature", "id": "cnJDf29ANiAnqEu8F4xw0rhXleQ=", "properties": {"ref": "00-174", "@spider": "merkur", "addr:full": "Kaerntnerring 9-13/Mahler", "addr:city": "Wien", "addr:state": "Wien", "addr:postcode": "1010", "addr:country": "AT", "name": "BILLA AG FIL. 174", "phone": "059915 00174", "brand": "Merkur", "brand:wikidata": "Q1921857"}, "geometry": {"type": "Point", "coordinates": [16.3720359, 48.2021145]}},
{"type": "Feature", "id": "t_mojGLpGchVWCRZ8La3rFvPnUY=", "properties": {"ref": "00-208", "@spider": "merkur", "addr:full": "Untere Augartenstrasse 30", "addr:city": "Wien", "addr:state": "Wien", "addr:postcode": "1020", "addr:country": "AT", "name": "BILLA AG FIL. 208", "phone": "059915 00208", "brand": "Merkur", "brand:wikidata": "Q1921857"}, "geometry": {"type": "Point", "coordinates": [16.37355, 48.22166]}},
{"type": "Feature", "id": "snNSsMqXHpF_kIrVjiQK0VA2UYA=", "properties": {"ref": "00-240", "@spider": "merkur", "addr:full": "Heinestrasse 2", "addr:city": "Wien", "addr:state": "Wien", "addr:postcode": "1020", "addr:country": "AT", "name": "BILLA AG FIL. 240", "phone": "059915 00240", "brand": "Merkur", "brand:wikidata": "Q1921857"}, "geometry": {"type": "Point", "coordinates": [16.3825247, 48.221932]}},
{"type": "Feature", "id": "_6U2h4gqoib9lumvCX7Kp8aSq3E=", "properties": {"ref": "00-249", "@spider": "merkur", "addr:full": "Czerningasse 4", "addr:city": "Wien", "addr:state": "Wien", "addr:postcode": "1020", "addr:country": "AT", "name": "BILLA AG FIL. 249", "phone": "059915 00249", "brand": "Merkur", "brand:wikidata": "Q1921857"}, "geometry": {"type": "Point", "coordinates": [16.38477, 48.21444]}},
{"type": "Feature", "id": "LZvdjSHACTMZqumIghfHoef92bQ=", "properties": {"ref": "00-265", "@spider": "merkur", "addr:full": "Stuwerstrasse 1-3", "addr:city": "Wien", "addr:state": "Wien", "addr:postcode": "1020", "addr:country": "AT", "name": "BILLA AG FIL. 265", "phone": "059915 00265", "brand": "Merkur", "brand:wikidata": "Q1921857"}, "geometry": {"type": "Point", "coordinates": [16.39723, 48.21892]}},
{"type": "Feature", "id": "7UlJL9Wx49NY4qj-NnrBmz8TEMI=", "properties": {"ref": "00-7062", "@spider": "merkur", "addr:full": "Augasse 31", "addr:city": "Oberpullendorf", "addr:state": "Burgenland", "addr:postcode": "7350", "addr:country": "AT", "name": "BILLA AG FIL. 7062", "phone": "059915 07062", "brand": "Merkur", "brand:wikidata": "Q1921857"}, "geometry": {"type": "Point", "coordinates": [16.50766, 47.5009]}},
{"type": "Feature", "id": "Ci8z92hhyinRncCv4cGbW0vgPhQ=", "properties": {"ref": "00-7810", "@spider": "merkur", "addr:full": "Feschnigstrasse 78", "addr:city": "Klagenfurt", "addr:state": "Kaernten", "addr:postcode": "9020", "addr:country": "AT", "name": "BILLA AG FIL. 7810", "phone": "059915 07810", "brand": "Merkur", "brand:wikidata": "Q1921857"}, "geometry": {"type": "Point", "coordinates": [14.30275, 46.63899]}},
{"type": "Feature", "id": "Cp315tiDkiPlkpQWZ_475UhqcQ8=", "properties": {"ref": "00-4804", "@spider": "merkur", "addr:full": "Salzburgerstrasse 7", "addr:city": "Mondsee", "addr:state": "Oberoesterreich", "addr:postcode": "5310", "addr:country": "AT", "name": "BILLA AG FIL. 4804", "phone": "059915 04804", "brand": "Merkur", "brand:wikidata": "Q1921857"}, "geometry": {"type": "Point", "coordinates": [13.34186, 47.85737]}},
{"type": "Feature", "id": "6CXbEoJ0o9pnOwtcfp1qVJ6wKNE=", "properties": {"ref": "00-4820", "@spider": "merkur", "addr:full": "Grundbachweg 15", "addr:city": "Linz", "addr:state": "Oberoesterreich", "addr:postcode": "4020", "addr:country": "AT", "name": "BILLA AG FIL. 4820", "phone": "059915 04820", "brand": "Merkur", "brand:wikidata": "Q1921857"}, "geometry": {"type": "Point", "coordinates": [14.2827031, 48.2796685]}},
{"type": "Feature", "id": "KIwkb_n7oMK9uqHTuzcatfpaO7c=", "properties": {"ref": "00-4838", "@spider": "merkur", "addr:full": "Billrothstrasse 58", "addr:city": "Wels", "addr:state": "Oberoesterreich", "addr:postcode": "4600", "addr:country": "AT", "name": "BILLA AG FIL. 4838", "phone": "059915 04838", "brand": "Merkur", "brand:wikidata": "Q1921857"}, "geometry": {"type": "Point", "coordinates": [13.99908, 48.16212]}},
{"type": "Feature", "id": "x0SS4Nv78e0X6HchH2NN08VPNnE=", "properties": {"ref": "00-4853", "@spider": "merkur", "addr:full": "Stadtplatz 8", "addr:city": "Schwanenstadt", "addr:state": "Oberoesterreich", "addr:postcode": "4690", "addr:country": "AT", "name": "BILLA AG FIL. 4853", "phone": "059915 04853", "brand": "Merkur", "brand:wikidata": "Q1921857"}, "geometry": {"type": "Point", "coordinates": [13.77348, 48.05455]}},
{"type": "Feature", "id": "gdD163jybC-4KiNkhTjlqIMqXXQ=", "properties": {"ref": "00-4952", "@spider": "merkur", "addr:full": "Grieskirchnerstrasse 121", "addr:city": "Wels", "addr:state": "Oberoesterreich", "addr:postcode": "4600", "addr:country": "AT", "name": "BILLA AG FIL. 4952", "phone": "059915 04952", "brand": "Merkur", "brand:wikidata": "Q1921857"}, "geometry": {"type": "Point", "coordinates": [14.0184839, 48.1800805]}},
{"type": "Feature", "id": "79VdvrOvCUsLgS8dPAADaKH570Y=", "properties": {"ref": "00-3863", "@spider": "merkur", "addr:full": "Fischauergasse 46", "addr:city": "Wiener Neustadt", "addr:state": "Niederoesterreich", "addr:postcode": "2700", "addr:country": "AT", "name": "BILLA AG FIL. 3863", "phone": "059915 03863", "brand": "Merkur", "brand:wikidata": "Q1921857"}, "geometry": {"type": "Point", "coordinates": [16.24057, 47.82263]}},
{"type": "Feature", "id": "aWY3VkbGEyZWio7Hs6rR6y3LVvg=", "properties": {"ref": "00-3869", "@spider": "merkur", "addr:full": "Wechselbundesstrasse 39", "addr:city": "Schwarzau/Steinfeld", "addr:state": "Niederoesterreich", "addr:postcode": "2625", "addr:country": "AT", "name": "BILLA AG FIL. 3869", "phone": "059915 03869", "brand": "Merkur", "brand:wikidata": "Q1921857"}, "geometry": {"type": "Point", "coordinates": [16.16938, 47.73114]}},
{"type": "Feature", "id": "V8cJ4o8YfB0DxGHxvcDQtykkbyw=", "properties": {"ref": "00-3871", "@spider": "merkur", "addr:full": "Franz Grillparzerstr. 34", "addr:city": "Guntramsdorf", "addr:state": "Niederoesterreich", "addr:postcode": "2353", "addr:country": "AT", "name": "BILLA AG FIL. 3871", "phone": "059915 03871", "brand": "Merkur", "brand:wikidata": "Q1921857"}, "geometry": {"type": "Point", "coordinates": [16.32218, 48.05409]}},
{"type": "Feature", "id": "mc02k_njpv1UNo9-bO8YfSm5KMM=", "properties": {"ref": "00-3889", "@spider": "merkur", "addr:full": "Hofstetten 2", "addr:city": "Gaenserndorf", "addr:state": "Niederoesterreich", "addr:postcode": "2230", "addr:country": "AT", "name": "BILLA AG FIL. 3889", "phone": "059915 03889", "brand": "Merkur", "brand:wikidata": "Q1921857"}, "geometry": {"type": "Point", "coordinates": [16.70742, 48.33429]}},
{"type": "Feature", "id": "MEKHKbHOT_NekHlrEhGGIb7ZdGU=", "properties": {"ref": "00-3923", "@spider": "merkur", "addr:full": "Triesterstrasse 86", "addr:city": "Ternitz", "addr:state": "Niederoesterreich", "addr:postcode": "2630", "addr:country": "AT", "name": "BILLA AG FIL. 3923", "phone": "059915 03923", "brand": "Merkur", "brand:wikidata": "Q1921857"}, "geometry": {"type": "Point", "coordinates": [16.03658, 47.70518]}},
{"type": "Feature", "id": "lE3jeHwPxkym3wlL1kgRP5_mRjw=", "properties": {"ref": "00-3830", "@spider": "merkur", "addr:full": "Koenigstetterstrasse 7", "addr:city": "St. Andrae-Woerdern", "addr:state": "Niederoesterreich", "addr:postcode": "3423", "addr:country": "AT", "name": "BILLA AG FIL. 3830", "phone": "059915 03830", "brand": "Merkur", "brand:wikidata": "Q1921857"}, "geometry": {"type": "Point", "coordinates": [16.20525, 48.32084]}},
{"type": "Feature", "id": "CkBiNR1JcTbBieAja7-YxpIAntY=", "properties": {"ref": "00-2170", "@spider": "merkur", "addr:full": "Kuerschnergasse 9", "addr:city": "Wien", "addr:state": "Wien", "addr:postcode": "1210", "addr:country": "AT", "name": "BILLA AG FIL. 2170", "phone": "059915 02170", "brand": "Merkur", "brand:wikidata": "Q1921857"}, "geometry": {"type": "Point", "coordinates": [16.44627, 48.27328]}},
{"type": "Feature", "id": "9QJPG4TWZ1IouEbTYeM8zH3B67c=", "properties": {"ref": "00-1099", "@spider": "merkur", "addr:full": "Neilreichgasse 38", "addr:city": "Wien", "addr:state": "Wien", "addr:postcode": "1100", "addr:country": "AT", "name": "BILLA AG FIL. 1099", "phone": "059915 01099", "brand": "Merkur", "brand:wikidata": "Q1921857"}, "geometry": {"type": "Point", "coordinates": [16.3650419, 48.1744342]}},
{"type": "Feature", "id": "DyibQ-vS08DeG9-YfdadZGvTuEc=", "properties": {"ref": "00-1107", "@spider": "merkur", "addr:full": "Brambillagasse 11", "addr:city": "Wien", "addr:state": "Wien", "addr:postcode": "1110", "addr:country": "AT", "name": "BILLA AG FIL. 1107", "phone": "059915 01107", "brand": "Merkur", "brand:wikidata": "Q1921857"}, "geometry": {"type": "Point", "coordinates": [16.425964, 48.1700428]}},
{"type": "Feature", "id": "wddvv_lo7G1yTXo-9ndoulo0qV8=", "properties": {"ref": "00-1149", "@spider": "merkur", "addr:full": "Kaiser-Ebersdorfer-Str.59", "addr:city": "Wien", "addr:state": "Wien", "addr:postcode": "1110", "addr:country": "AT", "name": "BILLA AG FIL. 1149", "phone": "059915 01149", "brand": "Merkur", "brand:wikidata": "Q1921857"}, "geometry": {"type": "Point", "coordinates": [16.43103, 48.16625]}},
{"type": "Feature", "id": "CPSyxC334FEZIaVtLDxC_y1mMFg=", "properties": {"ref": "00-1263", "@spider": "merkur", "addr:full": "Meidlinger Hauptstr. 11", "addr:city": "Wien", "addr:state": "Wien", "addr:postcode": "1120", "addr:country": "AT", "name": "BILLA AG FIL. 1263", "phone": "059915 01263", "brand": "Merkur", "brand:wikidata": "Q1921857"}, "geometry": {"type": "Point", "coordinates": [16.33024, 48.182043]}},
{"type": "Feature", "id": "o8HGRbpiEuo0Tc5N7PUESHgQJEU=", "properties": {"ref": "00-1300", "@spider": "merkur", "addr:full": "Versorgungsheimstrasse 6, Lokal 3", "addr:city": "Wien", "addr:state": "Wien", "addr:postcode": "1130", "addr:country": "AT", "name": "BILLA AG FIL. 1300", "phone": "059915 01300", "brand": "Merkur", "brand:wikidata": "Q1921857"}, "geometry": {"type": "Point", "coordinates": [16.2819323, 48.1739407]}},
{"type": "Feature", "id": "Og89DWt1yRPdoCtlbvGkwkZeP8U=", "properties": {"ref": "00-1339", "@spider": "merkur", "addr:full": "Auhofstrasse 134", "addr:city": "Wien", "addr:state": "Wien", "addr:postcode": "1130", "addr:country": "AT", "name": "BILLA AG FIL. 1339", "phone": "059915 01339", "brand": "Merkur", "brand:wikidata": "Q1921857"}, "geometry": {"type": "Point", "coordinates": [16.27158, 48.19065]}},
{"type": "Feature", "id": "7k45Xrr9iJYXEa-Pq_b80ltjkGw=", "properties": {"ref": "00-1354", "@spider": "merkur", "addr:full": "Felixgasse 16", "addr:city": "Wien", "addr:state": "Wien", "addr:postcode": "1130", "addr:country": "AT", "name": "BILLA AG FIL. 1354", "phone": "059915 01354", "brand": "Merkur", "brand:wikidata": "Q1921857"}, "geometry": {"type": "Point", "coordinates": [16.2646, 48.16135]}},
{"type": "Feature", "id": "C0STspW3mkKfgL4gIs8bKg7LLX0=", "properties": {"ref": "00-1396", "@spider": "merkur", "addr:full": "Fasangartengasse 27", "addr:city": "Wien", "addr:state": "Wien", "addr:postcode": "1130", "addr:country": "AT", "name": "BILLA AG FIL. 1396", "phone": "059915 01396", "brand": "Merkur", "brand:wikidata": "Q1921857"}, "geometry": {"type": "Point", "coordinates": [16.2879734, 48.1746237]}},
{"type": "Feature", "id": "vWSPGJ9LEXP5DtFfrvv-7xjmuS4=", "properties": {"ref": "00-1412", "@spider": "merkur", "addr:full": "Huetteldorfer Strasse 146", "addr:city": "Wien", "addr:state": "Wien", "addr:postcode": "1140", "addr:country": "AT", "name": "BILLA AG FIL. 1412", "phone": "059915 01412", "brand": "Merkur", "brand:wikidata": "Q1921857"}, "geometry": {"type": "Point", "coordinates": [16.29353, 48.19705]}},
{"type": "Feature", "id": "paXzohGsar2wPHD_RHJdrtw1fN0=", "properties": {"ref": "00-1461", "@spider": "merkur", "addr:full": "Missindorfstrasse 39-45", "addr:city": "Wien", "addr:state": "Wien", "addr:postcode": "1140", "addr:country": "AT", "name": "BILLA AG FIL. 1461", "phone": "059915 01461", "brand": "Merkur", "brand:wikidata": "Q1921857"}, "geometry": {"type": "Point", "coordinates": [16.30559, 48.1983]}},
{"type": "Feature", "id": "5oiPEJ6_5vzZRcTzVSQIKBKncag=", "properties": {"ref": "00-1479", "@spider": "merkur", "addr:full": "Linzerstrasse 34", "addr:city": "Wien", "addr:state": "Wien", "addr:postcode": "1140", "addr:country": "AT", "name": "BILLA AG FIL. 1479", "phone": "059915 01479", "brand": "Merkur", "brand:wikidata": "Q1921857"}, "geometry": {"type": "Point", "coordinates": [16.3125486, 48.1933027]}},
{"type": "Feature", "id": "p1avov6xcPbbO24slN2-yNM1kDA=", "properties": {"ref": "00-8946", "@spider": "merkur", "addr:full": "Wienerstrasse 75", "addr:city": "Kapfenberg", "addr:state": "Steiermark", "addr:postcode": "8605", "addr:country": "AT", "name": "BILLA AG FIL. 8946", "phone": "059915 08946", "brand": "Merkur", "brand:wikidata": "Q1921857"}, "geometry": {"type": "Point", "coordinates": [15.30004, 47.44647]}},
{"type": "Feature", "id": "4OZcBIz8srEyB2Ozw63VqjLI5H4=", "properties": {"ref": "00-8953", "@spider": "merkur", "addr:full": "Buchenweg 830", "addr:city": "Groebming", "addr:state": "Steiermark", "addr:postcode": "8962", "addr:country": "AT", "name": "BILLA AG FIL. 8953", "phone": "059915 08953", "brand": "Merkur", "brand:wikidata": "Q1921857"}, "geometry": {"type": "Point", "coordinates": [13.90527, 47.44875]}},
{"type": "Feature", "id": "2KbCSGxLsAhLmZ2yO9fzdaw2gJc=", "properties": {"ref": "00-8970", "@spider": "merkur", "addr:full": "Florianiring 1", "addr:city": "Gross St.Florian", "addr:state": "Steiermark", "addr:postcode": "8522", "addr:country": "AT", "name": "BILLA AG FIL. 8970", "phone": "059915 08970", "brand": "Merkur", "brand:wikidata": "Q1921857"}, "geometry": {"type": "Point", "coordinates": [15.31222, 46.824]}},
{"type": "Feature", "id": "9D4zxdHoDkgdSqdq-pVogrTV5bs=", "properties": {"ref": "00-8979", "@spider": "merkur", "addr:full": "St. Stefaner Strasse 1", "addr:city": "Gratkorn", "addr:state": "Steiermark", "addr:postcode": "8101", "addr:country": "AT", "name": "BILLA AG FIL. 8979", "phone": "059915 08979", "brand": "Merkur", "brand:wikidata": "Q1921857"}, "geometry": {"type": "Point", "coordinates": [15.3468, 47.12834]}},
{"type": "Feature", "id": "fK9nneNZ-gXSK69usHXwibiCuZQ=", "properties": {"ref": "00-9092", "@spider": "merkur", "addr:full": "Hauptstrasse 47", "addr:city": "Ebenfurth", "addr:state": "Niederoesterreich", "addr:postcode": "2490", "addr:country": "AT", "name": "BILLA AG FIL. 9092", "phone": "059915 09092", "brand": "Merkur", "brand:wikidata": "Q1921857"}, "geometry": {"type": "Point", "coordinates": [16.37451, 47.87612]}},
{"type": "Feature", "id": "OJWOJkcI2BIcrjT6T65zhiOieDs=", "properties": {"ref": "00-9167", "@spider": "merkur", "addr:full": "Triftweg 2", "addr:city": "Mistelbach", "addr:state": "Niederoesterreich", "addr:postcode": "2130", "addr:country": "AT", "name": "BILLA AG FIL. 9167", "phone": "059915 09167", "brand": "Merkur", "brand:wikidata": "Q1921857"}, "geometry": {"type": "Point", "coordinates": [16.566577, 48.579576]}},
{"type": "Feature", "id": "VvhsIbBj5Q2yyeoWIkylBU6WGTg=", "properties": {"ref": "00-9175", "@spider": "merkur", "addr:full": "Hauptplatz 8", "addr:city": "Langenzersdorf", "addr:state": "Niederoesterreich", "addr:postcode": "2103", "addr:country": "AT", "name": "BILLA AG FIL. 9175", "phone": "059915 09175", "brand": "Merkur", "brand:wikidata": "Q1921857"}, "geometry": {"type": "Point", "coordinates": [16.35721, 48.30901]}},
{"type": "Feature", "id": "tS4-AddRH11BrpfBM-xdhMv01NA=", "properties": {"ref": "00-9183", "@spider": "merkur", "addr:full": "Hauptstrasse 18", "addr:city": "Duernkrut", "addr:state": "Niederoesterreich", "addr:postcode": "2263", "addr:country": "AT", "name": "BILLA AG FIL. 9183", "phone": "059915 09183", "brand": "Merkur", "brand:wikidata": "Q1921857"}, "geometry": {"type": "Point", "coordinates": [16.852, 48.47118]}},
{"type": "Feature", "id": "QHkuU_mjXSuihwAOyJVzZnUhHXA=", "properties": {"ref": "00-9233", "@spider": "merkur", "addr:full": "Friedhofgasse 5", "addr:city": "Heidenreichstein", "addr:state": "Niederoesterreich", "addr:postcode": "3860", "addr:country": "AT", "name": "BILLA AG FIL. 9233", "phone": "059915 09233", "brand": "Merkur", "brand:wikidata": "Q1921857"}, "geometry": {"type": "Point", "coordinates": [15.12078, 48.86812]}},
{"type": "Feature", "id": "zzn-xMKF6N5zi6FtTJoazzdCtkA=", "properties": {"ref": "00-9256", "@spider": "merkur", "addr:full": "Mozartstrasse 1", "addr:city": "Persenbeug", "addr:state": "Niederoesterreich", "addr:postcode": "3680", "addr:country": "AT", "name": "BILLA AG FIL. 9256", "phone": "059915 09256", "brand": "Merkur", "brand:wikidata": "Q1921857"}, "geometry": {"type": "Point", "coordinates": [15.09176, 48.18836]}},
{"type": "Feature", "id": "9fwuwxgrIl5vvhQJRmZv0-4PQjI=", "properties": {"ref": "00-9258", "@spider": "merkur", "addr:full": "Wiener Strasse 81-87", "addr:city": "Eichgraben", "addr:state": "Niederoesterreich", "addr:postcode": "3032", "addr:country": "AT", "name": "BILLA AG FIL. 9258", "phone": "059915 09258", "brand": "Merkur", "brand:wikidata": "Q1921857"}, "geometry": {"type": "Point", "coordinates": [15.98108, 48.18113]}},
{"type": "Feature", "id": "ACJ34yreHU-DCijxt2egghkzdG4=", "properties": {"ref": "00-7073", "@spider": "merkur", "addr:full": "Eisenstaedter Strasse 3a", "addr:city": "Kittsee", "addr:state": "Burgenland", "addr:postcode": "2421", "addr:country": "AT", "name": "BILLA AG FIL. 7073", "phone": "059915 07073", "brand": "Merkur", "brand:wikidata": "Q1921857"}, "geometry": {"type": "Point", "coordinates": [17.058684, 48.0921549]}},
{"type": "Feature", "id": "ec9zEWWEHxaH25sQYML9WYWzgqg=", "properties": {"ref": "00-3551", "@spider": "merkur", "addr:full": "Dr.Winter-Weg 3", "addr:city": "Fischamend", "addr:state": "Niederoesterreich", "addr:postcode": "2401", "addr:country": "AT", "name": "BILLA AG FIL. 3551", "phone": "059915 03551", "brand": "Merkur", "brand:wikidata": "Q1921857"}, "geometry": {"type": "Point", "coordinates": [16.5996174, 48.1216261]}},
{"type": "Feature", "id": "PSGUtpPkrKIOxx2s2esEY8V7wYY=", "properties": {"ref": "00-3848", "@spider": "merkur", "addr:full": "Brunnergasse 63", "addr:city": "Perchtoldsdorf", "addr:state": "Niederoesterreich", "addr:postcode": "2380", "addr:country": "AT", "name": "BILLA AG FIL. 3848", "phone": "059915 03848", "brand": "Merkur", "brand:wikidata": "Q1921857"}, "geometry": {"type": "Point", "coordinates": [16.27326, 48.11375]}},
{"type": "Feature", "id": "FcddgB8fqlKhmtkV4iDk62NijoQ=", "properties": {"ref": "00-6848", "@spider": "merkur", "addr:full": "Bahnhofstrasse 36", "addr:city": "Zeltweg", "addr:state": "Steiermark", "addr:postcode": "8740", "addr:country": "AT", "name": "BILLA AG FIL. 6848", "phone": "059915 06848", "brand": "Merkur", "brand:wikidata": "Q1921857"}, "geometry": {"type": "Point", "coordinates": [14.75406, 47.1903]}},
{"type": "Feature", "id": "J3_d15vlDP2Ol1x01L_F0-qXaa0=", "properties": {"ref": "00-290", "@spider": "merkur", "addr:full": "Stuwerstrasse 27", "addr:city": "Wien", "addr:state": "Wien", "addr:postcode": "1020", "addr:country": "AT", "name": "BILLA AG FIL. 290", "phone": "059915 00290", "brand": "Merkur", "brand:wikidata": "Q1921857"}, "geometry": {"type": "Point", "coordinates": [16.40194, 48.21886]}},
{"type": "Feature", "id": "DKR0Bk7tWDB-9LPnFTo1zae7tM0=", "properties": {"ref": "00-388", "@spider": "merkur", "addr:full": "Rennweg 9", "addr:city": "Wien", "addr:state": "Wien", "addr:postcode": "1030", "addr:country": "AT", "name": "BILLA AG FIL. 388", "phone": "059915 00388", "brand": "Merkur", "brand:wikidata": "Q1921857"}, "geometry": {"type": "Point", "coordinates": [16.3795, 48.19755]}},
{"type": "Feature", "id": "Xry-nToxDynSSNnhWcc_0mQBMes=", "properties": {"ref": "00-3549", "@spider": "merkur", "addr:full": "Mitterweg 1", "addr:city": "Moosbrunn", "addr:state": "Niederoesterreich", "addr:postcode": "2440", "addr:country": "AT", "name": "BILLA AG FIL. 3549", "phone": "059915 03549", "brand": "Merkur", "brand:wikidata": "Q1921857"}, "geometry": {"type": "Point", "coordinates": [16.46101, 48.02056]}},
{"type": "Feature", "id": "cvM3e9GNfdBVUD0Vv2vrRT-PFpM=", "properties": {"ref": "00-3555", "@spider": "merkur", "addr:full": "Wienerstrasse 48", "addr:city": "Langenlebarn", "addr:state": "Niederoesterreich", "addr:postcode": "3425", "addr:country": "AT", "name": "BILLA AG FIL. 3555", "phone": "059915 03555", "brand": "Merkur", "brand:wikidata": "Q1921857"}, "geometry": {"type": "Point", "coordinates": [16.12101, 48.33162]}},
{"type": "Feature", "id": "l4-qLzyT1pF2nz1GxEU1BS866B4=", "properties": {"ref": "00-3584", "@spider": "merkur", "addr:full": "Ebersdorferstr.1", "addr:city": "Obergrafendorf", "addr:state": "Niederoesterreich", "addr:postcode": "3200", "addr:country": "AT", "name": "BILLA AG FIL. 3584", "phone": "059915 03584", "brand": "Merkur", "brand:wikidata": "Q1921857"}, "geometry": {"type": "Point", "coordinates": [15.54551, 48.15354]}},
{"type": "Feature", "id": "ZDJxpePFfNfoitqzIdhd0HteW_w=", "properties": {"ref": "00-3600", "@spider": "merkur", "addr:full": "Blaetterstr.16", "addr:city": "Neunkirchen", "addr:state": "Niederoesterreich", "addr:postcode": "2620", "addr:country": "AT", "name": "BILLA AG FIL. 3600", "phone": "059915 03600", "brand": "Merkur", "brand:wikidata": "Q1921857"}, "geometry": {"type": "Point", "coordinates": [16.08531, 47.73381]}},
{"type": "Feature", "id": "9FlTxan9B5UUF5jpo5O6BrC5DQ4=", "properties": {"ref": "00-3608", "@spider": "merkur", "addr:full": "Ybbsitzer Strasse 51c", "addr:city": "Waidhofen/Ybbs", "addr:state": "Niederoesterreich", "addr:postcode": "3340", "addr:country": "AT", "name": "BILLA AG FIL. 3608", "phone": "059915 03608", "brand": "Merkur", "brand:wikidata": "Q1921857"}, "geometry": {"type": "Point", "coordinates": [14.7864812, 47.9554544]}},
{"type": "Feature", "id": "X4iL8phNBPrHsx3DX1iNrCSfaXI=", "properties": {"ref": "00-3620", "@spider": "merkur", "addr:full": "Leobersdorferstr. 56a", "addr:city": "Berndorf", "addr:state": "Niederoesterreich", "addr:postcode": "2560", "addr:country": "AT", "name": "BILLA AG FIL. 3620", "phone": "059915 03620", "brand": "Merkur", "brand:wikidata": "Q1921857"}, "geometry": {"type": "Point", "coordinates": [16.14016, 47.93933]}},
{"type": "Feature", "id": "nGyLgzJ741WOlIm3mgvP71yLhB8=", "properties": {"ref": "00-3641", "@spider": "merkur", "addr:full": "Hauptstrasse 50", "addr:city": "Lanzenkirchen", "addr:state": "Niederoesterreich", "addr:postcode": "2821", "addr:country": "AT", "name": "BILLA AG FIL. 3641", "phone": "059915 03641", "brand": "Merkur", "brand:wikidata": "Q1921857"}, "geometry": {"type": "Point", "coordinates": [16.24185, 47.74509]}},
{"type": "Feature", "id": "Zwt0KRr-7CCzL_BC5mrsT73z8L4=", "properties": {"ref": "00-3661", "@spider": "merkur", "addr:full": "Hainfelderstrasse 66", "addr:city": "Pottenstein", "addr:state": "Niederoesterreich", "addr:postcode": "2563", "addr:country": "AT", "name": "BILLA AG FIL. 3661", "phone": "059915 03661", "brand": "Merkur", "brand:wikidata": "Q1921857"}, "geometry": {"type": "Point", "coordinates": [16.08944, 47.9652]}},
{"type": "Feature", "id": "FivrC20K6JGXYMmc7M7KtcMuabE=", "properties": {"ref": "00-3681", "@spider": "merkur", "addr:full": "Schmiedgasse 16", "addr:city": "Hollabrunn", "addr:state": "Niederoesterreich", "addr:postcode": "2020", "addr:country": "AT", "name": "BILLA AG FIL. 3681", "phone": "059915 03681", "brand": "Merkur", "brand:wikidata": "Q1921857"}, "geometry": {"type": "Point", "coordinates": [16.07752, 48.56036]}},
{"type": "Feature", "id": "CbiS7zAO7Y_ZJlW67jVbsuESo7c=", "properties": {"ref": "00-3715", "@spider": "merkur", "addr:full": "Europaplatz 1-3", "addr:city": "Wr. Neudorf", "addr:state": "Niederoesterreich", "addr:postcode": "2351", "addr:country": "AT", "name": "BILLA AG FIL. 3715", "phone": "059915 03715", "brand": "Merkur", "brand:wikidata": "Q1921857"}, "geometry": {"type": "Point", "coordinates": [16.31729, 48.08706]}},
{"type": "Feature", "id": "GbY8OUJn5oEpluleJwCYs3JAe_A=", "properties": {"ref": "00-3729", "@spider": "merkur", "addr:full": "Schlossergasse 2", "addr:city": "Hohenberg", "addr:state": "Niederoesterreich", "addr:postcode": "3192", "addr:country": "AT", "name": "BILLA AG FIL. 3729", "phone": "059915 03729", "brand": "Merkur", "brand:wikidata": "Q1921857"}, "geometry": {"type": "Point", "coordinates": [15.61511, 47.92197]}},
{"type": "Feature", "id": "jSRCi6o-XDx2FIGXAAOAu7pHpqc=", "properties": {"ref": "00-6039", "@spider": "merkur", "addr:full": "Gewerbepark 8", "addr:city": "Sankt Peter-Freienstein", "addr:state": "Steiermark", "addr:postcode": "8792", "addr:country": "AT", "name": "BILLA AG FIL. 6039", "phone": "059915 06039", "brand": "Merkur", "brand:wikidata": "Q1921857"}, "geometry": {"type": "Point", "coordinates": [15.03916, 47.39434]}},
{"type": "Feature", "id": "-3_AhdYiieSez0c5_TTrvqL_66E=", "properties": {"ref": "00-3798", "@spider": "merkur", "addr:full": "Hirtenbergerstrasse 4d", "addr:city": "Leobersdorf", "addr:state": "Niederoesterreich", "addr:postcode": "2544", "addr:country": "AT", "name": "BILLA AG FIL. 3798", "phone": "059915 03798", "brand": "Merkur", "brand:wikidata": "Q1921857"}, "geometry": {"type": "Point", "coordinates": [16.2183, 47.93469]}},
{"type": "Feature", "id": "4ieZI8ZBZ-4u9xbPDHnhSY-dfvg=", "properties": {"ref": "00-3252", "@spider": "merkur", "addr:full": "Altagasse 2", "addr:city": "Bad Erlach", "addr:state": "Niederoesterreich", "addr:postcode": "2822", "addr:country": "AT", "name": "BILLA AG FIL. 3252", "phone": "059915 03252", "brand": "Merkur", "brand:wikidata": "Q1921857"}, "geometry": {"type": "Point", "coordinates": [16.21238, 47.73077]}},
{"type": "Feature", "id": "JPsA3yqbCfbYCuqDWx-wL1UbXvg=", "properties": {"ref": "00-3392", "@spider": "merkur", "addr:full": "Hauptstrasse 15", "addr:city": "Gaenserndorf", "addr:state": "Niederoesterreich", "addr:postcode": "2230", "addr:country": "AT", "name": "BILLA AG FIL. 3392", "phone": "059915 03392", "brand": "Merkur", "brand:wikidata": "Q1921857"}, "geometry": {"type": "Point", "coordinates": [16.71874, 48.34091]}},
{"type": "Feature", "id": "k7jNr7_uGFpvOuROSBwEEXO-aLo=", "properties": {"ref": "00-2725", "@spider": "merkur", "addr:full": "Donaufelderstr. 23-25", "addr:city": "Wien", "addr:state": "Wien", "addr:postcode": "1210", "addr:country": "AT", "name": "BILLA AG FIL. 2725", "phone": "059915 02725", "brand": "Merkur", "brand:wikidata": "Q1921857"}, "geometry": {"type": "Point", "coordinates": [16.410645, 48.2544472]}},
{"type": "Feature", "id": "bFcAqhkCzjdsJZG9f0Dg8pkkkP4=", "properties": {"ref": "00-2873", "@spider": "merkur", "addr:full": "Neulerchenfelderstr.75", "addr:city": "Wien", "addr:state": "Wien", "addr:postcode": "1160", "addr:country": "AT", "name": "BILLA AG FIL. 2873", "phone": "059915 02873", "brand": "Merkur", "brand:wikidata": "Q1921857"}, "geometry": {"type": "Point", "coordinates": [16.329249, 48.212014]}},
{"type": "Feature", "id": "WQzydnSiCiWI9QfEwbxe-D2SDmc=", "properties": {"ref": "00-3030", "@spider": "merkur", "addr:full": "Brauhausstrasse 58", "addr:city": "Rannersdorf", "addr:state": "Niederoesterreich", "addr:postcode": "2320", "addr:country": "AT", "name": "BILLA AG FIL. 3030", "phone": "059915 03030", "brand": "Merkur", "brand:wikidata": "Q1921857"}, "geometry": {"type": "Point", "coordinates": [16.46388, 48.12725]}},
{"type": "Feature", "id": "X4hoakMrpOGYD0dpsVD8ZxBR3-E=", "properties": {"ref": "00-2261", "@spider": "merkur", "addr:full": "Komzakgasse 17", "addr:city": "Wien", "addr:state": "Wien", "addr:postcode": "1220", "addr:country": "AT", "name": "BILLA AG FIL. 2261", "phone": "059915 02261", "brand": "Merkur", "brand:wikidata": "Q1921857"}, "geometry": {"type": "Point", "coordinates": [16.44192, 48.24659]}},
{"type": "Feature", "id": "FqTZPvNF_jKZHuQN26KpZuf27rw=", "properties": {"ref": "00-2386", "@spider": "merkur", "addr:full": "Karl-Tornaygasse 38", "addr:city": "Wien", "addr:state": "Wien", "addr:postcode": "1230", "addr:country": "AT", "name": "BILLA AG FIL. 2386", "phone": "059915 02386", "brand": "Merkur", "brand:wikidata": "Q1921857"}, "geometry": {"type": "Point", "coordinates": [16.31265, 48.13304]}},
{"type": "Feature", "id": "v2tWmKNKIvPVZoKBdtBecElr32M=", "properties": {"ref": "00-1735", "@spider": "merkur", "addr:full": "Wattgasse 78-80", "addr:city": "Wien", "addr:state": "Wien", "addr:postcode": "1170", "addr:country": "AT", "name": "BILLA AG FIL. 1735", "phone": "059915 01735", "brand": "Merkur", "brand:wikidata": "Q1921857"}, "geometry": {"type": "Point", "coordinates": [16.321374, 48.2209202]}},
{"type": "Feature", "id": "F6iJqmDWPk4bUmfKo-yA7jXc52c=", "properties": {"ref": "00-1917", "@spider": "merkur", "addr:full": "Doebl.Hptstr 74/Ostenleit", "addr:city": "Wien", "addr:state": "Wien", "addr:postcode": "1190", "addr:country": "AT", "name": "BILLA AG FIL. 1917", "phone": "059915 01917", "brand": "Merkur", "brand:wikidata": "Q1921857"}, "geometry": {"type": "Point", "coordinates": [16.3552455, 48.2396909]}},
{"type": "Feature", "id": "dvxGw7sz_54q0IJ4ptx7FfuzXOg=", "properties": {"ref": "00-6588", "@spider": "merkur", "addr:full": "Peter Tunner-Gasse 47", "addr:city": "Graz", "addr:state": "Steiermark", "addr:postcode": "8020", "addr:country": "AT", "name": "BILLA AG FIL. 6588", "phone": "059915 06588", "brand": "Merkur", "brand:wikidata": "Q1921857"}, "geometry": {"type": "Point", "coordinates": [15.40385, 47.08108]}},
{"type": "Feature", "id": "s4NtybfVgh-lIrovu_TPwI_huXY=", "properties": {"ref": "00-6598", "@spider": "merkur", "addr:full": "Kapellenstrasse 1", "addr:city": "Graz", "addr:state": "Steiermark", "addr:postcode": "8020", "addr:country": "AT", "name": "BILLA AG FIL. 6598", "phone": "059915 06598", "brand": "Merkur", "brand:wikidata": "Q1921857"}, "geometry": {"type": "Point", "coordinates": [15.42689, 47.05138]}},
{"type": "Feature", "id": "acPT7g1QQSr4-ACYlgsDn5lQSAs=", "properties": {"ref": "00-6628", "@spider": "merkur", "addr:full": "Hugo Wolf-Str.3", "addr:city": "Kapfenberg", "addr:state": "Steiermark", "addr:postcode": "8605", "addr:country": "AT", "name": "BILLA AG FIL. 6628", "phone": "059915 06628", "brand": "Merkur", "brand:wikidata": "Q1921857"}, "geometry": {"type": "Point", "coordinates": [15.32797, 47.46448]}},
{"type": "Feature", "id": "KVuLYZ3SLKcenzQ0xQJOQh6cEBM=", "properties": {"ref": "00-7508", "@spider": "merkur", "addr:full": "St. Ruprechterstr. 49", "addr:city": "Klagenfurt", "addr:state": "Kaernten", "addr:postcode": "9020", "addr:country": "AT", "name": "BILLA AG FIL. 7508", "phone": "059915 07508", "brand": "Merkur", "brand:wikidata": "Q1921857"}, "geometry": {"type": "Point", "coordinates": [14.30971, 46.61118]}},
{"type": "Feature", "id": "bizH7xB4IVjjflJddknKcvawiBo=", "properties": {"ref": "00-8299", "@spider": "merkur", "addr:full": "Wildbichlerstr.2a -2b", "addr:city": "Ebbs", "addr:state": "Tirol", "addr:postcode": "6341", "addr:country": "AT", "name": "BILLA AG FIL. 8299", "phone": "059915 08299", "brand": "Merkur", "brand:wikidata": "Q1921857"}, "geometry": {"type": "Point", "coordinates": [12.21326, 47.62326]}},
{"type": "Feature", "id": "yOqI0viwSugqMOVVxqBZsawdspU=", "properties": {"ref": "00-8395", "@spider": "merkur", "addr:full": "Kirchplatz 17", "addr:city": "Schruns", "addr:state": "Vorarlberg", "addr:postcode": "6780", "addr:country": "AT", "name": "BILLA AG FIL. 8395", "phone": "059915 08395", "brand": "Merkur", "brand:wikidata": "Q1921857"}, "geometry": {"type": "Point", "coordinates": [9.91856, 47.07953]}},
{"type": "Feature", "id": "HPL4ebGl5z_GxtNqofWGJv1oZtM=", "properties": {"ref": "00-4707", "@spider": "merkur", "addr:full": "Traunuferstrasse 107f", "addr:city": "Ansfelden", "addr:state": "Oberoesterreich", "addr:postcode": "4052", "addr:country": "AT", "name": "BILLA AG FIL. 4707", "phone": "059915 04707", "brand": "Merkur", "brand:wikidata": "Q1921857"}, "geometry": {"type": "Point", "coordinates": [14.28002, 48.21567]}},
{"type": "Feature", "id": "VivMjUx5aQjX7QNsPLNjtPcYwSw=", "properties": {"ref": "00-1671", "@spider": "merkur", "addr:full": "Thaliastr. 85/Bruesslg. 3", "addr:city": "Wien", "addr:state": "Wien", "addr:postcode": "1160", "addr:country": "AT", "name": "BILLA AG FIL. 1671", "phone": "059915 01671", "brand": "Merkur", "brand:wikidata": "Q1921857"}, "geometry": {"type": "Point", "coordinates": [16.32216, 48.21102]}},
{"type": "Feature", "id": "Q7A3y0aiqwS69SiBwou1cnMstF4=", "properties": {"ref": "00-6339", "@spider": "merkur", "addr:full": "Krottendorf 173", "addr:city": "Krottendorf-Gaisfeld", "addr:state": "Steiermark", "addr:postcode": "8564", "addr:country": "AT", "name": "BILLA AG FIL. 6339", "phone": "059915 06339", "brand": "Merkur", "brand:wikidata": "Q1921857"}, "geometry": {"type": "Point", "coordinates": [15.2171567, 47.0096523]}},
{"type": "Feature", "id": "XWZ4AhWIY-kEuMxrJ7MpsGCHlhw=", "properties": {"ref": "00-4421", "@spider": "merkur", "addr:full": "B 3, Mauthauserstr. 80", "addr:city": "St.Georgen/Gu", "addr:state": "Oberoesterreich", "addr:postcode": "4222", "addr:country": "AT", "name": "BILLA AG FIL. 4421", "phone": "059915 04421", "brand": "Merkur", "brand:wikidata": "Q1921857"}, "geometry": {"type": "Point", "coordinates": [14.45422, 48.26377]}},
{"type": "Feature", "id": "tOrnxPTT6ISyw2vZMViZxTAfKGY=", "properties": {"ref": "00-3540", "@spider": "merkur", "addr:full": "Wuernsdorf 105", "addr:city": "Poeggstall", "addr:state": "Niederoesterreich", "addr:postcode": "3650", "addr:country": "AT", "name": "BILLA AG FIL. 3540", "phone": "059915 03540", "brand": "Merkur", "brand:wikidata": "Q1921857"}, "geometry": {"type": "Point", "coordinates": [15.17498, 48.31475]}},
{"type": "Feature", "id": "RkNtZfrOX5en5PZ096s5DSCvjVQ=", "properties": {"ref": "00-7895", "@spider": "merkur", "addr:full": "Hauptstrasse 125", "addr:city": "Seeboden", "addr:state": "Kaernten", "addr:postcode": "9871", "addr:country": "AT", "name": "BILLA AG FIL. 7895", "phone": "059915 07895", "brand": "Merkur", "brand:wikidata": "Q1921857"}, "geometry": {"type": "Point", "coordinates": [13.52305, 46.81942]}},
{"type": "Feature", "id": "xnSG3rtX7MNoUNw49RbT1axC5w8=", "properties": {"ref": "00-3731", "@spider": "merkur", "addr:full": "Josef Dabschstr. 6-8", "addr:city": "Bisamberg", "addr:state": "Niederoesterreich", "addr:postcode": "2102", "addr:country": "AT", "name": "BILLA AG FIL. 3731", "phone": "059915 03731", "brand": "Merkur", "brand:wikidata": "Q1921857"}, "geometry": {"type": "Point", "coordinates": [16.363105, 48.331934]}},
{"type": "Feature", "id": "bOtXCL_J2Gdjnfh3-Vzl4ARPxD8=", "properties": {"ref": "00-1529", "@spider": "merkur", "addr:full": "Mariahilferstrasse 186-188", "addr:city": "Wien", "addr:state": "Wien", "addr:postcode": "1150", "addr:country": "AT", "name": "BILLA AG FIL. 1529", "phone": "059915 01529", "brand": "Merkur", "brand:wikidata": "Q1921857"}, "geometry": {"type": "Point", "coordinates": [16.3277802, 48.1916133]}},
{"type": "Feature", "id": "vU0uJwcXz8phBNl-aZK-9k7LHF4=", "properties": {"ref": "00-5785", "@spider": "merkur", "addr:full": "Sparkassenstrasse 8", "addr:city": "Braunau", "addr:state": "Oberoesterreich", "addr:postcode": "5280", "addr:country": "AT", "name": "BILLA AG FIL. 5785", "phone": "059915 05785", "brand": "Merkur", "brand:wikidata": "Q1921857"}, "geometry": {"type": "Point", "coordinates": [13.0341232, 48.245617]}},
{"type": "Feature", "id": "Ok3Osp8hYHEM9k4nEHq-swHG-Q0=", "properties": {"ref": "00-5793", "@spider": "merkur", "addr:full": "Rathausplatz 3", "addr:city": "Bad Schallerbach", "addr:state": "Oberoesterreich", "addr:postcode": "4701", "addr:country": "AT", "name": "BILLA AG FIL. 5793", "phone": "059915 05793", "brand": "Merkur", "brand:wikidata": "Q1921857"}, "geometry": {"type": "Point", "coordinates": [13.9204795, 48.2316328]}},
{"type": "Feature", "id": "h-r1PR0CYzWALb1mckPml1HuyLQ=", "properties": {"ref": "00-5868", "@spider": "merkur", "addr:full": "Gappstrasse 4", "addr:city": "Neuhofen An Der Krems", "addr:state": "Oberoesterreich", "addr:postcode": "4501", "addr:country": "AT", "name": "BILLA AG FIL. 5868", "phone": "059915 05868", "brand": "Merkur", "brand:wikidata": "Q1921857"}, "geometry": {"type": "Point", "coordinates": [14.22955, 48.1391]}},
{"type": "Feature", "id": "AmqbxFcGENI4Oea9jDhgoq6ikJY=", "properties": {"ref": "00-5975", "@spider": "merkur", "addr:full": "Leonfeldnerstrasse 97", "addr:city": "Linz", "addr:state": "Oberoesterreich", "addr:postcode": "4040", "addr:country": "AT", "name": "BILLA AG FIL. 5975", "phone": "059915 05975", "brand": "Merkur", "brand:wikidata": "Q1921857"}, "geometry": {"type": "Point", "coordinates": [14.2875988, 48.3301937]}},
{"type": "Feature", "id": "vq2C4ADub4XlUgq_16mvgXmYbnI=", "properties": {"ref": "00-6056", "@spider": "merkur", "addr:full": "Gleisdorferstrasse 71", "addr:city": "Weiz", "addr:state": "Steiermark", "addr:postcode": "8160", "addr:country": "AT", "name": "BILLA AG FIL. 6056", "phone": "059915 06056", "brand": "Merkur", "brand:wikidata": "Q1921857"}, "geometry": {"type": "Point", "coordinates": [15.631423, 47.211778]}},
{"type": "Feature", "id": "3xIccTF9oD9xD_AJA4uNMSyvwLk=", "properties": {"ref": "00-5030", "@spider": "merkur", "addr:full": "Klessheimer Allee 90", "addr:city": "Salzburg", "addr:state": "Salzburg", "addr:postcode": "5020", "addr:country": "AT", "name": "BILLA AG FIL. 5030", "phone": "059915 05030", "brand": "Merkur", "brand:wikidata": "Q1921857"}, "geometry": {"type": "Point", "coordinates": [13.00626, 47.81154]}},
{"type": "Feature", "id": "mkn5cxVKNo9pIktS8ErCpGpP1TU=", "properties": {"ref": "00-5040", "@spider": "merkur", "addr:full": "Reimsstrasse 2", "addr:city": "Salzburg", "addr:state": "Salzburg", "addr:postcode": "5020", "addr:country": "AT", "name": "BILLA AG FIL. 5040", "phone": "059915 05040", "brand": "Merkur", "brand:wikidata": "Q1921857"}, "geometry": {"type": "Point", "coordinates": [13.04588, 47.82432]}},