{"type":"FeatureCollection","features":[{"type": "Feature", "id": "-87pkL6po6DErOqCXq1n0-XUc0M=", "properties": {"ref": "209", "@spider": "rainbow_shops", "addr:full": "5217 Indian Head Hwy", "addr:city": "Oxon Hill", "addr:state": "MD", "addr:postcode": "20745", "addr:country": "US", "name": "Eastover Shopping Ctr", "phone": "+13018391684", "opening_hours": "Mo-Sa 10:00-21:00; Su 11:00-18:00"}, "geometry": {"type": "Point", "coordinates": [-77.003637, 38.817239]}},
{"type": "Feature", "id": "lj30u8nggcBU337xE9YD4Rer5a4=", "properties": {"ref": "264", "@spider": "rainbow_shops", "addr:full": "3341 Donnell Dr", "addr:city": "Forestville", "addr:state": "MD", "addr:postcode": "20747", "addr:country": "US", "name": "Forest Village Park", "phone": "+13017356884", "opening_hours": "Mo-Sa 10:00-20:00; Su 12:00-18:00"}, "geometry": {"type": "Point", "coordinates": [-76.884901, 38.845838]}},
{"type": "Feature", "id": "Viu3nb7xrZrqWN2TPHf1EakgVwA=", "properties": {"ref": "507", "@spider": "rainbow_shops", "addr:full": "2300 N Salisbury Blvd", "addr:city": "Salisbury", "addr:state": "MD", "addr:postcode": "21801", "addr:country": "US", "name": "The Centre at Salisbury", "phone": "+14105464597", "opening_hours": "Mo-Sa 11:00-20:00; Su 12:00-18:00"}, "geometry": {"type": "Point", "coordinates": [-75.566277, 38.398857]}},
{"type": "Feature", "id": "E60gzJOBlCuryEmYVCW5Viwk1FQ=", "properties": {"ref": "534", "@spider": "rainbow_shops", "addr:full": "13827 Outlet Dr", "addr:city": "Silver Spring", "addr:state": "MD", "addr:postcode": "20904", "addr:country": "US", "name": "Briggs Chaney Plaza", "phone": "+13018470440", "opening_hours": "Mo-Sa 10:00-21:00; Su 11:00-18:00"}, "geometry": {"type": "Point", "coordinates": [-76.945266, 39.082221]}},
{"type": "Feature", "id": "Ble18Eji3gyVxrYJT0QqLeBiLDI=", "properties": {"ref": "549", "@spider": "rainbow_shops", "addr:full": "3357 Donnell Dr", "addr:city": "Forestville", "addr:state": "MD", "addr:postcode": "20747", "addr:country": "US", "name": "Forest Village", "phone": "+13015688080", "opening_hours": "Mo-Sa 10:00-20:00; Su 12:00-18:00"}, "geometry": {"type": "Point", "coordinates": [-76.884877, 38.845704]}},
{"type": "Feature", "id": "cTfszl8IAkfnzTh0JZ9qWpLr5os=", "properties": {"ref": "608", "@spider": "rainbow_shops", "addr:full": "8645 Philadelphia Rd", "addr:city": "Baltimore", "addr:state": "MD", "addr:postcode": "21237", "addr:country": "US", "name": "Golden Ring Plaza", "phone": "+14102386074", "opening_hours": "Mo-Sa 10:00-20:00; Su 11:00-18:00"}, "geometry": {"type": "Point", "coordinates": [-76.49292, 39.335237]}},
{"type": "Feature", "id": "e3jLdcY8EmXWDmgQ5Q5d1lND1xk=", "properties": {"ref": "1846", "@spider": "rainbow_shops", "addr:full": "805 Solomons Island Rd N", "addr:city": "Prince Frederick", "addr:state": "MD", "addr:postcode": "20678", "addr:country": "US", "name": "Fox Run Shopping Center", "phone": "+14105350592", "opening_hours": "Mo-Sa 10:00-20:00; Su 11:00-18:00"}, "geometry": {"type": "Point", "coordinates": [-76.594448, 38.55605]}},
{"type": "Feature", "id": "1sLX1NoMTblEh1OSRWB0Dwmnd04=", "properties": {"ref": "687", "@spider": "rainbow_shops", "addr:full": "1140 Smallwood Dr", "addr:city": "Waldorf", "addr:state": "MD", "addr:postcode": "20603", "addr:country": "US", "name": "St. Charles Town plaza", "phone": "+13016455324", "opening_hours": "Mo-Sa 10:00-21:00; Su 11:00-18:00"}, "geometry": {"type": "Point", "coordinates": [-76.927699, 38.611463]}},
{"type": "Feature", "id": "QkmQWK4g73p4nqZJ9l8gsQbBmaY=", "properties": {"ref": "1140", "@spider": "rainbow_shops", "addr:full": "840 Largo Center Drive", "addr:city": "Upper Marlboro", "addr:state": "MD", "addr:postcode": "20774", "addr:country": "US", "name": "Largo Towne Center", "phone": "+13013361009", "opening_hours": "Mo-Sa 10:00-21:00; Su 11:00-18:00"}, "geometry": {"type": "Point", "coordinates": [-76.835427, 38.900252]}},
{"type": "Feature", "id": "wS4RE4AnfUVF5TfAEnEeFeaea_8=", "properties": {"ref": "1434", "@spider": "rainbow_shops", "addr:full": "3440 Annapolis Rd", "addr:city": "Baltimore", "addr:state": "MD", "addr:postcode": "21227", "addr:country": "US", "name": "Patapsco Shop Village", "phone": "+14107892016", "opening_hours": "Mo-We 10:00-20:00; Th-Sa 10:00-21:00; Su 11:00-18:00"}, "geometry": {"type": "Point", "coordinates": [-76.641831, 39.247898]}},
{"type": "Feature", "id": "_iylWVclKP8WZPmmWU-LJIQQ3Zk=", "properties": {"ref": "393", "@spider": "rainbow_shops", "addr:full": "6100 Greenbelt Rd", "addr:city": "Greenbelt", "addr:state": "MD", "addr:postcode": "20770", "addr:country": "US", "name": "Beltway Plaza", "phone": "+13019822660", "opening_hours": "Mo-Th 10:00-20:00; Fr-Sa 10:00-21:00; Su 11:00-18:00"}, "geometry": {"type": "Point", "coordinates": [-76.90646, 38.998968]}},
{"type": "Feature", "id": "F79y3w0klLn-MvmPvcdAHFADwRQ=", "properties": {"ref": "395", "@spider": "rainbow_shops", "addr:full": "8700 Liberty Rd", "addr:city": "Randallstown", "addr:state": "MD", "addr:postcode": "21133", "addr:country": "US", "name": "Liberty Plaza", "phone": "+14105213164", "opening_hours": "Mo-Sa 10:00-20:00; Su 11:00-18:00"}, "geometry": {"type": "Point", "coordinates": [-76.782902, 39.363992]}},
{"type": "Feature", "id": "45EZQqFnI8TYScCluJV9zCW17QY=", "properties": {"ref": "506", "@spider": "rainbow_shops", "addr:full": "8661 Colesville Rd", "addr:city": "Silver Spring", "addr:state": "MD", "addr:postcode": "20910", "addr:country": "US", "name": "City Place Mall", "phone": "+13015850091", "opening_hours": "Mo-Sa 10:00-20:00; Su 12:00-18:00"}, "geometry": {"type": "Point", "coordinates": [-77.026964, 38.997068]}},
{"type": "Feature", "id": "mD0GWIIT8uCSsfbta-a_863b6Sw=", "properties": {"ref": "525", "@spider": "rainbow_shops", "addr:full": "8200 Perry Hall Blvd", "addr:city": "Baltimore", "addr:state": "MD", "addr:postcode": "21236", "addr:country": "US", "name": "White Marsh", "phone": "+14109313585", "opening_hours": "Mo-Sa 11:00-20:00; Su 11:00-18:00"}, "geometry": {"type": "Point", "coordinates": [-76.468829, 39.37522]}},
{"type": "Feature", "id": "1659a69OBtiyb7gwKlpEB_TZPt8=", "properties": {"ref": "556", "@spider": "rainbow_shops", "addr:full": "2401 Liberty Heights Ave", "addr:city": "Baltimore", "addr:state": "MD", "addr:postcode": "21215", "addr:country": "US", "name": "Mandawmin Mall", "phone": "+14104629707", "opening_hours": "Mo-Sa 11:00-19:00; Su 12:00-18:00"}, "geometry": {"type": "Point", "coordinates": [-76.654499, 39.31716]}},
{"type": "Feature", "id": "f6y3nuMuVFAWpt_rfUWLlpGCGLw=", "properties": {"ref": "575", "@spider": "rainbow_shops", "addr:full": "3500 East West Hwy", "addr:city": "Hyattsville", "addr:state": "MD", "addr:postcode": "20782", "addr:country": "US", "name": "Prince George Plaza", "phone": "+13015597313", "opening_hours": "Mo-Sa 11:00-19:00; Su 12:00-18:00"}, "geometry": {"type": "Point", "coordinates": [-76.957474, 38.967857]}},
{"type": "Feature", "id": "GILbOeurIhAXnZRZtcMDIqDIsuY=", "properties": {"ref": "588", "@spider": "rainbow_shops", "addr:full": "5628 The Alameda", "addr:city": "Baltimore", "addr:state": "MD", "addr:postcode": "21239", "addr:country": "US", "name": "Alameda Marketplace", "phone": "+14104359240", "opening_hours": "Mo-Th 10:00-20:00; Fr-Sa 10:00-21:00; Su 11:00-18:00"}, "geometry": {"type": "Point", "coordinates": [-76.59476, 39.358656]}},
{"type": "Feature", "id": "JtnVpr_oQKQwgJly2npMoa854UU=", "properties": {"ref": "1723", "@spider": "rainbow_shops", "addr:full": "825 Dulaney Valley Rd", "addr:city": "Towson", "addr:state": "MD", "addr:postcode": "21204", "addr:country": "US", "name": "Towson Town Center", "phone": "+14432755329", "opening_hours": "Mo-Sa 11:00-20:00; Su 11:00-18:00"}, "geometry": {"type": "Point", "coordinates": [-76.60379, 39.407156]}},
{"type": "Feature", "id": "Rvj7LaIfngKeTiHFp_74OB0yHFM=", "properties": {"ref": "1845", "@spider": "rainbow_shops", "addr:full": "1344 Eastern Blvd", "addr:city": "Essex", "addr:state": "MD", "addr:postcode": "21221", "addr:country": "US", "name": "Middlesex Shopping Center", "phone": "+14103917106", "opening_hours": "Mo-Sa 10:00-20:00; Su 11:00-18:00"}, "geometry": {"type": "Point", "coordinates": [-76.461823, 39.315428]}},
{"type": "Feature", "id": "ydjuzaLYkEfcgq9gSucNqxqN_CY=", "properties": {"ref": "1933", "@spider": "rainbow_shops", "addr:full": "11714 Reisterstown Rd", "addr:city": "Reisterstown", "addr:state": "MD", "addr:postcode": "21136", "addr:country": "US", "name": "Cherryvale Plaza", "phone": "+14108336368", "opening_hours": "Mo-Sa 10:00-20:00; Su 11:00-18:00"}, "geometry": {"type": "Point", "coordinates": [-76.811249, 39.443094]}},
{"type": "Feature", "id": "jYErLhpDB9PT3R_T6V60of0FhcE=", "properties": {"ref": "1145", "@spider": "rainbow_shops", "addr:full": "701 Russell Rd", "addr:city": "Gaithersburg", "addr:state": "MD", "addr:postcode": "20877", "addr:country": "US", "name": "Lake Forest Mall", "phone": "+13012082144", "opening_hours": "Mo-Sa 11:00-19:00; Su 11:00-18:00"}, "geometry": {"type": "Point", "coordinates": [-77.182953, 39.139336]}},
{"type": "Feature", "id": "0yMEHkkEcL-LIc5O_nR5zuIGt3c=", "properties": {"ref": "1148", "@spider": "rainbow_shops", "addr:full": "5816 Baltimore National Pike", "addr:city": "Catonsville", "addr:state": "MD", "addr:postcode": "21228", "addr:country": "US", "name": "Westview Mall", "phone": "+14107196959", "opening_hours": "Mo-Sa 10:00-21:00; Su 11:00-18:00"}, "geometry": {"type": "Point", "coordinates": [-76.735509, 39.289175]}},
{"type": "Feature", "id": "1DqO92P0VGBYAsvIkqBUm0TSrkQ=", "properties": {"ref": "1437", "@spider": "rainbow_shops", "addr:full": "5734 Wabash Ave", "addr:city": "Baltimore", "addr:state": "MD", "addr:postcode": "21215", "addr:country": "US", "name": "Northwest Plaza", "phone": "+14103583417", "opening_hours": "Mo-Th 10:00-20:00; Fr-Sa 10:00-21:00; Su 11:00-18:00"}, "geometry": {"type": "Point", "coordinates": [-76.695867, 39.344833]}},
{"type": "Feature", "id": "zmHp1w0O3rYvopPf1RgmZaj1iAs=", "properties": {"ref": "541", "@spider": "rainbow_shops", "addr:full": "315 W Lexington St", "addr:city": "Baltimore", "addr:state": "MD", "addr:postcode": "21201", "addr:country": "US", "name": "Lexington Market", "phone": "+14102441920"}, "geometry": {"type": "Point", "coordinates": [-76.620439, 39.291207]}},
{"type": "Feature", "id": "w9BqAkNJUfvpYVrzeuYfyjeYZ4Q=", "properties": {"ref": "548", "@spider": "rainbow_shops", "addr:full": "5101 Indian Head Hwy", "addr:city": "Oxon Hill", "addr:state": "MD", "addr:postcode": "20745", "addr:country": "US", "name": "Eastover Square", "phone": "+13017495300", "opening_hours": "Mo-Sa 10:00-20:00; Su 11:00-18:00"}, "geometry": {"type": "Point", "coordinates": [-77.000273, 38.819673]}},
{"type": "Feature", "id": "ApEj9D15zRkB0Iw8bKnbwouDTkM=", "properties": {"ref": "563", "@spider": "rainbow_shops", "addr:full": "7839 East Point Mall", "addr:city": "Baltimore", "addr:state": "MD", "addr:postcode": "21224", "addr:country": "US", "name": "Eastpoint Mall", "phone": "+14102886181", "opening_hours": "Mo-Th 11:00-19:00; Fr-Sa 11:00-20:00; Su 12:00-18:00"}, "geometry": {"type": "Point", "coordinates": [-76.506613, 39.293844]}},
{"type": "Feature", "id": "fbfufNU2KULBu4ULycx5x791-BA=", "properties": {"ref": "217", "@spider": "rainbow_shops", "addr:full": "50 Ann Mary St", "addr:city": "Pawtucket", "addr:state": "RI", "addr:postcode": "02860", "addr:country": "US", "name": "Shaws Plaza#111", "phone": "+14017230175", "opening_hours": "Mo-Sa 10:00-21:00; Su 11:00-17:00"}, "geometry": {"type": "Point", "coordinates": [-71.40243, 41.857307]}},
{"type": "Feature", "id": "JaEe_iuWqsqcmYnDgkkDYTsroYE=", "properties": {"ref": "894", "@spider": "rainbow_shops", "addr:full": "25 Smithfield Rd", "addr:city": "North Providence", "addr:state": "RI", "addr:postcode": "02904", "addr:country": "US", "name": "Smithfield Road", "phone": "+14013538570", "opening_hours": "Mo-Sa 10:00-21:00; Su 11:00-17:00"}, "geometry": {"type": "Point", "coordinates": [-71.447339, 41.855928]}},
{"type": "Feature", "id": "-8aLH2DURjS9j8Ld5vfUHBxXiM8=", "properties": {"ref": "1132", "@spider": "rainbow_shops", "addr:full": "1925 Pawtucket Ave", "addr:city": "East Providence", "addr:state": "RI", "addr:postcode": "02914", "addr:country": "US", "name": "Wamoanoag Plaza", "phone": "+14014381209", "opening_hours": "Mo-Sa 10:00-21:00; Su 11:00-17:30"}, "geometry": {"type": "Point", "coordinates": [-71.35692, 41.8235]}},
{"type": "Feature", "id": "-FTGmRg9q6PHNX5MWP2X58UlZ9E=", "properties": {"ref": "223", "@spider": "rainbow_shops", "addr:full": "2000 Diamond Hill Rd", "addr:city": "Woonsocket", "addr:state": "RI", "addr:postcode": "02895", "addr:country": "US", "name": "Diamond Hill Plaza", "phone": "+14017660781", "opening_hours": "Mo-Sa 10:00-21:00; Su 11:00-18:00"}, "geometry": {"type": "Point", "coordinates": [-71.471347, 42.016993]}},
{"type": "Feature", "id": "-IDekGjxunaTL-VWED_mgxH49gQ=", "properties": {"ref": "585", "@spider": "rainbow_shops", "addr:full": "79 Eagle St", "addr:city": "Providence", "addr:state": "RI", "addr:postcode": "02909", "addr:country": "US", "name": "Eagle Square", "phone": "+14014533010", "opening_hours": "Mo-Sa 10:00-21:00; Su 11:00-18:00"}, "geometry": {"type": "Point", "coordinates": [-71.435338, 41.825052]}},
{"type": "Feature", "id": "gD2B5o325OZwGRlQuhQbOxpT1IM=", "properties": {"ref": "571", "@spider": "rainbow_shops", "addr:full": "3901 Erdman Ave", "addr:city": "Baltimore", "addr:state": "MD", "addr:postcode": "21213", "addr:country": "US", "name": "Erdman Shopping Center", "phone": "+14105220490", "opening_hours": "Mo-Sa 10:00-20:00; Su 11:00-17:00"}, "geometry": {"type": "Point", "coordinates": [-76.570903, 39.314349]}},
{"type": "Feature", "id": "Y2jW2pu-2BeMjb2zZRt7KW7puZU=", "properties": {"ref": "1489", "@spider": "rainbow_shops", "addr:full": "242 Garfield Ave", "addr:city": "Cranston", "addr:state": "RI", "addr:postcode": "02920", "addr:country": "US", "name": "Brewery Shop Parkade", "phone": "+14012752169", "opening_hours": "Mo-We 10:00-19:00; Th-Sa 10:00-20:00; Su 11:00-18:00"}, "geometry": {"type": "Point", "coordinates": [-71.443614, 41.794208]}},
{"type": "Feature", "id": "u-I69UPNWgvzVGJ6VoLVL7WODjw=", "properties": {"ref": "1726", "@spider": "rainbow_shops", "addr:full": "167 Providence Pl", "addr:city": "Providence", "addr:state": "RI", "addr:postcode": "02903", "addr:country": "US", "name": "Providence Place", "phone": "+14013547858", "opening_hours": "Mo-Th 11:00-19:00; Fr-Sa 11:00-20:00; Su 11:00-18:00"}, "geometry": {"type": "Point", "coordinates": [-71.4115, 41.819459]}},
{"type": "Feature", "id": "UHz_2M5_HPopPmX4t3pI49OI6SY=", "properties": {"ref": "218", "@spider": "rainbow_shops", "addr:full": "1200 Oaklawn Ave", "addr:city": "Cranston", "addr:state": "RI", "addr:postcode": "02920", "addr:country": "US", "name": "Cranston", "phone": "+14014633173", "opening_hours": "Mo-Fr 10:00-19:00; Sa 10:00-18:00; Su 10:00-17:30"}, "geometry": {"type": "Point", "coordinates": [-71.477593, 41.737095]}},
{"type": "Feature", "id": "I_tFPB9EctQ2uNOXFJF3AVxjY3A=", "properties": {"ref": "587", "@spider": "rainbow_shops", "addr:full": "5620 Silver Hill Rd", "addr:city": "District Heights", "addr:state": "MD", "addr:postcode": "20747", "addr:country": "US", "name": "Penn Station", "phone": "+13017351060", "opening_hours": "Mo-Sa 11:00-19:00; Su 11:00-18:00"}, "geometry": {"type": "Point", "coordinates": [-76.910921, 38.852977]}},
{"type": "Feature", "id": "2QLKHPZTTukqD2EVh-xtjNMreis=", "properties": {"ref": "1627", "@spider": "rainbow_shops", "addr:full": "8001 New Hampshire Ave", "addr:city": "Langley Park", "addr:state": "MD", "addr:postcode": "20783", "addr:country": "US", "name": "Langley Park", "phone": "+13014080739", "opening_hours": "Mo-Sa 10:00-20:00; Su 11:00-18:00"}, "geometry": {"type": "Point", "coordinates": [-76.986562, 38.990418]}},
{"type": "Feature", "id": "viXNjLN4ZH4izHiVF4aPZmUSYwg=", "properties": {"ref": "1629", "@spider": "rainbow_shops", "addr:full": "9429 Annapolis Rd", "addr:city": "Lanham", "addr:state": "MD", "addr:postcode": "20706", "addr:country": "US", "name": "Enterprise Plaza", "phone": "+13013067555", "opening_hours": "Mo-Sa 10:00-20:00; Su 11:00-18:00"}, "geometry": {"type": "Point", "coordinates": [-76.842201, 38.96478]}},
{"type": "Feature", "id": "jqiCM0Vef4EhHFeFbHGbybmWNuY=", "properties": {"ref": "625", "@spider": "rainbow_shops", "addr:full": "6901 Security Blvd", "addr:city": "Baltimore", "addr:state": "MD", "addr:postcode": "21244", "addr:country": "US", "name": "Security Square Mall", "phone": "+14102779857", "opening_hours": "Mo-Th 11:00-19:00; Fr-Sa 11:00-20:00; Su 12:00-17:00"}, "geometry": {"type": "Point", "coordinates": [-76.750169, 39.312873]}},
{"type": "Feature", "id": "xecFit2CC3fqlGdDum0mMtQOzmw=", "properties": {"ref": "674", "@spider": "rainbow_shops", "addr:full": "6181 Oxon Hill Rd", "addr:city": "Oxon Hill", "addr:state": "MD", "addr:postcode": "20745", "addr:country": "US", "name": "Rivertown Commons", "phone": "+13015672438", "opening_hours": "Mo-Sa 10:00-21:00; Su 11:00-19:00"}, "geometry": {"type": "Point", "coordinates": [-76.981055, 38.804355]}},
{"type": "Feature", "id": "eSLU2yXY7Zu0qiZ56rHg7NSE6Bo=", "properties": {"ref": "809", "@spider": "rainbow_shops", "addr:full": "3818 Eastern Ave", "addr:city": "Baltimore", "addr:state": "MD", "addr:postcode": "21224", "addr:country": "US", "name": "Eastern Avenue", "phone": "+14105630827", "opening_hours": "Mo-Sa 10:00-20:00; Su 11:00-18:00"}, "geometry": {"type": "Point", "coordinates": [-76.564664, 39.287014]}},
{"type": "Feature", "id": "J_3CUdBQ5MJrmHkq6PECuDf5c6I=", "properties": {"ref": "811", "@spider": "rainbow_shops", "addr:full": "5138 Sinclair Ln", "addr:city": "Baltimore", "addr:state": "MD", "addr:postcode": "21206", "addr:country": "US", "name": "Parkside shopping center", "phone": "+14104853409", "opening_hours": "Mo-Th 10:00-20:00; Fr-Sa 10:00-21:00; Su 11:00-18:00"}, "geometry": {"type": "Point", "coordinates": [-76.544903, 39.32266]}},
{"type": "Feature", "id": "5KyvL1FFrpBYHUlpwtDgQT9cvpk=", "properties": {"ref": "857", "@spider": "rainbow_shops", "addr:full": "8775 Branch Ave", "addr:city": "Clinton", "addr:state": "MD", "addr:postcode": "20735", "addr:country": "US", "name": "Woodyard Crossing", "phone": "+13015990156", "opening_hours": "Mo-Sa 10:00-21:00; Su 11:00-18:00"}, "geometry": {"type": "Point", "coordinates": [-76.912096, 38.739765]}},
{"type": "Feature", "id": "nGk6j2KcbGgJUCma8lyDd3BXEI8=", "properties": {"ref": "1136", "@spider": "rainbow_shops", "addr:full": "3226 Donnell Dr", "addr:city": "Forestville", "addr:state": "MD", "addr:postcode": "20747", "addr:country": "US", "name": "Penn Mar Shopping Center", "phone": "+13017354850", "opening_hours": "Mo-Sa 10:00-21:00; Su 11:00-18:00"}, "geometry": {"type": "Point", "coordinates": [-76.884904, 38.846902]}},
{"type": "Feature", "id": "y7X-shEGryye9ZD3CRAeCUEtVZE=", "properties": {"ref": "1139", "@spider": "rainbow_shops", "addr:full": "4229 Branch Ave", "addr:city": "Temple Hills", "addr:state": "MD", "addr:postcode": "20748", "addr:country": "US", "name": "Marlow Heights", "phone": "+13017027390", "opening_hours": "Mo-Sa 10:00-20:00; Su 11:00-18:00"}, "geometry": {"type": "Point", "coordinates": [-76.942901, 38.831802]}},
{"type": "Feature", "id": "RlMKZyRBgyRGkFaT6ure86y56DI=", "properties": {"ref": "1158", "@spider": "rainbow_shops", "addr:full": "5500 Buckeystown Pike", "addr:city": "Frederick", "addr:state": "MD", "addr:postcode": "21703", "addr:country": "US", "name": "Francis Scott Key Mall", "phone": "+13016686292", "opening_hours": "Mo-Sa 10:00-21:00; Su 11:00-18:00"}, "geometry": {"type": "Point", "coordinates": [-77.463561, 39.364713]}},
{"type": "Feature", "id": "oHup6uemciZq147xHmVMUxcBVd8=", "properties": {"ref": "1436", "@spider": "rainbow_shops", "addr:full": "2437 Frederick Ave", "addr:city": "Baltimore", "addr:state": "MD", "addr:postcode": "21223", "addr:country": "US", "name": "Westside Shopping Center", "phone": "+14105660906", "opening_hours": "Mo-Sa 10:00-19:00; Su 11:00-18:00"}, "geometry": {"type": "Point", "coordinates": [-76.655027, 39.281565]}},
{"type": "Feature", "id": "Ph-9FfiBJtxYzsNkNHHowaVTUuo=", "properties": {"ref": "1454", "@spider": "rainbow_shops", "addr:full": "2307 Cleanleigh Dr", "addr:city": "Parkville", "addr:state": "MD", "addr:postcode": "21234", "addr:country": "US", "name": "Parkway Crossing Shopping Center", "phone": "+14106681471", "opening_hours": "Mo-Th 10:00-20:00; Fr-Sa 10:00-21:00; Su 11:00-18:00"}, "geometry": {"type": "Point", "coordinates": [-76.564565, 39.372506]}},
{"type": "Feature", "id": "U6tADH2ufXh5iU2KtdX4G6riQHI=", "properties": {"ref": "1871", "@spider": "rainbow_shops", "addr:full": "2355 Main St SE", "addr:city": "Los Lunas", "addr:state": "NM", "addr:postcode": "87031", "addr:country": "US", "name": "Valencia Plaza", "phone": "+15058669268", "opening_hours": "Mo-Sa 10:00-19:00; Su 11:00-18:00"}, "geometry": {"type": "Point", "coordinates": [-106.721355, 34.805155]}},
{"type": "Feature", "id": "ECk2Sq-jkVGMO5yXsbZTHFQoUZg=", "properties": {"ref": "1626", "@spider": "rainbow_shops", "addr:full": "6822 Reisterstown Rd", "addr:city": "Baltimore", "addr:state": "MD", "addr:postcode": "21215", "addr:country": "US", "name": "Fallstaff Shopping Center", "phone": "+14105851616", "opening_hours": "Mo-Th 10:00-20:00; Fr-Sa 10:00-21:00; Su 11:00-18:00"}, "geometry": {"type": "Point", "coordinates": [-76.708737, 39.359279]}},
{"type": "Feature", "id": "VA2RP6lLVRU2gxXD2GKg6budg0Y=", "properties": {"ref": "872", "@spider": "rainbow_shops", "addr:full": "1238 Putty Hill Ave", "addr:city": "Towson", "addr:state": "MD", "addr:postcode": "21286", "addr:country": "US", "name": "Towson Place", "phone": "+14103375036", "opening_hours": "Mo-Sa 10:00-21:00; Su 10:00-18:00"}, "geometry": {"type": "Point", "coordinates": [-76.581113, 39.395334]}},
{"type": "Feature", "id": "J_VugjetFyM8v4OepHm3YxgHQvU=", "properties": {"ref": "1462", "@spider": "rainbow_shops", "addr:full": "9311 Coors Blvd NW", "addr:city": "Albuquerque", "addr:state": "NM", "addr:postcode": "87114", "addr:country": "US", "name": "Plaza At Paseo Del Nor", "phone": "+15058984442", "opening_hours": "Mo-Sa 10:00-19:00; Su 11:00-18:00"}, "geometry": {"type": "Point", "coordinates": [-106.665199, 35.186754]}},
{"type": "Feature", "id": "h0RtheQsO7nVvt0XiTxLMiCgb3A=", "properties": {"ref": "1921", "@spider": "rainbow_shops", "addr:full": "5001 Montgomery Blvd NE", "addr:city": "Albuquerque", "addr:state": "NM", "addr:postcode": "87109", "addr:country": "US", "name": "Montgomery Plaza", "phone": "+15058810441", "opening_hours": "Mo-Sa 10:00-19:00; Su 11:00-18:00"}, "geometry": {"type": "Point", "coordinates": [-106.587538, 35.132628]}},
{"type": "Feature", "id": "eFGai3qou3fa77alX3pLPbNVjLk=", "properties": {"ref": "6", "@spider": "rainbow_shops", "addr:full": "2125 86th St", "addr:city": "Brooklyn", "addr:state": "NY", "addr:postcode": "11214", "addr:country": "US", "name": "86th Street", "phone": "+17184496154", "opening_hours": "Mo-We 10:00-20:00; Th-Sa 10:00-20:30; Su 10:00-20:00"}, "geometry": {"type": "Point", "coordinates": [-73.995258, 40.602794]}},
{"type": "Feature", "id": "4w-g3n2wex6NrYWL2i2-n2dPzO8=", "properties": {"ref": "51", "@spider": "rainbow_shops", "addr:full": "27 S Broadway", "addr:city": "Yonkers", "addr:state": "NY", "addr:postcode": "10701", "addr:country": "US", "name": "Hudson Street", "phone": "+19149630255", "opening_hours": "Mo-Th 10:00-19:00; Fr-Sa 10:00-19:30; Su 10:00-18:00"}, "geometry": {"type": "Point", "coordinates": [-73.89905, 40.933103]}},
{"type": "Feature", "id": "k8ojt8Ly07SvAEXAWcJYGLyqJEY=", "properties": {"ref": "86", "@spider": "rainbow_shops", "addr:full": "56-16 Myrtle Ave", "addr:city": "Ridgewood", "addr:state": "NY", "addr:postcode": "11385", "addr:country": "US", "name": "Myrtle Avenue", "phone": "+17186286701", "opening_hours": "Mo-Th 10:00-21:30; Fr-Sa 10:00-22:00; Su 10:00-21:00"}, "geometry": {"type": "Point", "coordinates": [-73.905519, 40.700048]}},
{"type": "Feature", "id": "pQdcZSjrxBAfJzuWN7AaWAu2fdc=", "properties": {"ref": "351", "@spider": "rainbow_shops", "addr:full": "980 Broadway", "addr:city": "Buffalo", "addr:state": "NY", "addr:postcode": "14212", "addr:country": "US", "name": "Broadway", "phone": "+17168932702", "opening_hours": "Mo-Th 10:00-17:30; Fr-Sa 10:00-18:00; Su 11:00-17:00"}, "geometry": {"type": "Point", "coordinates": [-78.838559, 42.893363]}},
{"type": "Feature", "id": "Lx3lEvckYkF5t-I9mTeZHQJCufU=", "properties": {"ref": "53", "@spider": "rainbow_shops", "addr:full": "642 Stewart Ave", "addr:city": "Garden City", "addr:state": "NY", "addr:postcode": "11530", "addr:country": "US", "name": "Garden City", "phone": "+15167450845", "opening_hours": "Mo-We 10:00-20:00; Th-Sa 10:00-21:00; Su 10:00-19:00"}, "geometry": {"type": "Point", "coordinates": [-73.610163, 40.732023]}},
{"type": "Feature", "id": "wLiSTbBOZ6tamdKWnAr3zlZWsAc=", "properties": {"ref": "92", "@spider": "rainbow_shops", "addr:full": "805 E Tremont Ave", "addr:city": "Bronx", "addr:state": "NY", "addr:postcode": "10460", "addr:country": "US", "name": "East Tremont Avenue", "phone": "+17184662209", "opening_hours": "Mo-Su 10:00-20:30"}, "geometry": {"type": "Point", "coordinates": [-73.887539, 40.843896]}},
{"type": "Feature", "id": "eXsjiBjFiZbifoBt3dZjtqm4mMw=", "properties": {"ref": "56", "@spider": "rainbow_shops", "addr:full": "2155 White Plains Rd", "addr:city": "Bronx", "addr:state": "NY", "addr:postcode": "10462", "addr:country": "US", "name": "White Plains", "phone": "+17184099378", "opening_hours": "Mo-Sa 10:00-20:30; Su 11:00-18:00"}, "geometry": {"type": "Point", "coordinates": [-73.867694, 40.854789]}},
{"type": "Feature", "id": "wf5eRG7EWvECGnUNwtx94KyiSCo=", "properties": {"ref": "892", "@spider": "rainbow_shops", "addr:full": "52 NY-17K", "addr:city": "Newburgh", "addr:state": "NY", "addr:postcode": "12550", "addr:country": "US", "name": "Crossroads Plaza", "phone": "+18455612055", "opening_hours": "Mo-Sa 10:00-20:00; Su 10:00-18:00"}, "geometry": {"type": "Point", "coordinates": [-74.060522, 41.505169]}},
{"type": "Feature", "id": "oWioaEOQ8aMmz0ZJSP8MvLIbEjE=", "properties": {"ref": "60", "@spider": "rainbow_shops", "addr:full": "200 East 161st Street", "addr:city": "New York", "addr:state": "NY", "addr:postcode": "10451", "addr:country": "US", "name": "Concourse Plaza", "phone": "+17182933767", "opening_hours": "Mo-We 10:00-20:00; Th-Sa 10:00-20:30; Su 10:00-20:00"}, "geometry": {"type": "Point", "coordinates": [-73.92107, 40.82557]}},
{"type": "Feature", "id": "aKyJ0lf8sw3UFX8PfdHxy8mPfBk=", "properties": {"ref": "379", "@spider": "rainbow_shops", "addr:full": "2658 Delaware Ave", "addr:city": "Buffalo", "addr:state": "NY", "addr:postcode": "14216", "addr:country": "US", "name": "Delaware Consumer Square", "phone": "+17168760213", "opening_hours": "Mo-Sa 10:00-21:00; Su 11:00-18:00"}, "geometry": {"type": "Point", "coordinates": [-78.871461, 42.956471]}},
{"type": "Feature", "id": "3THTtkbaf-2NAIV5GSB-OHeKYzg=", "properties": {"ref": "387", "@spider": "rainbow_shops", "addr:full": "2101 Elmwood Ave", "addr:city": "Buffalo", "addr:state": "NY", "addr:postcode": "14207", "addr:country": "US", "name": "Tops Market Place", "phone": "+17164471809", "opening_hours": "Mo-Sa 10:00-20:30; Su 11:00-17:00"}, "geometry": {"type": "Point", "coordinates": [-78.876798, 42.9552]}},
{"type": "Feature", "id": "I9EAz6xWQvhkhEpuaLB9zGO7odo=", "properties": {"ref": "125", "@spider": "rainbow_shops", "addr:full": "603 8th Ave", "addr:city": "New York", "addr:state": "NY", "addr:postcode": "10018", "addr:country": "US", "name": "8th Ave", "phone": "+19172616288", "opening_hours": "Mo-Su 10:00-20:00"}, "geometry": {"type": "Point", "coordinates": [-73.991352, 40.755652]}},
{"type": "Feature", "id": "q55p2qMQ762zrYa4CereiJPqD3s=", "properties": {"ref": "27", "@spider": "rainbow_shops", "addr:full": "14 Wheeler Rd", "addr:city": "Central Islip", "addr:state": "NY", "addr:postcode": "11722", "addr:country": "US", "name": "Central Islip", "phone": "+16313481290", "opening_hours": "Mo-We 10:00-20:00; Th-Sa 10:00-21:00; Su 10:00-19:00"}, "geometry": {"type": "Point", "coordinates": [-73.203763, 40.791003]}},
{"type": "Feature", "id": "Y4GVWtgScHx9AVEc8J5DUr2mydY=", "properties": {"ref": "64", "@spider": "rainbow_shops", "addr:full": "44 S 4th Ave", "addr:city": "Mount Vernon", "addr:state": "NY", "addr:postcode": "10550", "addr:country": "US", "name": "44 S. 4Th Avenue", "phone": "+19146652025", "opening_hours": "Mo-Th 10:00-20:00; Fr-Sa 10:00-20:30; Su 10:00-20:00"}, "geometry": {"type": "Point", "coordinates": [-73.837011, 40.910097]}},
{"type": "Feature", "id": "FYkIN1IM1BOyFvOM0cvIusDyQRU=", "properties": {"ref": "390", "@spider": "rainbow_shops", "addr:full": "999 E Ridge Rd", "addr:city": "Rochester", "addr:state": "NY", "addr:postcode": "14621", "addr:country": "US", "name": "Depot Plaza", "phone": "+15852666010", "opening_hours": "Mo-Sa 10:00-20:00; Su 11:00-17:00"}, "geometry": {"type": "Point", "coordinates": [-77.59005, 43.19614]}},
{"type": "Feature", "id": "TUJAylQVjZZkqXCq3Bc_b0Mn7Wg=", "properties": {"ref": "1101", "@spider": "rainbow_shops", "addr:full": "700 Patchogue Yaphank Rd", "addr:city": "Medford", "addr:state": "NY", "addr:postcode": "11763", "addr:country": "US", "name": "Sunshine Square", "phone": "+16319244964", "opening_hours": "Mo-We 10:00-20:00; Th-Sa 10:00-21:00; Su 10:00-19:00"}, "geometry": {"type": "Point", "coordinates": [-72.957433, 40.804946]}},
{"type": "Feature", "id": "n29axZMVtlguZ3VzbRjVjx-kDVc=", "properties": {"ref": "148", "@spider": "rainbow_shops", "addr:full": "1011 Southern Blvd", "addr:city": "Bronx", "addr:state": "NY", "addr:postcode": "10459", "addr:country": "US", "name": "Southern Blvd 148", "phone": "+17185895049", "opening_hours": "Mo-Th 10:00-20:00; Fr-Sa 10:00-20:30; Su 10:00-20:00"}, "geometry": {"type": "Point", "coordinates": [-73.891844, 40.823154]}},
{"type": "Feature", "id": "jy88CWk8MzSk5_lr5K-LWTGg8PM=", "properties": {"ref": "406", "@spider": "rainbow_shops", "addr:full": "327 S Salina St", "addr:city": "Syracuse", "addr:state": "NY", "addr:postcode": "13202", "addr:country": "US", "name": "Syracuse", "phone": "+13154790917", "opening_hours": "Mo-Th 10:00-17:00; Fr 10:00-18:00; Sa 10:00-17:00; Su 11:00-18:00"}, "geometry": {"type": "Point", "coordinates": [-76.151862, 43.047586]}},
{"type": "Feature", "id": "OEOyiZdnEvOy7dDjkVHzNGLfCas=", "properties": {"ref": "70", "@spider": "rainbow_shops", "addr:full": "380 5th Ave", "addr:city": "New York", "addr:state": "NY", "addr:postcode": "10018", "addr:country": "US", "name": "Fifth Avenue", "phone": "+12129470837", "opening_hours": "Mo-Su 10:00-19:00"}, "geometry": {"type": "Point", "coordinates": [-73.984258, 40.749411]}},
{"type": "Feature", "id": "fpHYp2zHF6N6gIjPaC0fUSTY1LQ=", "properties": {"ref": "1198", "@spider": "rainbow_shops", "addr:full": "2160 Delaware Ave", "addr:city": "Buffalo", "addr:state": "NY", "addr:postcode": "14216", "addr:country": "US", "name": "Marshalls Plaza", "phone": "+17168741372", "opening_hours": "Mo-Sa 10:00-21:00; Su 11:00-17:00"}, "geometry": {"type": "Point", "coordinates": [-78.868998, 42.942921]}},
{"type": "Feature", "id": "IL5FrCmSmZ2mQDU5zVWphiBLd-s=", "properties": {"ref": "155", "@spider": "rainbow_shops", "addr:full": "4391 White Plains Rd", "addr:city": "Bronx", "addr:state": "NY", "addr:postcode": "10466", "addr:country": "US", "name": "White Plains Road 155", "phone": "+17188813503", "opening_hours": "Mo-Su 10:00-20:30"}, "geometry": {"type": "Point", "coordinates": [-73.841003, 40.859878]}},
{"type": "Feature", "id": "JFsd6CJ_se8dskYa7FYAKBDF01Y=", "properties": {"ref": "71", "@spider": "rainbow_shops", "addr:full": "100 Main St", "addr:city": "White Plains", "addr:state": "NY", "addr:postcode": "10601", "addr:country": "US", "name": "White Plains Galleria", "phone": "+19146448780", "opening_hours": "Mo-Sa 11:00-20:00; Su 11:00-18:00"}, "geometry": {"type": "Point", "coordinates": [-73.769918, 41.031687]}},
{"type": "Feature", "id": "MB6TLh0qC4saZiE8GuP9qFlHEvA=", "properties": {"ref": "1410", "@spider": "rainbow_shops", "addr:full": "290 Peninsula Blvd", "addr:city": "Hempstead", "addr:state": "NY", "addr:postcode": "11550", "addr:country": "US", "name": "Hempstead Village", "phone": "+15165050179", "opening_hours": "Mo-Th 10:00-20:00; Fr-Sa 10:00-21:00; Su 10:00-20:00"}, "geometry": {"type": "Point", "coordinates": [-73.624424, 40.705498]}},
{"type": "Feature", "id": "epeuji8l4J8GzbE9u3NKsPs2Zno=", "properties": {"ref": "202", "@spider": "rainbow_shops", "addr:full": "1110 Eastern Pkwy", "addr:city": "Brooklyn", "addr:state": "NY", "addr:postcode": "11213", "addr:country": "US", "name": "Eastern Parkway", "phone": "+17187782806", "opening_hours": "Mo-Th 10:00-21:30; Fr-Sa 10:00-22:00; Su 10:00-21:00"}, "geometry": {"type": "Point", "coordinates": [-73.931557, 40.668777]}},
{"type": "Feature", "id": "5Ygi7nH0EXB4iJmFnmRHrbAx7C8=", "properties": {"ref": "1661", "@spider": "rainbow_shops", "addr:full": "1546 Westchester Ave", "addr:city": "Bronx", "addr:state": "NY", "addr:postcode": "10472", "addr:country": "US", "name": "1546 Westchester Avenue", "phone": "+17188426710", "opening_hours": "Mo-Sa 10:00-20:30; Su 11:00-18:00"}, "geometry": {"type": "Point", "coordinates": [-73.877878, 40.828493]}},
{"type": "Feature", "id": "FpwOR4hhRPsREQPCPM1-cIvPZdk=", "properties": {"ref": "1", "@spider": "rainbow_shops", "addr:full": "226 E Fordham Rd", "addr:city": "Bronx", "addr:state": "NY", "addr:postcode": "10458", "addr:country": "US", "name": "East Fordham Road", "phone": "+17183646414", "opening_hours": "Mo-Th 10:00-20:30; Fr-Sa 10:00-21:00; Su 10:00-20:00"}, "geometry": {"type": "Point", "coordinates": [-73.896142, 40.862317]}},
{"type": "Feature", "id": "K1KUNWStJNN7XXx5haRkKgvkOKM=", "properties": {"ref": "4", "@spider": "rainbow_shops", "addr:full": "1013 Flatbush Ave", "addr:city": "Brooklyn", "addr:state": "NY", "addr:postcode": "11226", "addr:country": "US", "name": "Flatbush Ave", "phone": "+17182840893", "opening_hours": "Mo-We 10:00-20:00; Th-Sa 10:00-20:30; Su 10:00-20:00"}, "geometry": {"type": "Point", "coordinates": [-73.957797, 40.6464]}},
{"type": "Feature", "id": "IWSEWnU0iabLtRMls4EMWADpw8w=", "properties": {"ref": "49", "@spider": "rainbow_shops", "addr:full": "610 W 181st Street", "addr:city": "New York", "addr:state": "NY", "addr:postcode": "10033", "addr:country": "US", "name": "610 W 181St Street", "phone": "+12129281969", "opening_hours": "Mo-Th 10:00-20:00; Fr-Sa 10:00-20:30; Su 10:00-20:00"}, "geometry": {"type": "Point", "coordinates": [-73.93447, 40.849483]}},
{"type": "Feature", "id": "jY5FKsK8jHNdnK74rMgecL9nrkU=", "properties": {"ref": "332", "@spider": "rainbow_shops", "addr:full": "1319 Chili Ave", "addr:city": "Rochester", "addr:state": "NY", "addr:postcode": "14624", "addr:country": "US", "name": "Chili Hinchey Plaza", "phone": "+15853288099", "opening_hours": "Mo-Sa 10:00-20:00; Su 11:00-17:00"}, "geometry": {"type": "Point", "coordinates": [-77.671301, 43.138423]}},
{"type": "Feature", "id": "jzeDyJOX0zl5w6TAO0LvIWslvgA=", "properties": {"ref": "7", "@spider": "rainbow_shops", "addr:full": "953 Southern Blvd", "addr:city": "Bronx", "addr:state": "NY", "addr:postcode": "10459", "addr:country": "US", "name": "Southern Blvd", "phone": "+17185894901", "opening_hours": "Mo-We 10:00-20:30; Th-Sa 10:00-21:00; Su 10:00-20:30"}, "geometry": {"type": "Point", "coordinates": [-73.891724, 40.821539]}},
{"type": "Feature", "id": "lq2E_RC6tQVJ5bDxoNMShWAU_gM=", "properties": {"ref": "742", "@spider": "rainbow_shops", "addr:full": "17 E Burnside Ave", "addr:city": "Bronx", "addr:state": "NY", "addr:postcode": "10453", "addr:country": "US", "name": "Burnside Avenue", "phone": "+17185636477", "opening_hours": "Mo-Th 10:00-20:30; Fr-Sa 10:00-21:00; Su 10:00-20:00"}, "geometry": {"type": "Point", "coordinates": [-73.906501, 40.85382]}},
{"type": "Feature", "id": "uej4c--o2iqESND9CfhCcctxMKw=", "properties": {"ref": "350", "@spider": "rainbow_shops", "addr:full": "110 Grant St", "addr:city": "Buffalo", "addr:state": "NY", "addr:postcode": "14213", "addr:country": "US", "name": "Grant Street", "phone": "+17168844861", "opening_hours": "Mo-Th 10:00-17:30; Fr-Sa 10:00-18:00; Su 11:00-17:00"}, "geometry": {"type": "Point", "coordinates": [-78.890923, 42.916948]}},
{"type": "Feature", "id": "o2e7o2_SRgDwXP5rQtoZNIIEqoM=", "properties": {"ref": "52", "@spider": "rainbow_shops", "addr:full": "88-03 Rockaway Beach Blvd", "addr:city": "Rockaway Beach", "addr:state": "NY", "addr:postcode": "11693", "addr:country": "US", "name": "Rockaway Beach", "phone": "+17186345371", "opening_hours": "Mo-Sa 10:00-21:00; Su 10:00-20:00"}, "geometry": {"type": "Point", "coordinates": [-73.81375, 40.587353]}},
{"type": "Feature", "id": "EhsgDG2Oy7axQNNulwBCBjSXBX4=", "properties": {"ref": "751", "@spider": "rainbow_shops", "addr:full": "1420 Metropolitan Ave", "addr:city": "Bronx", "addr:state": "NY", "addr:postcode": "10462", "addr:country": "US", "name": "Parkchester", "phone": "+17183191611", "opening_hours": "Mo-We 10:00-20:30; Th-Sa 10:00-21:00; Su 10:00-20:30"}, "geometry": {"type": "Point", "coordinates": [-73.860973, 40.836063]}},
{"type": "Feature", "id": "Pw7ZyxWV7WywIbHdGp_9fnfIu1E=", "properties": {"ref": "16", "@spider": "rainbow_shops", "addr:full": "1317 Castle Hill Ave", "addr:city": "Bronx", "addr:state": "NY", "addr:postcode": "10462", "addr:country": "US", "name": "Castle Hill Ave", "phone": "+17184094623", "opening_hours": "Mo-We 10:00-21:00; Th-Sa 10:00-21:30; Su 10:00-21:00"}, "geometry": {"type": "Point", "coordinates": [-73.852218, 40.834591]}},
{"type": "Feature", "id": "TGHfbPmKVu-oRkoMQFvf5NgeoJ4=", "properties": {"ref": "307", "@spider": "rainbow_shops", "addr:full": "3610 Germantown Ave", "addr:city": "Philadelphia", "addr:state": "PA", "addr:postcode": "19140", "addr:country": "US", "name": "Germantown 00307", "phone": "+12152251108", "opening_hours": "Mo-Sa 10:00-18:00; Su 11:00-18:00"}, "geometry": {"type": "Point", "coordinates": [-75.150636, 40.00795]}},
{"type": "Feature", "id": "23PrpNV_aDNkHbVEGGkA5mVlnww=", "properties": {"ref": "801", "@spider": "rainbow_shops", "addr:full": "89-18 Sutphin Blvd", "addr:city": "Jamaica", "addr:state": "NY", "addr:postcode": "11435", "addr:country": "US", "name": "Sutphin Blvd", "phone": "+17185265394", "opening_hours": "Mo-Sa 10:00-21:00; Su 10:00-20:00"}, "geometry": {"type": "Point", "coordinates": [-73.808757, 40.703017]}},
{"type": "Feature", "id": "jcFzYpf-K_SECcZffurORPt0r0c=", "properties": {"ref": "353", "@spider": "rainbow_shops", "addr:full": "3115 Bailey Ave", "addr:city": "Buffalo", "addr:state": "NY", "addr:postcode": "14215", "addr:country": "US", "name": "Bailey", "phone": "+17168350726", "opening_hours": "Mo-Th 10:00-17:30; Fr-Sa 10:00-18:00; Su 12:00-17:00"}, "geometry": {"type": "Point", "coordinates": [-78.813268, 42.939621]}},
{"type": "Feature", "id": "UN3rq_P2UuhO9pE4xJZ2S8tYsqc=", "properties": {"ref": "1922", "@spider": "rainbow_shops", "addr:full": "330 W Oregon Ave", "addr:city": "Philadelphia", "addr:state": "PA", "addr:postcode": "19148", "addr:country": "US", "name": "Whitman Plaza", "phone": "+12152711095", "opening_hours": "Mo-Sa 10:00-21:00; Su 11:00-18:00"}, "geometry": {"type": "Point", "coordinates": [-75.15544, 39.913158]}},
{"type": "Feature", "id": "IrDkqEpOWt07I0qx_M2_lcJnDA0=", "properties": {"ref": "1054", "@spider": "rainbow_shops", "addr:full": "1745 S Braddock Ave", "addr:city": "Pittsburgh", "addr:state": "PA", "addr:postcode": "15218", "addr:country": "US", "name": "Edgewood Town Center", "phone": "+14122416037", "opening_hours": "Mo-Sa 10:00-20:00; Su 12:00-17:00"}, "geometry": {"type": "Point", "coordinates": [-80.024817, 40.434436]}},
{"type": "Feature", "id": "BiRD_32lz_onnTh8fsw-sx3-Lr0=", "properties": {"ref": "310", "@spider": "rainbow_shops", "addr:full": "2437 S 24th St", "addr:city": "Philadelphia", "addr:state": "PA", "addr:postcode": "19145", "addr:country": "US", "name": "South Philadelphia Sho", "phone": "+12152710341", "opening_hours": "Mo-Sa 10:00-21:00; Su 11:00-18:00"}, "geometry": {"type": "Point", "coordinates": [-75.186423, 39.921317]}},
{"type": "Feature", "id": "oE2Js6LaER28XLJN3X7VAgRUUHA=", "properties": {"ref": "311", "@spider": "rainbow_shops", "addr:full": "504 Penn St", "addr:city": "Reading", "addr:state": "PA", "addr:postcode": "19602", "addr:country": "US", "name": "Penn Street", "phone": "+16103752131", "opening_hours": "Mo-Sa 10:00-19:00; Su 11:00-17:00"}, "geometry": {"type": "Point", "coordinates": [-75.927463, 40.334699]}},
{"type": "Feature", "id": "VcEYd-35VVTJE8gwQY57ecf6zQg=", "properties": {"ref": "97", "@spider": "rainbow_shops", "addr:full": "224 Fulton Ave", "addr:city": "Hempstead", "addr:state": "NY", "addr:postcode": "11550", "addr:country": "US", "name": "Fulton Avenue", "phone": "+15164838108", "opening_hours": "Mo-Th 10:00-20:00; Fr-Sa 10:00-21:00; Su 10:00-20:00"}, "geometry": {"type": "Point", "coordinates": [-73.627214, 40.707413]}},
{"type": "Feature", "id": "A38Gvf3DgKOVeF_y7mLf6qfk9fc=", "properties": {"ref": "362", "@spider": "rainbow_shops", "addr:full": "395 Main St", "addr:city": "Buffalo", "addr:state": "NY", "addr:postcode": "14203", "addr:country": "US", "name": "Buffalo 00362", "phone": "+17168542578"}, "geometry": {"type": "Point", "coordinates": [-78.874022, 42.885022]}},
{"type": "Feature", "id": "V-DxFsKCJeUqJVjOXD5QPS-NbkQ=", "properties": {"ref": "55", "@spider": "rainbow_shops", "addr:full": "1551 Pitkin Ave", "addr:city": "Brooklyn", "addr:state": "NY", "addr:postcode": "11212", "addr:country": "US", "name": "Pitkin Avenue", "phone": "+17189220685", "opening_hours": "Mo-Th 10:00-21:30; Fr-Sa 10:00-22:00; Su 10:00-21:00"}, "geometry": {"type": "Point", "coordinates": [-73.916121, 40.668873]}},
{"type": "Feature", "id": "WdPbUpB1bS6NmaRm2EFOq7cYa6U=", "properties": {"ref": "822", "@spider": "rainbow_shops", "addr:full": "1512 Flatbush Ave", "addr:city": "Brooklyn", "addr:state": "NY", "addr:postcode": "11210", "addr:country": "US", "name": "Flatbush Avenue", "phone": "+17184214573", "opening_hours": "Mo-We 10:00-20:00; Th-Sa 10:00-20:30; Su 10:00-20:00"}, "geometry": {"type": "Point", "coordinates": [-73.949045, 40.6337]}},
{"type": "Feature", "id": "F0phrB90eegjdUwy8AVYLl_lHo8=", "properties": {"ref": "1121", "@spider": "rainbow_shops", "addr:full": "1455 Franklin Mills Cir", "addr:city": "Philadelphia", "addr:state": "PA", "addr:postcode": "19154", "addr:country": "US", "name": "Philadelphia Mills", "phone": "+12156125828", "opening_hours": "Mo-Fr 11:00-19:00; Sa 10:00-20:00; Su 12:00-18:00"}, "geometry": {"type": "Point", "coordinates": [-75.018265, 40.084017]}},
{"type": "Feature", "id": "NDKBnk7f2tjrYKzw0F769aIq26M=", "properties": {"ref": "1484", "@spider": "rainbow_shops", "addr:full": "1266 Millersville Pike", "addr:city": "Lancaster", "addr:state": "PA", "addr:postcode": "17603", "addr:country": "US", "name": "Manor Shopping Center", "phone": "+17173901915", "opening_hours": "Mo-Sa 10:00-21:00; Su 11:00-18:00"}, "geometry": {"type": "Point", "coordinates": [-76.325324, 40.026141]}},
{"type": "Feature", "id": "Yvua_CrNY5Ag--U1XagxgAY3S2g=", "properties": {"ref": "1667", "@spider": "rainbow_shops", "addr:full": "700 E Hunting Park Ave", "addr:city": "Philadelphia", "addr:state": "PA", "addr:postcode": "19124", "addr:country": "US", "name": "Hunting Park Plaza", "phone": "+12157442340", "opening_hours": "Mo-Sa 10:00-21:00; Su 11:00-18:00"}, "geometry": {"type": "Point", "coordinates": [-75.112602, 40.011927]}},
{"type": "Feature", "id": "cypfOz4rbXSjgZJ4VOYcBNtArPk=", "properties": {"ref": "259", "@spider": "rainbow_shops", "addr:full": "3501 Paxton St", "addr:city": "Harrisburg", "addr:state": "PA", "addr:postcode": "17111", "addr:country": "US", "name": "Harrisburg East Mall", "phone": "+17175645820", "opening_hours": "Mo-Sa 10:00-20:00; Su 12:00-18:00"}, "geometry": {"type": "Point", "coordinates": [-76.831025, 40.252384]}},
{"type": "Feature", "id": "7sWcjH0Jp-Gsq6VkJ9HgcliHVJs=", "properties": {"ref": "301", "@spider": "rainbow_shops", "addr:full": "138 W Chelten Ave", "addr:city": "Philadelphia", "addr:state": "PA", "addr:postcode": "19144", "addr:country": "US", "name": "Chelton Ave", "phone": "+12158445607", "opening_hours": "Mo-We 10:00-18:00; Th-Sa 10:00-19:00; Su 11:00-18:00"}, "geometry": {"type": "Point", "coordinates": [-75.175432, 40.034644]}},
{"type": "Feature", "id": "Dbx5qc6mS7h4IYquP1fL63aafl0=", "properties": {"ref": "1908", "@spider": "rainbow_shops", "addr:full": "3236 PA-940", "addr:city": "Mount Pocono", "addr:state": "PA", "addr:postcode": "18344", "addr:country": "US", "name": "Mt Pocono Plaza", "phone": "+15708392366", "opening_hours": "Mo-Sa 10:00-21:00; Su 11:00-19:00"}, "geometry": {"type": "Point", "coordinates": [-75.372603, 41.121164]}},
{"type": "Feature", "id": "_CsrAIW-zXk1Iey-GaHVtJX27BY=", "properties": {"ref": "19", "@spider": "rainbow_shops", "addr:full": "493 Fulton St", "addr:city": "Brooklyn", "addr:state": "NY", "addr:postcode": "11201", "addr:country": "US", "name": "Fulton Street", "phone": "+17188583772", "opening_hours": "Mo-We 10:00-20:00; Th-Sa 10:00-20:30; Su 10:00-20:00"}, "geometry": {"type": "Point", "coordinates": [-73.985561, 40.690998]}},
{"type": "Feature", "id": "dAVWpSW8_nCBKSS6mdfaSy9d3VI=", "properties": {"ref": "838", "@spider": "rainbow_shops", "addr:full": "773 Broadway", "addr:city": "Brooklyn", "addr:state": "NY", "addr:postcode": "11206", "addr:country": "US", "name": "Brooklyn Ave", "phone": "+17183888185", "opening_hours": "Mo-We 10:00-20:00; Th-Sa 10:00-20:30; Su 10:00-20:00"}, "geometry": {"type": "Point", "coordinates": [-73.940989, 40.700192]}},
{"type": "Feature", "id": "xBWsWZs3x2y6aYlat6iXN1iUAA4=", "properties": {"ref": "373", "@spider": "rainbow_shops", "addr:full": "1551 Niagara Falls Blvd", "addr:city": "Amherst", "addr:state": "NY", "addr:postcode": "14228", "addr:country": "US", "name": "Burlington/Joann Plaza", "phone": "+17168342970", "opening_hours": "Mo-Sa 10:00-21:00; Su 11:00-17:00"}, "geometry": {"type": "Point", "coordinates": [-78.820157, 42.996302]}},
{"type": "Feature", "id": "Cqwx0znFQX7fk6blfMPRVDr6qKw=", "properties": {"ref": "106", "@spider": "rainbow_shops", "addr:full": "726 Flatbush Ave", "addr:city": "Brooklyn", "addr:state": "NY", "addr:postcode": "11226", "addr:country": "US", "name": "726 Flatbush Ave", "phone": "+17184690986", "opening_hours": "Mo-We 10:00-20:00; Th-Sa 10:00-20:30; Su 10:00-20:00"}, "geometry": {"type": "Point", "coordinates": [-73.959806, 40.655338]}},
{"type": "Feature", "id": "fXs0m07kIrtAhqZp3JwTp-E0_7I=", "properties": {"ref": "897", "@spider": "rainbow_shops", "addr:full": "1338 Lyell Ave", "addr:city": "Rochester", "addr:state": "NY", "addr:postcode": "14606", "addr:country": "US", "name": "Lyell Shopping Center", "phone": "+15854581463", "opening_hours": "Mo-Sa 10:00-20:00; Su 11:00-17:00"}, "geometry": {"type": "Point", "coordinates": [-77.660584, 43.165279]}},
{"type": "Feature", "id": "GosU5A27Swyle5ZikcyFHVQOIn0=", "properties": {"ref": "24", "@spider": "rainbow_shops", "addr:full": "556 W 207 St", "addr:city": "New York", "addr:state": "NY", "addr:postcode": "10034", "addr:country": "US", "name": "556 W 207th St", "phone": "+12123045051", "opening_hours": "Mo-Th 10:00-20:00; Fr-Sa 10:00-20:30; Su 10:00-20:00"}, "geometry": {"type": "Point", "coordinates": [-73.926959, 40.863194]}},
{"type": "Feature", "id": "1S04KI6wxwTlEMgNZZf86hckaug=", "properties": {"ref": "115", "@spider": "rainbow_shops", "addr:full": "93 Wicks Rd", "addr:city": "Brentwood", "addr:state": "NY", "addr:postcode": "11717", "addr:country": "US", "name": "Marketplace at Brentwood", "phone": "+16312730127", "opening_hours": "Mo-We 10:00-20:00; Th 10:00-21:00; Fr-Sa 10:00-21:30; Su 10:00-19:00"}, "geometry": {"type": "Point", "coordinates": [-73.259706, 40.78055]}},
{"type": "Feature", "id": "-6rAaxnWSv3l8YkjzmCAcn5HJyk=", "properties": {"ref": "1018", "@spider": "rainbow_shops", "addr:full": "35 S Willowdale Dr", "addr:city": "Lancaster", "addr:state": "PA", "addr:postcode": "17602", "addr:country": "US", "name": "Rockvale Outlets", "phone": "+17172070154", "opening_hours": "Mo-Sa 11:00-19:00; Su 11:00-18:00"}, "geometry": {"type": "Point", "coordinates": [-76.249829, 40.004048]}},
{"type": "Feature", "id": "Yr0Fhzd7c5y8nYJuXTBZsSVhRUM=", "properties": {"ref": "1076", "@spider": "rainbow_shops", "addr:full": "1000 Easton Rd", "addr:city": "Wyncote", "addr:state": "PA", "addr:postcode": "19095", "addr:country": "US", "name": "Cedarbrook Plaza", "phone": "+12158841137", "opening_hours": "Mo-Sa 10:00-20:00; Su 11:00-18:00"}, "geometry": {"type": "Point", "coordinates": [-75.151569, 40.08561]}},
{"type": "Feature", "id": "O3F7R-utu9FZzDMKvJvQqY30m3Q=", "properties": {"ref": "319", "@spider": "rainbow_shops", "addr:full": "2007 Wharton Square", "addr:city": "Pittsburgh", "addr:state": "PA", "addr:postcode": "15203", "addr:country": "US", "name": "Wharton Square", "phone": "+14124815926", "opening_hours": "Mo-Sa 10:00-20:00; Su 11:00-18:00"}, "geometry": {"type": "Point", "coordinates": [-79.977376, 40.43153]}},
{"type": "Feature", "id": "o87PyFFAFCxcVcWFPZTOlq4lvm0=", "properties": {"ref": "336", "@spider": "rainbow_shops", "addr:full": "5675 N Front St", "addr:city": "Philadelphia", "addr:state": "PA", "addr:postcode": "19120", "addr:country": "US", "name": "One and Olney", "phone": "+12152248216", "opening_hours": "Mo-Sa 10:00-20:00; Su 11:00-18:00"}, "geometry": {"type": "Point", "coordinates": [-75.117234, 40.038181]}},
{"type": "Feature", "id": "qtBnkkY5cI8ykutS8H161ri-Pjw=", "properties": {"ref": "574", "@spider": "rainbow_shops", "addr:full": "6422 Sackett St", "addr:city": "Philadelphia", "addr:state": "PA", "addr:postcode": "19149", "addr:country": "US", "name": "Mayfair Shopping Center", "phone": "+12153320242", "opening_hours": "Mo-Sa 10:00-21:00; Su 11:00-18:00"}, "geometry": {"type": "Point", "coordinates": [-75.057164, 40.029083]}},
{"type": "Feature", "id": "zFF0ETI0naaLxThjzuGyP_hMcMg=", "properties": {"ref": "1005", "@spider": "rainbow_shops", "addr:full": "179 Shop City Plaza", "addr:city": "Syracuse", "addr:state": "NY", "addr:postcode": "13206", "addr:country": "US", "name": "Shop City Plaza", "phone": "+13154377478", "opening_hours": "Mo-Sa 10:00-20:00; Su 12:00-17:00"}, "geometry": {"type": "Point", "coordinates": [-76.119477, 43.073968]}},
{"type": "Feature", "id": "22muulyG7FVE8eYizIL5vixjpCM=", "properties": {"ref": "61", "@spider": "rainbow_shops", "addr:full": "3310 Fulton St", "addr:city": "Brooklyn", "addr:state": "NY", "addr:postcode": "11208", "addr:country": "US", "name": "Fulton Street 61", "phone": "+17183485240", "opening_hours": "Mo-Th 10:00-21:30; Fr-Sa 10:00-22:00; Su 10:00-21:00"}, "geometry": {"type": "Point", "coordinates": [-73.87313, 40.683372]}},
{"type": "Feature", "id": "SIFqJ4w8B5U85wZtr4iUNmlMc1g=", "properties": {"ref": "380", "@spider": "rainbow_shops", "addr:full": "1154 Mohawk St", "addr:city": "Utica", "addr:state": "NY", "addr:postcode": "13501", "addr:country": "US", "name": "Hannaford Plaza", "phone": "+13157243796", "opening_hours": "Mo-Th 10:00-19:00; Fr-Sa 10:00-20:00; Su 11:00-17:00"}, "geometry": {"type": "Point", "coordinates": [-75.224535, 43.090327]}},
{"type": "Feature", "id": "LCKw7hfzir9cx8-YRPAB0ua3908=", "properties": {"ref": "1786", "@spider": "rainbow_shops", "addr:full": "2329 Cottman Ave", "addr:city": "Philadelphia", "addr:state": "PA", "addr:postcode": "19149", "addr:country": "US", "name": "Roosevelt Mall", "phone": "+12153351619", "opening_hours": "Mo-Sa 10:00-20:00; Su 11:00-18:00"}, "geometry": {"type": "Point", "coordinates": [-75.056033, 40.047979]}},
{"type": "Feature", "id": "G_C0iPuYry0QziVi_H1L-HFaigA=", "properties": {"ref": "830", "@spider": "rainbow_shops", "addr:full": "5223 Frankford Ave", "addr:city": "Philadelphia", "addr:state": "PA", "addr:postcode": "19124", "addr:country": "US", "name": "Frankford Avenue", "phone": "+12155331759", "opening_hours": "Mo-Sa 10:00-19:00; Su 11:00-18:00"}, "geometry": {"type": "Point", "coordinates": [-75.077321, 40.022468]}},
{"type": "Feature", "id": "3K6Ls5azyUp4KBP79CKyaclwVBE=", "properties": {"ref": "831", "@spider": "rainbow_shops", "addr:full": "32 S 69th St", "addr:city": "Upper Darby", "addr:state": "PA", "addr:postcode": "19082", "addr:country": "US", "name": "South 69th Street", "phone": "+16107340748", "opening_hours": "Mo-Sa 10:00-21:00; Su 11:00-18:00"}, "geometry": {"type": "Point", "coordinates": [-75.259062, 39.960844]}},
{"type": "Feature", "id": "cxx1TmhvzPtX2sxi2mrXWFiK9lc=", "properties": {"ref": "1794", "@spider": "rainbow_shops", "addr:full": "2920 Roberts Ave", "addr:city": "Philadelphia", "addr:state": "PA", "addr:postcode": "19129", "addr:country": "US", "name": "Bakers Centre", "phone": "+12152231480", "opening_hours": "Mo-Sa 10:00-19:00; Su 11:00-18:00"}, "geometry": {"type": "Point", "coordinates": [-75.176731, 40.010862]}},
{"type": "Feature", "id": "FfxOYGdH7EWpmCrea-uTOH2hslY=", "properties": {"ref": "1896", "@spider": "rainbow_shops", "addr:full": "1556 Chester Pike", "addr:city": "Eddystone", "addr:state": "PA", "addr:postcode": "19022", "addr:country": "US", "name": "Eddystone Crossing", "phone": "+16108741785", "opening_hours": "Mo-Sa 10:00-21:00; Su 11:00-18:00"}, "geometry": {"type": "Point", "coordinates": [-75.342116, 39.866193]}},
{"type": "Feature", "id": "M9jndwZNyRd7lcFW6Xo009yOUEM=", "properties": {"ref": "1085", "@spider": "rainbow_shops", "addr:full": "3770 Dewey Ave", "addr:city": "Greece", "addr:state": "NY", "addr:postcode": "14616", "addr:country": "US", "name": "Northgate Plaza", "phone": "+15856639392", "opening_hours": "Mo-Sa 10:00-20:00; Su 11:00-17:00"}, "geometry": {"type": "Point", "coordinates": [-77.680927, 43.228955]}},
{"type": "Feature", "id": "lY3EtyYVkXI-mN1kG59wrMCFG_g=", "properties": {"ref": "131", "@spider": "rainbow_shops", "addr:full": "3493 Jerome Ave", "addr:city": "Bronx", "addr:state": "NY", "addr:postcode": "10467", "addr:country": "US", "name": "3493 Jerome Avenue", "phone": "+17189441424", "opening_hours": "Mo-Sa 10:00-20:30; Su 11:00-18:00"}, "geometry": {"type": "Point", "coordinates": [-73.88227, 40.88223]}},
{"type": "Feature", "id": "NR4vTczgEBpCipu3F3Xcu-Hj1Os=", "properties": {"ref": "31", "@spider": "rainbow_shops", "addr:full": "159-11 Jamaica Ave", "addr:city": "Jamaica", "addr:state": "NY", "addr:postcode": "11432", "addr:country": "US", "name": "Jamaica", "phone": "+17185230016", "opening_hours": "Mo-Sa 10:00-21:00; Su 10:00-20:00"}, "geometry": {"type": "Point", "coordinates": [-73.799639, 40.703547]}},
{"type": "Feature", "id": "9FOfHgA19TcgVq_0-mNgK5Snggo=", "properties": {"ref": "66", "@spider": "rainbow_shops", "addr:full": "660 N Wellwood Ave", "addr:city": "Lindenhurst", "addr:state": "NY", "addr:postcode": "11757", "addr:country": "US", "name": "Lindenhurst", "phone": "+16312251805", "opening_hours": "Mo-We 10:00-20:00; Th-Sa 10:00-21:00; Su 10:00-19:00"}, "geometry": {"type": "Point", "coordinates": [-73.38558, 40.702739]}},
{"type": "Feature", "id": "-k07M8i3dF0rCrdyAeSR5h4hDaM=", "properties": {"ref": "278", "@spider": "rainbow_shops", "addr:full": "2301 N 29th St", "addr:city": "Philadelphia", "addr:state": "PA", "addr:postcode": "19132", "addr:country": "US", "name": "Strawberry Square", "phone": "+12152278002", "opening_hours": "Mo-Sa 10:00-19:00; Su 11:00-18:00"}, "geometry": {"type": "Point", "coordinates": [-75.178426, 39.991564]}},
{"type": "Feature", "id": "kNjHaADxz6ovDnl460noVI6lpPI=", "properties": {"ref": "847", "@spider": "rainbow_shops", "addr:full": "726 Hamilton St", "addr:city": "Allentown", "addr:state": "PA", "addr:postcode": "18101", "addr:country": "US", "name": "Hamilton Street", "phone": "+16108209661", "opening_hours": "Mo-Sa 10:00-20:00; Su 11:00-19:00"}, "geometry": {"type": "Point", "coordinates": [-75.470026, 40.607497]}},
{"type": "Feature", "id": "F8yFQiNqL6u59BC51PjWDLylueU=", "properties": {"ref": "401", "@spider": "rainbow_shops", "addr:full": "850 Lake Ave", "addr:city": "Rochester", "addr:state": "NY", "addr:postcode": "14613", "addr:country": "US", "name": "Maplewood Plaza", "phone": "+15854589299", "opening_hours": "Mo-Sa 10:00-18:00; Su 11:00-17:00"}, "geometry": {"type": "Point", "coordinates": [-77.631414, 43.180702]}},
{"type": "Feature", "id": "bBPxfyieAPUD28HBicoRGNpaycs=", "properties": {"ref": "1180", "@spider": "rainbow_shops", "addr:full": "288 Greece Ridge Center Dr", "addr:city": "Rochester", "addr:state": "NY", "addr:postcode": "14626", "addr:country": "US", "name": "Greece Ridge center 1180", "phone": "+15852252080", "opening_hours": "Mo-Th 11:00-19:00; Fr 11:00-20:00; Sa 10:00-20:00; Su 11:00-18:00"}, "geometry": {"type": "Point", "coordinates": [-77.695915, 43.204775]}},
{"type": "Feature", "id": "C5110W05jk0Zib6XVVcdobO55SA=", "properties": {"ref": "407", "@spider": "rainbow_shops", "addr:full": "4194 Union Rd", "addr:city": "Cheektowaga", "addr:state": "NY", "addr:postcode": "14225", "addr:country": "US", "name": "Airport Plaza", "phone": "+17166333237", "opening_hours": "Mo-Sa 10:00-21:00; Su 11:00-17:00"}, "geometry": {"type": "Point", "coordinates": [-78.754124, 42.928393]}},
{"type": "Feature", "id": "KvxLgQBFmlMlwswN7sKxDUQzJjk=", "properties": {"ref": "1904", "@spider": "rainbow_shops", "addr:full": "4313 Walnut St", "addr:city": "McKeesport", "addr:state": "PA", "addr:postcode": "15132", "addr:country": "US", "name": "Olympia Shopping Center", "phone": "+14127510702", "opening_hours": "Mo-Sa 10:00-20:00; Su 12:00-17:00"}, "geometry": {"type": "Point", "coordinates": [-79.833971, 40.322136]}},
{"type": "Feature", "id": "EwCOCQQcj0FH8CXTOc58fx-QPss=", "properties": {"ref": "865", "@spider": "rainbow_shops", "addr:full": "330 Fifth Ave", "addr:city": "Pittsburgh", "addr:state": "PA", "addr:postcode": "15222", "addr:country": "US", "name": "Warner Center", "phone": "+14122811840"}, "geometry": {"type": "Point", "coordinates": [-79.999388, 40.440362]}},
{"type": "Feature", "id": "kmD8xpSioAdxLN1mphOw_XpnppE=", "properties": {"ref": "871", "@spider": "rainbow_shops", "addr:full": "148 Chartiers Ave", "addr:city": "McKees Rocks", "addr:state": "PA", "addr:postcode": "15136", "addr:country": "US", "name": "The Shops At Chartier", "phone": "+14123315869", "opening_hours": "Mo-Sa 11:00-19:00; Su 12:00-17:00"}, "geometry": {"type": "Point", "coordinates": [-80.057221, 40.465203]}},
{"type": "Feature", "id": "sk4CvQCpx0xIZOdfbaKl8t_qeb0=", "properties": {"ref": "302", "@spider": "rainbow_shops", "addr:full": "2342 N Front St", "addr:city": "Philadelphia", "addr:state": "PA", "addr:postcode": "19133", "addr:country": "US", "name": "Front Street", "phone": "+12157397490", "opening_hours": "Mo-Sa 10:00-18:00; Su 11:00-18:00"}, "geometry": {"type": "Point", "coordinates": [-75.132296, 39.985924]}},
{"type": "Feature", "id": "bASWsN47URhJ91iR6I9GuM3GAvY=", "properties": {"ref": "1909", "@spider": "rainbow_shops", "addr:full": "3400 E Aramingo Ave", "addr:city": "Philadelphia", "addr:state": "PA", "addr:postcode": "19134", "addr:country": "US", "name": "Imperial Plaza", "phone": "+12154252566", "opening_hours": "Mo-Th 09:30-21:00; Fr-Sa 09:00-21:00; Su 11:00-18:00"}, "geometry": {"type": "Point", "coordinates": [-75.101164, 39.992558]}},
{"type": "Feature", "id": "qo1LdHI9qvXoZ55UKc09DMf2jz0=", "properties": {"ref": "816", "@spider": "rainbow_shops", "addr:full": "609 Avenue of the States", "addr:city": "Chester", "addr:state": "PA", "addr:postcode": "19013", "addr:country": "US", "name": "Avenue Of The States", "phone": "+16108762352"}, "geometry": {"type": "Point", "coordinates": [-75.360707, 39.849961]}},
{"type": "Feature", "id": "8Ty7DA5y60ntH1rF5N6nFlWhWR0=", "properties": {"ref": "886", "@spider": "rainbow_shops", "addr:full": "114 Mall Circle Dr", "addr:city": "Monroeville", "addr:state": "PA", "addr:postcode": "15146", "addr:country": "US", "name": "Monroeville Malle", "phone": "+14123732507", "opening_hours": "Mo-Sa 10:00-20:00; Su 12:00-18:00"}, "geometry": {"type": "Point", "coordinates": [-79.796078, 40.429674]}},
{"type": "Feature", "id": "dh5PBwVfcRBOeitLlHo9RkXIqLk=", "properties": {"ref": "34", "@spider": "rainbow_shops", "addr:full": "165-32 Baisley Blvd", "addr:city": "Jamaica", "addr:state": "NY", "addr:postcode": "11434", "addr:country": "US", "name": "Jamaica 34", "phone": "+17185286169", "opening_hours": "Mo-Su 10:00-21:00"}, "geometry": {"type": "Point", "coordinates": [-73.777957, 40.680005]}},
{"type": "Feature", "id": "uuon3Orol2gE8zdh_iALkPbGV9I=", "properties": {"ref": "75", "@spider": "rainbow_shops", "addr:full": "165-25 Jamaica Ave", "addr:city": "Jamaica", "addr:state": "NY", "addr:postcode": "11432", "addr:country": "US", "name": "Jamaica Avenue", "phone": "+17182061221", "opening_hours": "Mo-Sa 10:00-21:00; Su 10:00-20:00"}, "geometry": {"type": "Point", "coordinates": [-73.79432, 40.705934]}},
{"type": "Feature", "id": "BobjCDf62K4MlR_o9_9GiVb4kHw=", "properties": {"ref": "1657", "@spider": "rainbow_shops", "addr:full": "911 Central Ave", "addr:city": "Albany", "addr:state": "NY", "addr:postcode": "12206", "addr:country": "US", "name": "Westgate Shopping Center", "phone": "+15184350839", "opening_hours": "Mo-Th 10:00-20:00; Fr-Sa 10:00-21:00; Su 11:00-18:00"}, "geometry": {"type": "Point", "coordinates": [-73.790469, 42.682115]}},
{"type": "Feature", "id": "NH9FIVanE-hgFoQzBFjuGtZs3S0=", "properties": {"ref": "309", "@spider": "rainbow_shops", "addr:full": "6100 Woodland Ave", "addr:city": "Philadelphia", "addr:state": "PA", "addr:postcode": "19142", "addr:country": "US", "name": "Woodland", "phone": "+12157298331", "opening_hours": "Mo-Sa 10:00-19:00; Su 11:00-17:00"}, "geometry": {"type": "Point", "coordinates": [-75.228389, 39.928532]}},
{"type": "Feature", "id": "aSchTFlCz0P1zPv37yyPPyATN8o=", "properties": {"ref": "1135", "@spider": "rainbow_shops", "addr:full": "2645 Germantown Ave", "addr:city": "Philadelphia", "addr:state": "PA", "addr:postcode": "19133", "addr:country": "US", "name": "Germantown Ave", "phone": "+12152231081", "opening_hours": "Mo-Sa 10:00-18:00; Su 11:00-18:00"}, "geometry": {"type": "Point", "coordinates": [-75.147455, 39.992635]}},
{"type": "Feature", "id": "OlZUnerUEpjqBBP9I_IEpFJU8CE=", "properties": {"ref": "348", "@spider": "rainbow_shops", "addr:full": "708 Penn Ave", "addr:city": "Wilkinsburg", "addr:state": "PA", "addr:postcode": "15221", "addr:country": "US", "name": "Wilkinsburg", "phone": "+14122425575"}, "geometry": {"type": "Point", "coordinates": [-79.884333, 40.443436]}},
{"type": "Feature", "id": "_whZk1_MCKoncCqKgH5PwXBlbIg=", "properties": {"ref": "1137", "@spider": "rainbow_shops", "addr:full": "2300 E Lincoln Hwy", "addr:city": "Langhorne", "addr:state": "PA", "addr:postcode": "19047", "addr:country": "US", "name": "Oxford Valley Mall", "phone": "+12157411014", "opening_hours": "Mo-Th 11:00-19:00; Fr-Sa 10:00-20:00; Su 12:00-18:00"}, "geometry": {"type": "Point", "coordinates": [-75.065486, 40.289021]}},
{"type": "Feature", "id": "QRmF7KRS1DJCUTr-F7siFHDiC6o=", "properties": {"ref": "363", "@spider": "rainbow_shops", "addr:full": "6 W Market St", "addr:city": "York", "addr:state": "PA", "addr:postcode": "17401", "addr:country": "US", "name": "York", "phone": "+17176991168"}, "geometry": {"type": "Point", "coordinates": [-76.728116, 39.961946]}},
{"type": "Feature", "id": "auM7iJVn1MMKnimnjGFV7uEcGUs=", "properties": {"ref": "1465", "@spider": "rainbow_shops", "addr:full": "126 Palmer Park Mall", "addr:city": "Easton", "addr:state": "PA", "addr:postcode": "18045", "addr:country": "US", "name": "Palmer Park Mall", "phone": "+16103302610", "opening_hours": "Mo-Sa 11:00-20:00; Su 11:00-18:00"}, "geometry": {"type": "Point", "coordinates": [-75.286528, 40.695731]}},
{"type": "Feature", "id": "Do4MdaliEm0NLUxy8frtEgfIV8w=", "properties": {"ref": "79", "@spider": "rainbow_shops", "addr:full": "1199 Liberty Ave", "addr:city": "Brooklyn", "addr:state": "NY", "addr:postcode": "11208", "addr:country": "US", "name": "Liberty Avenue", "phone": "+17186471408", "opening_hours": "Mo-Th 10:00-21:30; Fr-Sa 10:00-22:00; Su 10:00-21:00"}, "geometry": {"type": "Point", "coordinates": [-73.865094, 40.679143]}},
{"type": "Feature", "id": "MPOkNp3-huDgOSCbuN71NHhX8j0=", "properties": {"ref": "1658", "@spider": "rainbow_shops", "addr:full": "140 Thruway Plaza Dr", "addr:city": "Cheektowaga", "addr:state": "NY", "addr:postcode": "14225", "addr:country": "US", "name": "Thruway Plaza", "phone": "+17168924874", "opening_hours": "Mo-Sa 10:00-21:00; Su 11:00-17:00"}, "geometry": {"type": "Point", "coordinates": [-78.778724, 42.90434]}},
{"type": "Feature", "id": "p9b34lSTtG2riHFP7vGZwbtZzQk=", "properties": {"ref": "43", "@spider": "rainbow_shops", "addr:full": "3981 White Plains Rd", "addr:city": "Bronx", "addr:state": "NY", "addr:postcode": "10466", "addr:country": "US", "name": "White Plains Road", "phone": "+17182316081", "opening_hours": "Mo-Sa 10:00-20:30; Su 11:00-18:00"}, "geometry": {"type": "Point", "coordinates": [-73.841003, 40.859878]}},
{"type": "Feature", "id": "J9Yw6Tysm7Du2rXB7j3IA9SbxwE=", "properties": {"ref": "436", "@spider": "rainbow_shops", "addr:full": "93 West Campbell Road", "addr:city": "Schenectady", "addr:state": "NY", "addr:postcode": "12306", "addr:country": "US", "name": "Rotterdam Square Mall", "phone": "+15183464314", "opening_hours": "Mo-Sa 11:00-19:00; Su 11:00-18:00"}, "geometry": {"type": "Point", "coordinates": [-73.988232, 42.810153]}},
{"type": "Feature", "id": "9scFDeK49Gk8c12WzXHlLGoanEw=", "properties": {"ref": "80", "@spider": "rainbow_shops", "addr:full": "1541 Forest Ave", "addr:city": "Staten Island", "addr:state": "NY", "addr:postcode": "10302", "addr:country": "US", "name": "Forest Ave.", "phone": "+17187208137", "opening_hours": "Mo-Sa 09:30-21:30; Su 09:00-20:00"}, "geometry": {"type": "Point", "coordinates": [-74.138755, 40.625907]}},
{"type": "Feature", "id": "xXm_ZSuyRURunX69ErZNcpJOXKQ=", "properties": {"ref": "378", "@spider": "rainbow_shops", "addr:full": "2941 N 7th St", "addr:city": "Harrisburg", "addr:state": "PA", "addr:postcode": "17110", "addr:country": "US", "name": "Uptown Plaza", "phone": "+17172383121", "opening_hours": "Mo-Sa 11:00-19:00; Su 11:00-18:00"}, "geometry": {"type": "Point", "coordinates": [-76.891466, 40.292565]}},
{"type": "Feature", "id": "vIAVk9ZknaptjhvW8tiXqsVTxkw=", "properties": {"ref": "1486", "@spider": "rainbow_shops", "addr:full": "1575 North 52nd St", "addr:city": "Philadelphia", "addr:state": "PA", "addr:postcode": "19131", "addr:country": "US", "name": "Park West Town Center", "phone": "+12154732590", "opening_hours": "Mo-Sa 10:00-19:00; Su 11:00-18:00"}, "geometry": {"type": "Point", "coordinates": [-75.223838, 39.978014]}},
{"type": "Feature", "id": "79G-HAGBnFX_t18DvfjVoczdKss=", "properties": {"ref": "823", "@spider": "rainbow_shops", "addr:full": "4090 Lancaster Ave", "addr:city": "Philadelphia", "addr:state": "PA", "addr:postcode": "19104", "addr:country": "US", "name": "Lancaster Ave", "phone": "+12152229600", "opening_hours": "Mo-Sa 10:00-18:00; Su 11:00-17:00"}, "geometry": {"type": "Point", "coordinates": [-75.205356, 39.964574]}},
{"type": "Feature", "id": "gH6vwURxmaJBNBpHJU7kd2b1Ips=", "properties": {"ref": "827", "@spider": "rainbow_shops", "addr:full": "5200 Market St", "addr:city": "Philadelphia", "addr:state": "PA", "addr:postcode": "19139", "addr:country": "US", "name": "Market Street", "phone": "+12154761070", "opening_hours": "Mo-Sa 10:00-19:00; Su 11:00-18:00"}, "geometry": {"type": "Point", "coordinates": [-75.225328, 39.959803]}},
{"type": "Feature", "id": "4dtgUggsiIqAiw48Pdccc_ZPaj8=", "properties": {"ref": "44", "@spider": "rainbow_shops", "addr:full": "1220 Fulton St", "addr:city": "Brooklyn", "addr:state": "NY", "addr:postcode": "11216", "addr:country": "US", "name": "Fulton Street 44", "phone": "+17186229100", "opening_hours": "Mo-Th 10:00-21:30; Fr-Sa 10:00-22:00; Su 10:00-21:00"}, "geometry": {"type": "Point", "coordinates": [-73.951934, 40.680271]}},
{"type": "Feature", "id": "rseAPiJ3MN3sFiTzDWRGlEQdxz0=", "properties": {"ref": "516", "@spider": "rainbow_shops", "addr:full": "3701 McKinley Pkwy", "addr:city": "Blasdell", "addr:state": "NY", "addr:postcode": "14219", "addr:country": "US", "name": "McKinley Mall", "phone": "+17168279748", "opening_hours": "Mo-Sa 10:00-19:00; Su 12:00-17:00"}, "geometry": {"type": "Point", "coordinates": [-78.80687, 42.784413]}},
{"type": "Feature", "id": "uByHndNTWu0xgQRUWCkEpgL89jc=", "properties": {"ref": "1796", "@spider": "rainbow_shops", "addr:full": "37 Main St", "addr:city": "Flushing", "addr:state": "NY", "addr:postcode": "11354", "addr:country": "US", "name": "Flushing", "phone": "+17187622010", "opening_hours": "Mo-Sa 10:00-21:00; Su 10:00-20:00"}, "geometry": {"type": "Point", "coordinates": [-73.830844, 40.761346]}},
{"type": "Feature", "id": "4k38tTpwPP0rmmiNkqNg5DzjW6A=", "properties": {"ref": "10", "@spider": "rainbow_shops", "addr:full": "90-15 Queens Blvd", "addr:city": "Elmhurst", "addr:state": "NY", "addr:postcode": "11373", "addr:country": "US", "name": "Queens Center", "phone": "+13477749223", "opening_hours": "Mo-Th 11:00-19:00; Fr-Sa 11:00-20:00; Su 11:00-19:00"}, "geometry": {"type": "Point", "coordinates": [-73.869959, 40.734436]}},
{"type": "Feature", "id": "LuSexoFVOV-Aagw8T_TdmxqLhxI=", "properties": {"ref": "1151", "@spider": "rainbow_shops", "addr:full": "8000 Cooper Ave", "addr:city": "Glendale", "addr:state": "NY", "addr:postcode": "11385", "addr:country": "US", "name": "Atlas Park", "phone": "+13324562932", "opening_hours": "Mo-Th 10:00-21:30; Fr-Sa 10:00-22:00; Su 10:00-21:00"}, "geometry": {"type": "Point", "coordinates": [-73.868415, 40.709086]}},
{"type": "Feature", "id": "hU3K3r1HVWL5HZW5LLONYOuVJEo=", "properties": {"ref": "30", "@spider": "rainbow_shops", "addr:full": "571 E 138th St", "addr:city": "Bronx", "addr:state": "NY", "addr:postcode": "10454", "addr:country": "US", "name": "571-581 E. 138Th", "phone": "+19295616593", "opening_hours": "Mo-Su 10:00-20:00"}, "geometry": {"type": "Point", "coordinates": [-73.916922, 40.806832]}},
{"type": "Feature", "id": "8T1PD86W-oljXiqu8-WPbtCMVa4=", "properties": {"ref": "2", "@spider": "rainbow_shops", "addr:full": "1524 Kings Hwy", "addr:city": "Brooklyn", "addr:state": "NY", "addr:postcode": "11229", "addr:country": "US", "name": "Brooklyn - Kings Highway", "phone": "+17183393301", "opening_hours": "Mo-Th 10:00-20:00; Fr-Sa 10:00-20:30; Su 10:00-20:00"}, "geometry": {"type": "Point", "coordinates": [-73.95768, 40.608996]}},
{"type": "Feature", "id": "OwQSYAx-c2_tpncsBYHAafgz4tE=", "properties": {"ref": "1725", "@spider": "rainbow_shops", "addr:full": "707 Neshaminy Mall", "addr:city": "Bensalem", "addr:state": "PA", "addr:postcode": "19020", "addr:country": "US", "name": "Neshaminy Mall", "phone": "+12153554223", "opening_hours": "Mo-Th 11:00-19:00; Fr-Sa 11:00-20:00; Su 11:00-18:00"}, "geometry": {"type": "Point", "coordinates": [-74.994262, 40.125609]}},
{"type": "Feature", "id": "pkgyPoJaqBjnMK2Tr8LY38E7xMY=", "properties": {"ref": "5", "@spider": "rainbow_shops", "addr:full": "3738 Junction Blvd", "addr:city": "Corona", "addr:state": "NY", "addr:postcode": "11368", "addr:country": "US", "name": "Junction Blvd", "phone": "+17185652082", "opening_hours": "Mo-Th 10:00-20:00; Fr-Sa 10:00-20:30; Su 10:00-20:00"}, "geometry": {"type": "Point", "coordinates": [-73.870121, 40.750365]}},
{"type": "Feature", "id": "KiZTNHSOEppE1i12XFXwQYw5WP8=", "properties": {"ref": "688", "@spider": "rainbow_shops", "addr:full": "365 Rockaway Turnpike", "addr:city": "Lawrence", "addr:state": "NY", "addr:postcode": "11559", "addr:country": "US", "name": "Bay Harbour Mall", "phone": "+15162392347", "opening_hours": "Mo-We 10:00-20:00; Th-Sa 10:00-21:00; Su 10:00-19:00"}, "geometry": {"type": "Point", "coordinates": [-73.737328, 40.627852]}},
{"type": "Feature", "id": "f_WuYl-Ft7Xc729mZqx6rsCc-8A=", "properties": {"ref": "85", "@spider": "rainbow_shops", "addr:full": "5115 5th Ave", "addr:city": "Brooklyn", "addr:state": "NY", "addr:postcode": "11220", "addr:country": "US", "name": "5115- 17 Fifth Avenue", "phone": "+17184376097", "opening_hours": "Mo-We 10:00-20:00; Th-Sa 10:00-20:30; Su 10:00-20:00"}, "geometry": {"type": "Point", "coordinates": [-74.011152, 40.643949]}},
{"type": "Feature", "id": "Pe0pMqBLY1QMkfhqOOQt_W7yzd8=", "properties": {"ref": "828", "@spider": "rainbow_shops", "addr:full": "2009 S Broad St", "addr:city": "Philadelphia", "addr:state": "PA", "addr:postcode": "19148", "addr:country": "US", "name": "South Broad Street", "phone": "+12152712611", "opening_hours": "Mo-Sa 10:00-19:00; Su 11:00-18:00"}, "geometry": {"type": "Point", "coordinates": [-75.169038, 39.925222]}},
{"type": "Feature", "id": "06jHInsBPoDAqS5RGlvlFeTZi6E=", "properties": {"ref": "1799", "@spider": "rainbow_shops", "addr:full": "2180 MacArthur Rd", "addr:city": "Whitehall", "addr:state": "PA", "addr:postcode": "18052", "addr:country": "US", "name": "Whitehall Square Mall", "phone": "+16104332520", "opening_hours": "Mo-Sa 10:00-21:00; Su 11:00-19:00"}, "geometry": {"type": "Point", "coordinates": [-75.490822, 40.6368]}},
{"type": "Feature", "id": "C5uH-dza4oJzunia7q-Rg1yTmRA=", "properties": {"ref": "832", "@spider": "rainbow_shops", "addr:full": "39 N Queen St", "addr:city": "Lancaster", "addr:state": "PA", "addr:postcode": "17603", "addr:country": "US", "name": "Noth Queen Street", "phone": "+17173930137", "opening_hours": "Mo-Sa 10:00-19:00; Su 11:00-18:00"}, "geometry": {"type": "Point", "coordinates": [-76.305417, 40.039016]}},
{"type": "Feature", "id": "tIEiIh6jhQhhhZZAcCukGD0u9CY=", "properties": {"ref": "876", "@spider": "rainbow_shops", "addr:full": "6309 Woodland Ave", "addr:city": "Philadelphia", "addr:state": "PA", "addr:postcode": "19142", "addr:country": "US", "name": "Woodland Ave", "phone": "+12157279270", "opening_hours": "Mo-Sa 10:00-18:00; Su 11:00-18:00"}, "geometry": {"type": "Point", "coordinates": [-75.232286, 39.927345]}},
{"type": "Feature", "id": "KRnCb-ovBEFzVkXL-8AWpYAH75s=", "properties": {"ref": "12", "@spider": "rainbow_shops", "addr:full": "1 Belmont Ave", "addr:city": "Brooklyn", "addr:state": "NY", "addr:postcode": "11212", "addr:country": "US", "name": "Belmont Ave", "phone": "+17184851227", "opening_hours": "Mo-Th 10:00-21:30; Fr-Sa 10:00-22:00; Su 10:00-21:00"}, "geometry": {"type": "Point", "coordinates": [-73.907462, 40.668951]}},
{"type": "Feature", "id": "aNO3WLs6wIcUt29E22Tv3Xo6KW8=", "properties": {"ref": "88", "@spider": "rainbow_shops", "addr:full": "1440 Rockaway Pkwy", "addr:city": "Brooklyn", "addr:state": "NY", "addr:postcode": "11236", "addr:country": "US", "name": "Rockaway Parkway 88", "phone": "+17182723596", "opening_hours": "Mo-We 10:00-20:00; Th-Sa 10:00-20:30; Su 10:00-20:00"}, "geometry": {"type": "Point", "coordinates": [-73.902289, 40.644827]}},
{"type": "Feature", "id": "_9e55t9TscmhD1kT1S_cC9pqwEQ=", "properties": {"ref": "54", "@spider": "rainbow_shops", "addr:full": "961 E 174th St", "addr:city": "Bronx", "addr:state": "NY", "addr:postcode": "10460", "addr:country": "US", "name": "New Horizons", "phone": "+17186200968", "opening_hours": "Mo-We 10:00-20:00; Th-Sa 10:00-20:30; Su 11:00-18:00"}, "geometry": {"type": "Point", "coordinates": [-73.883099, 40.837933]}},
{"type": "Feature", "id": "GkENbSZ4AW7N912ThJTqiHuIIFE=", "properties": {"ref": "18", "@spider": "rainbow_shops", "addr:full": "48 E 167th St", "addr:city": "Bronx", "addr:state": "NY", "addr:postcode": "10452", "addr:country": "US", "name": "East 167th Street", "phone": "+17182934095", "opening_hours": "Mo-Th 10:00-20:00; Fr-Sa 10:00-20:30; Su 10:00-20:00"}, "geometry": {"type": "Point", "coordinates": [-73.920937, 40.83533]}},
{"type": "Feature", "id": "Hm5YZk95rY0QSOdTYqYx6kS8USc=", "properties": {"ref": "100", "@spider": "rainbow_shops", "addr:full": "990 Pennsylvania Ave", "addr:city": "Brooklyn", "addr:state": "NY", "addr:postcode": "11207", "addr:country": "US", "name": "Pennsylvania Ave", "phone": "+17182721236", "opening_hours": "Mo-We 10:00-20:00; Th-Sa 10:00-20:30; Su 10:00-20:00"}, "geometry": {"type": "Point", "coordinates": [-73.888177, 40.654635]}},
{"type": "Feature", "id": "QTM4jvXLfqR821b6m_GqHDeJb04=", "properties": {"ref": "370", "@spider": "rainbow_shops", "addr:full": "4713 Onondaga Blvd", "addr:city": "Syracuse", "addr:state": "NY", "addr:postcode": "13219", "addr:country": "US", "name": "Western Lights Shopping Center", "phone": "+13154226715", "opening_hours": "Mo-Sa 10:00-20:00; Su 12:00-17:00"}, "geometry": {"type": "Point", "coordinates": [-76.191426, 43.034944]}},
{"type": "Feature", "id": "fRFo8gYb3dsxMYEW_lBlQMJEIJg=", "properties": {"ref": "304", "@spider": "rainbow_shops", "addr:full": "3142 Kensington Ave", "addr:city": "Philadelphia", "addr:state": "PA", "addr:postcode": "19134", "addr:country": "US", "name": "Kensington", "phone": "+12154239127", "opening_hours": "Mo-Sa 10:00-18:00; Su 11:00-18:00"}, "geometry": {"type": "Point", "coordinates": [-75.114502, 39.996191]}},
{"type": "Feature", "id": "Xsj4Y_jRnGETKNwP-lSHwsb8Hxw=", "properties": {"ref": "1912", "@spider": "rainbow_shops", "addr:full": "11612 Keleket Dr", "addr:city": "Penn Hills", "addr:state": "PA", "addr:postcode": "15235", "addr:country": "US", "name": "Penn Hills Shopping Center", "phone": "+14122436265", "opening_hours": "Mo-Sa 10:00-20:00; Su 12:00-17:00"}, "geometry": {"type": "Point", "coordinates": [-79.826739, 40.463226]}},
{"type": "Feature", "id": "PZMBfu3Lh6lju1xhxdo82CRZ1F8=", "properties": {"ref": "2467027868496557413", "@spider": "rainbow_shops", "addr:full": "2951 Grant Ave", "addr:city": "Philadelphia", "addr:state": "PA", "addr:postcode": "19114", "addr:country": "US", "name": "Ecommerce Fulfillment Center", "phone": "+18445724626"}, "geometry": {"type": "Point", "coordinates": [-75.013834, 40.074641]}},
{"type": "Feature", "id": "EMHu9EqB6mKRdpk5W6dIvgGw8hc=", "properties": {"ref": "105", "@spider": "rainbow_shops", "addr:full": "5100 Kings Plaza", "addr:city": "Brooklyn", "addr:state": "NY", "addr:postcode": "11234", "addr:country": "US", "name": "Kings Plaza", "phone": "+17183773135", "opening_hours": "Mo-Th 11:00-19:00; Fr-Sa 11:00-20:00; Su 11:00-19:00"}, "geometry": {"type": "Point", "coordinates": [-73.92005, 40.610047]}},
{"type": "Feature", "id": "8C5yNyhaI2p3TNuPmR0lM7aOMsE=", "properties": {"ref": "57", "@spider": "rainbow_shops", "addr:full": "1 W Merrick Rd", "addr:city": "Freeport", "addr:state": "NY", "addr:postcode": "11520", "addr:country": "US", "name": "Freeport", "phone": "+15163780295", "opening_hours": "Mo-Th 10:00-20:00; Fr-Sa 10:00-21:00; Su 10:00-20:00"}, "geometry": {"type": "Point", "coordinates": [-73.580186, 40.654125]}},
{"type": "Feature", "id": "hsXfub-be1BXWpcm_Hyk0zB52vE=", "properties": {"ref": "23", "@spider": "rainbow_shops", "addr:full": "226 W 125th St", "addr:city": "New York", "addr:state": "NY", "addr:postcode": "10027", "addr:country": "US", "name": "West 125th Street", "phone": "+12126787105", "opening_hours": "Mo-Th 10:00-20:00; Fr-Sa 10:00-20:30; Su 10:00-20:00"}, "geometry": {"type": "Point", "coordinates": [-73.9532, 40.812242]}},
{"type": "Feature", "id": "kIBTqKWmw1K7z8UbWCp_5MMW9lE=", "properties": {"ref": "109", "@spider": "rainbow_shops", "addr:full": "2026 Rockaway Pkwy", "addr:city": "Brooklyn", "addr:state": "NY", "addr:postcode": "11236", "addr:country": "US", "name": "Rockaway Parkway", "phone": "+17182091434", "opening_hours": "Mo-We 10:00-20:00; Th-Sa 10:00-21:00; Su 11:00-18:00"}, "geometry": {"type": "Point", "coordinates": [-73.88945, 40.633505]}},
{"type": "Feature", "id": "Id84l23LU8GwHYpiqLvANSYkzSA=", "properties": {"ref": "26", "@spider": "rainbow_shops", "addr:full": "308 W 125th St", "addr:city": "New York", "addr:state": "NY", "addr:postcode": "10027", "addr:country": "US", "name": "Harlem", "phone": "+12128645707", "opening_hours": "Mo-Th 10:00-20:00; Fr-Sa 10:00-20:30; Su 10:00-20:00"}, "geometry": {"type": "Point", "coordinates": [-73.951799, 40.810239]}},
{"type": "Feature", "id": "16hCu0VvbGeJz_1MDTbOXTBULr4=", "properties": {"ref": "120", "@spider": "rainbow_shops", "addr:full": "257 Middle Country Rd", "addr:city": "Centereach", "addr:state": "NY", "addr:postcode": "11720", "addr:country": "US", "name": "Centereach Mall S/C", "phone": "+16317371404", "opening_hours": "Mo-We 10:00-20:00; Th-Sa 10:00-21:00; Su 10:00-19:00"}, "geometry": {"type": "Point", "coordinates": [-72.637078, 40.922326]}},
{"type": "Feature", "id": "HmnxoZmgLVVMjKYX1Yb9g1wpn3E=", "properties": {"ref": "63", "@spider": "rainbow_shops", "addr:full": "1621 Broadway", "addr:city": "Brooklyn", "addr:state": "NY", "addr:postcode": "11207", "addr:country": "US", "name": "1621 Broadway", "phone": "+17184431893", "opening_hours": "Mo-We 10:00-20:00; Th-Sa 10:00-20:30; Su 10:00-20:00"}, "geometry": {"type": "Point", "coordinates": [-73.914375, 40.685132]}},
{"type": "Feature", "id": "Z9ws47XX1aVkDb7og7yQk3_KhFM=", "properties": {"ref": "32", "@spider": "rainbow_shops", "addr:full": "859 Utica Ave", "addr:city": "Brooklyn", "addr:state": "NY", "addr:postcode": "11203", "addr:country": "US", "name": "Utica Avenue", "phone": "+17184853226", "opening_hours": "Mo-We 10:00-21:30; Th 09:30-21:30; Fr-Sa 10:00-22:00; Su 10:00-21:00"}, "geometry": {"type": "Point", "coordinates": [-73.930081, 40.652191]}},
{"type": "Feature", "id": "6uOz0bl1FYBq4WEm0wSFWZvkEMo=", "properties": {"ref": "68", "@spider": "rainbow_shops", "addr:full": "332 Nassau Rd", "addr:city": "Roosevelt", "addr:state": "NY", "addr:postcode": "11575", "addr:country": "US", "name": "Roosevelt", "phone": "+15163780596", "opening_hours": "Mo-Th 10:00-20:00; Fr-Sa 10:00-21:00; Su 10:00-20:00"}, "geometry": {"type": "Point", "coordinates": [-73.589978, 40.6805]}},
{"type": "Feature", "id": "l9lU614-8ezYkWkdoAReC2mATZQ=", "properties": {"ref": "1197", "@spider": "rainbow_shops", "addr:full": "3500 Main St", "addr:city": "Amherst", "addr:state": "NY", "addr:postcode": "14226", "addr:country": "US", "name": "University Plaza", "phone": "+17168341250", "opening_hours": "Mo-Sa 10:00-21:00; Su 11:00-17:00"}, "geometry": {"type": "Point", "coordinates": [-78.817717, 42.959251]}},
{"type": "Feature", "id": "JWSy1Ad6Wfpe-6UVPHH9M_wm4uA=", "properties": {"ref": "150", "@spider": "rainbow_shops", "addr:full": "1958 3rd Ave", "addr:city": "New York", "addr:state": "NY", "addr:postcode": "10029", "addr:country": "US", "name": "3rd Ave", "phone": "+12122891613", "opening_hours": "Mo-Th 10:00-20:00; Fr-Sa 10:00-21:00; Su 10:00-20:00"}, "geometry": {"type": "Point", "coordinates": [-73.944224, 40.792718]}},
{"type": "Feature", "id": "O_jXqn4S8uk39gEJGHzQkX7dCus=", "properties": {"ref": "415", "@spider": "rainbow_shops", "addr:full": "1020 Portage Rd", "addr:city": "Niagara Falls", "addr:state": "NY", "addr:postcode": "14301", "addr:country": "US", "name": "Tops Market Plaza", "phone": "+17162858110", "opening_hours": "Mo-Sa 10:00-20:00; Su 11:00-17:00"}, "geometry": {"type": "Point", "coordinates": [-79.05078, 43.098674]}},
{"type": "Feature", "id": "lIaQLDxSuD8LX9YwoP2Fe03JRSs=", "properties": {"ref": "422", "@spider": "rainbow_shops", "addr:full": "2022 Military Rd", "addr:city": "Niagara Falls", "addr:state": "NY", "addr:postcode": "14304", "addr:country": "US", "name": "Fashion Outlets", "phone": "+17162971034", "opening_hours": "Mo-Sa 11:00-19:00; Su 11:00-18:00"}, "geometry": {"type": "Point", "coordinates": [-78.977743, 43.098902]}},
{"type": "Feature", "id": "d1TAhPzmA40P20ro0Wb2XDZC0mM=", "properties": {"ref": "36", "@spider": "rainbow_shops", "addr:full": "2962 Third Ave", "addr:city": "Bronx", "addr:state": "NY", "addr:postcode": "10455", "addr:country": "US", "name": "2962 Third Ave", "phone": "+17185851305", "opening_hours": "Mo-Th 10:00-20:00; Fr-Sa 10:00-20:30; Su 10:00-20:00"}, "geometry": {"type": "Point", "coordinates": [-73.91469, 40.818319]}},
{"type": "Feature", "id": "EEHBzQ45eRb5-ia9_E_5dQIFjg8=", "properties": {"ref": "73", "@spider": "rainbow_shops", "addr:full": "1295 Broadway", "addr:city": "Brooklyn", "addr:state": "NY", "addr:postcode": "11221", "addr:country": "US", "name": "Broadway and Ralph", "phone": "+17189193930", "opening_hours": "Mo-We 10:00-20:00; Th-Sa 10:00-20:30; Su 10:00-20:00"}, "geometry": {"type": "Point", "coordinates": [-73.923872, 40.690674]}},
{"type": "Feature", "id": "40dFUNf3TmN0kJaBhh5WOM0HctM=", "properties": {"ref": "1423", "@spider": "rainbow_shops", "addr:full": "499 Sunrise Hwy", "addr:city": "Patchogue", "addr:state": "NY", "addr:postcode": "11772", "addr:country": "US", "name": "Gateway Center", "phone": "+16312891124", "opening_hours": "Mo-We 10:00-20:00; Th-Sa 10:00-21:00; Su 10:00-19:00"}, "geometry": {"type": "Point", "coordinates": [-73.038674, 40.779323]}},
{"type": "Feature", "id": "i_Bndcj2q5b4_7rz-dIgrDmTWbM=", "properties": {"ref": "37", "@spider": "rainbow_shops", "addr:full": "170-33 Hillside Ave", "addr:city": "Jamaica", "addr:state": "NY", "addr:postcode": "11432", "addr:country": "US", "name": "Jamaica Hillside Avenue", "phone": "+17185585623", "opening_hours": "Mo-Sa 10:00-21:00; Su 10:00-20:00"}, "geometry": {"type": "Point", "coordinates": [-73.790499, 40.711678]}},
{"type": "Feature", "id": "2k3b-7LzBIUQtRhg5qo3cj6meJI=", "properties": {"ref": "434", "@spider": "rainbow_shops", "addr:full": "2255 E Ridge Rd", "addr:city": "Irondequoit", "addr:state": "NY", "addr:postcode": "14622", "addr:country": "US", "name": "Culver Ridge Plaza", "phone": "+15853399247", "opening_hours": "Mo-Sa 10:00-20:00; Su 11:00-17:00"}, "geometry": {"type": "Point", "coordinates": [-77.558763, 43.202792]}},
{"type": "Feature", "id": "O5oeZAM7dcQ_2VrC2bp1UZCbcpM=", "properties": {"ref": "246", "@spider": "rainbow_shops", "addr:full": "120 Hoosick St", "addr:city": "Troy", "addr:state": "NY", "addr:postcode": "12180", "addr:country": "US", "name": "Troy Plaza", "phone": "+15182743801", "opening_hours": "Mo-Th 10:00-20:00; Fr-Sa 10:00-21:00; Su 11:00-18:00"}, "geometry": {"type": "Point", "coordinates": [-73.677237, 42.739298]}},
{"type": "Feature", "id": "Cu2nNy2ylVXso8YqRQyM4j6PvpQ=", "properties": {"ref": "253", "@spider": "rainbow_shops", "addr:full": "1115 Green Acres Rd S", "addr:city": "Valley Stream", "addr:state": "NY", "addr:postcode": "11581", "addr:country": "US", "name": "Green Acres Mall", "phone": "+15162560506", "opening_hours": "Mo-Th 11:00-19:00; Fr-Sa 11:00-20:00; Su 12:00-18:00"}, "geometry": {"type": "Point", "coordinates": [-73.723301, 40.661903]}},
{"type": "Feature", "id": "hmfA8Eh5Jawcb_Oth7F2fAWRGkw=", "properties": {"ref": "1660", "@spider": "rainbow_shops", "addr:full": "134-54 Springfield Blvd", "addr:city": "Springfield Gardens", "addr:state": "NY", "addr:postcode": "11413", "addr:country": "US", "name": "Pathmark Plaza", "phone": "+17185255398", "opening_hours": "Mo-Th 10:00-21:30; Fr-Sa 10:00-22:00; Su 10:00-21:00"}, "geometry": {"type": "Point", "coordinates": [-73.755255, 40.678888]}},
{"type": "Feature", "id": "qrxUnRBQAkulrObG5-tfZnJ0xh0=", "properties": {"ref": "48", "@spider": "rainbow_shops", "addr:full": "85-10 Jamaica Ave", "addr:city": "Woodhaven", "addr:state": "NY", "addr:postcode": "11421", "addr:country": "US", "name": "Woodhaven", "phone": "+17188462367", "opening_hours": "Mo-Th 10:00-21:30; Fr-Sa 10:00-22:00; Su 10:00-21:00"}, "geometry": {"type": "Point", "coordinates": [-73.85852, 40.692552]}},
{"type": "Feature", "id": "WJ6YlvDrWB2MNDpItsb-gAAAEXQ=", "properties": {"ref": "1784", "@spider": "rainbow_shops", "addr:full": "264 N Middle Country Rd", "addr:city": "Coram", "addr:state": "NY", "addr:postcode": "11727", "addr:country": "US", "name": "Coram Plaza", "phone": "+16316981040", "opening_hours": "Mo-We 10:00-20:00; Th-Sa 10:00-21:00; Su 10:00-19:00"}, "geometry": {"type": "Point", "coordinates": [-72.996268, 40.869158]}},
{"type": "Feature", "id": "mI1cdGxDqHHrZx5JE8b1lCYIaUA=", "properties": {"ref": "1795", "@spider": "rainbow_shops", "addr:full": "814 Pelham Pkwy", "addr:city": "Pelham", "addr:state": "NY", "addr:postcode": "10803", "addr:country": "US", "name": "Pelham Shopping Plaza", "phone": "+19145760607", "opening_hours": "Mo-Sa 10:00-20:30; Su 10:00-20:00"}, "geometry": {"type": "Point", "coordinates": [-73.819524, 40.89308]}},
{"type": "Feature", "id": "dDGITUm50cAj7H_Aw4FZf6FA7SA=", "properties": {"ref": "1798", "@spider": "rainbow_shops", "addr:full": "470 Rt 211 East", "addr:city": "Middletown", "addr:state": "NY", "addr:postcode": "10940", "addr:country": "US", "name": "Orange Plaza", "phone": "+18453426731", "opening_hours": "Mo-Sa 10:00-20:00; Su 11:00-18:00"}, "geometry": {"type": "Point", "coordinates": [-74.378215, 41.455287]}},
{"type": "Feature", "id": "PEBGnOJm5d0yD7zSL-ie3vAb4Ls=", "properties": {"ref": "1875", "@spider": "rainbow_shops", "addr:full": "2 Schwenk Dr", "addr:city": "Kingston", "addr:state": "NY", "addr:postcode": "12401", "addr:country": "US", "name": "Kingston Plaza", "phone": "+18453313250", "opening_hours": "Mo-Th 10:00-19:00; Fr-Sa 10:00-20:00; Su 11:00-18:00"}, "geometry": {"type": "Point", "coordinates": [-74.01811, 41.934812]}},
{"type": "Feature", "id": "Fzo-znH9qy99IH-FsBOSCNvCjjs=", "properties": {"ref": "1878", "@spider": "rainbow_shops", "addr:full": "2585 S Rd", "addr:city": "Poughkeepsie", "addr:state": "NY", "addr:postcode": "12601", "addr:country": "US", "name": "Hudson Plaza", "phone": "+18454548193", "opening_hours": "Mo-Sa 10:00-20:00; Su 10:00-18:00"}, "geometry": {"type": "Point", "coordinates": [-73.931509, 41.665424]}},
{"type": "Feature", "id": "9QjA0fYDRRZfXtf0QzkuKzJ0uh0=", "properties": {"ref": "1177", "@spider": "rainbow_shops", "addr:full": "4084 Lakeland Ave", "addr:city": "Robbinsdale", "addr:state": "MN", "addr:postcode": "55422", "addr:country": "US", "name": "Robin Center", "phone": "+17635376300", "opening_hours": "Mo-Th 10:00-19:00; Fr-Sa 10:00-20:00; Su 11:00-18:00"}, "geometry": {"type": "Point", "coordinates": [-93.342428, 45.009601]}},
{"type": "Feature", "id": "jBh48J6Utat-b1rMP4XcBIAVBuQ=", "properties": {"ref": "1080", "@spider": "rainbow_shops", "addr:full": "1201 S Robert St", "addr:city": "West Saint Paul", "addr:state": "MN", "addr:postcode": "55118", "addr:country": "US", "name": "Signal Hills Shopping Center", "phone": "+16515524935", "opening_hours": "Mo-Sa 10:00-19:00; Su 11:00-18:00"}, "geometry": {"type": "Point", "coordinates": [-93.081724, 44.909216]}},
{"type": "Feature", "id": "aL-xBswHHwlD2wgRNj3vVTRV3hU=", "properties": {"ref": "1133", "@spider": "rainbow_shops", "addr:full": "621 W Broadway Ave", "addr:city": "Minneapolis", "addr:state": "MN", "addr:postcode": "55411", "addr:country": "US", "name": "Broadway Center", "phone": "+16125229151", "opening_hours": "Mo-Sa 10:00-19:00; Su 12:00-18:00"}, "geometry": {"type": "Point", "coordinates": [-93.287703, 44.998296]}},
{"type": "Feature", "id": "VNhOEWE5aLqa1RDpN4g_JG0lQOg=", "properties": {"ref": "1163", "@spider": "rainbow_shops", "addr:full": "32 W 66th St", "addr:city": "Richfield", "addr:state": "MN", "addr:postcode": "55423", "addr:country": "US", "name": "The Hub", "phone": "+16128610121", "opening_hours": "Mo-Sa 10:00-20:00; Su 11:00-18:00"}, "geometry": {"type": "Point", "coordinates": [-93.279368, 44.883503]}},
{"type": "Feature", "id": "gK_8GHOA3RjzaBJl0-LbyGPFYKI=", "properties": {"ref": "1167", "@spider": "rainbow_shops", "addr:full": "2139 Old Hudson Rd", "addr:city": "St. Paul", "addr:state": "MN", "addr:postcode": "55119", "addr:country": "US", "name": "Sun Ray Shopping Center", "phone": "+16517022508", "opening_hours": "Mo-Sa 10:00-20:00; Su 12:00-18:00"}, "geometry": {"type": "Point", "coordinates": [-93.009832, 44.95239]}},
{"type": "Feature", "id": "VFA3rJ0ZvuHXQPWqr-8UoHADr9E=", "properties": {"ref": "1168", "@spider": "rainbow_shops", "addr:full": "133 Willow Bend", "addr:city": "Crystal", "addr:state": "MN", "addr:postcode": "55428", "addr:country": "US", "name": "Crystal Shopping Center", "phone": "+17635379411", "opening_hours": "Mo-Sa 10:00-20:00; Su 11:00-18:00"}, "geometry": {"type": "Point", "coordinates": [-93.366503, 45.053341]}},
{"type": "Feature", "id": "erP5dfy8SFpATivgCctyBQejF1I=", "properties": {"ref": "399", "@spider": "rainbow_shops", "addr:full": "355 North Garden", "addr:city": "Bloomington", "addr:state": "MN", "addr:postcode": "55425", "addr:country": "US", "name": "Mall Of America", "phone": "+19528589363", "opening_hours": "Mo-Th 11:00-19:00; Fr-Sa 10:00-20:00; Su 11:00-19:00"}, "geometry": {"type": "Point", "coordinates": [-93.239472, 44.855292]}},
{"type": "Feature", "id": "TvPvhbv6niiTAuf7OxqqPzmIk9k=", "properties": {"ref": "1134", "@spider": "rainbow_shops", "addr:full": "1300 Shingle Creek Pkwy", "addr:city": "Brooklyn Center", "addr:state": "MN", "addr:postcode": "55430", "addr:country": "US", "name": "Shingle Creek Crossing", "phone": "+17635600218", "opening_hours": "Mo-Sa 10:00-20:00; Su 12:00-18:00"}, "geometry": {"type": "Point", "coordinates": [-93.305742, 45.076379]}},
{"type": "Feature", "id": "UaQ5AsfD19ALHrveAnvZu-gB9Rc=", "properties": {"ref": "1162", "@spider": "rainbow_shops", "addr:full": "7601 W Broadway Ave", "addr:city": "Brooklyn Park", "addr:state": "MN", "addr:postcode": "55428", "addr:country": "US", "name": "Starlite Shopping Center", "phone": "+17634245601", "opening_hours": "Mo-Sa 10:00-20:00; Su 11:00-18:00"}, "geometry": {"type": "Point", "coordinates": [-93.379823, 45.092771]}},
{"type": "Feature", "id": "sbEmCHtkueo6GgvYKZJ3-ya0oM4=", "properties": {"ref": "1375", "@spider": "rainbow_shops", "addr:full": "5828 Lyons Ave", "addr:city": "Houston", "addr:state": "TX", "addr:postcode": "77020", "addr:country": "US", "name": "5828 Lyons Avenue", "phone": "+17136723982", "opening_hours": "Mo-Sa 10:00-20:00; Su 11:00-18:00"}, "geometry": {"type": "Point", "coordinates": [-95.434241, 29.83399]}},
{"type": "Feature", "id": "Hx1dSorNlYbAm8d3Q7s6fiF7-Nk=", "properties": {"ref": "1596", "@spider": "rainbow_shops", "addr:full": "1901 W Expy 83", "addr:city": "Weslaco", "addr:state": "TX", "addr:postcode": "78596", "addr:country": "US", "name": "Weslaco Redeve", "phone": "+19569695839", "opening_hours": "Mo-Sa 10:00-21:00; Su 11:00-18:00"}, "geometry": {"type": "Point", "coordinates": [-98.008814, 26.170447]}},
{"type": "Feature", "id": "ZUwz8ICqVMRPXrPg8v3r7yCKUvk=", "properties": {"ref": "1711", "@spider": "rainbow_shops", "addr:full": "125 Wynnewood Plaza", "addr:city": "Dallas", "addr:state": "TX", "addr:postcode": "75224", "addr:country": "US", "name": "Wynnewood Village", "phone": "+12149467106", "opening_hours": "Mo-Sa 10:00-20:00; Su 12:00-18:00"}, "geometry": {"type": "Point", "coordinates": [-96.83163, 32.721542]}},
{"type": "Feature", "id": "Nciq64AqWG1qNIVV0WTQ_cGQKT4=", "properties": {"ref": "1379", "@spider": "rainbow_shops", "addr:full": "3333 J Telephone Rd", "addr:city": "Houston", "addr:state": "TX", "addr:postcode": "77023", "addr:country": "US", "name": "Telephone Road Center", "phone": "+17139244055", "opening_hours": "Mo-Sa 10:00-20:00; Su 11:00-18:00"}, "geometry": {"type": "Point", "coordinates": [-95.434241, 29.83399]}},
{"type": "Feature", "id": "c5qEqg7_lFslVH9GqZjUGdEid3A=", "properties": {"ref": "1714", "@spider": "rainbow_shops", "addr:full": "2801 50th St", "addr:city": "Lubbock", "addr:state": "TX", "addr:postcode": "79413", "addr:country": "US", "name": "Caprock Shopping Center", "phone": "+18067852646", "opening_hours": "Mo-Sa 10:00-20:00; Su 12:00-18:00"}, "geometry": {"type": "Point", "coordinates": [-101.877007, 33.548673]}},
{"type": "Feature", "id": "a1m-9SEEBS6nxCtoOsTyOVRKX2Q=", "properties": {"ref": "1716", "@spider": "rainbow_shops", "addr:full": "3200 Andrews Hwy", "addr:city": "Odessa", "addr:state": "TX", "addr:postcode": "79762", "addr:country": "US", "name": "One Energy Square", "phone": "+14323629975", "opening_hours": "Mo-Sa 10:00-19:00; Su 12:00-18:00"}, "geometry": {"type": "Point", "coordinates": [-102.381826, 31.872836]}},
{"type": "Feature", "id": "QMbSbGXOVNznMg77Xy7B401-cxc=", "properties": {"ref": "1387", "@spider": "rainbow_shops", "addr:full": "8260 Marbach Rd", "addr:city": "San Antonio", "addr:state": "TX", "addr:postcode": "78227", "addr:country": "US", "name": "8260 Marbach Rd", "phone": "+12106735187", "opening_hours": "Mo-Sa 10:00-21:00; Su 11:00-18:00"}, "geometry": {"type": "Point", "coordinates": [-97.291484, 32.771419]}},
{"type": "Feature", "id": "2enUNradXdqGC-g4LPF-IeBr0as=", "properties": {"ref": "621", "@spider": "rainbow_shops", "addr:full": "5768 Hollister St", "addr:city": "Houston", "addr:state": "TX", "addr:postcode": "77040", "addr:country": "US", "name": "Northwest Crossing", "phone": "+17134604999", "opening_hours": "Mo-Sa 10:00-21:00; Su 11:00-18:00"}, "geometry": {"type": "Point", "coordinates": [-95.503237, 29.850329]}},
{"type": "Feature", "id": "FhE8JX7VIYO88AziPXxoeXkniGg=", "properties": {"ref": "1718", "@spider": "rainbow_shops", "addr:full": "510 S SW Loop 323", "addr:city": "Tyler", "addr:state": "TX", "addr:postcode": "75702", "addr:country": "US", "name": "Westwood Shopping Cent", "phone": "+19035939902", "opening_hours": "Mo-Sa 10:00-20:00; Su 11:00-18:00"}, "geometry": {"type": "Point", "coordinates": [-95.340539, 32.344412]}},
{"type": "Feature", "id": "NMGXmVoWryBefYbEjV2iDyZFSkM=", "properties": {"ref": "314", "@spider": "rainbow_shops", "addr:full": "14404 Hillcroft St", "addr:city": "Houston", "addr:state": "TX", "addr:postcode": "77085", "addr:country": "US", "name": "Crossing At Fort Bend", "phone": "+17137212488", "opening_hours": "Mo-Th 11:00-20:00; Fr-Sa 10:00-21:00; Su 11:00-18:00"}, "geometry": {"type": "Point", "coordinates": [-95.494969, 29.617746]}},
{"type": "Feature", "id": "5VH4VdwAz9SWaHwdy858gu_W6PQ=", "properties": {"ref": "623", "@spider": "rainbow_shops", "addr:full": "3111 S 31st St", "addr:city": "Temple", "addr:state": "TX", "addr:postcode": "76502", "addr:country": "US", "name": "Temple Mall", "phone": "+12547735202", "opening_hours": "Mo-Sa 10:00-18:00; Su 12:30-18:30"}, "geometry": {"type": "Point", "coordinates": [-97.367318, 31.069648]}},
{"type": "Feature", "id": "T66QUOzSB82XEyrCYeqhrmVVGI8=", "properties": {"ref": "431", "@spider": "rainbow_shops", "addr:full": "12317 S Main St", "addr:city": "Houston", "addr:state": "TX", "addr:postcode": "77035", "addr:country": "US", "name": "South Main Shopping Center", "phone": "+17132838446", "opening_hours": "Mo-Th 10:00-20:00; Fr-Sa 10:00-21:00; Su 11:00-18:00"}, "geometry": {"type": "Point", "coordinates": [-95.434241, 29.83399]}},
{"type": "Feature", "id": "P_Ov7x6lHblvvNduJef9J7xSV54=", "properties": {"ref": "465", "@spider": "rainbow_shops", "addr:full": "2520 E Arkansas Ln", "addr:city": "Arlington", "addr:state": "TX", "addr:postcode": "76014", "addr:country": "US", "name": "Highland Park Village", "phone": "+18172654744", "opening_hours": "Mo-Sa 10:00-20:00; Su 11:00-18:00"}, "geometry": {"type": "Point", "coordinates": [-97.065728, 32.70455]}},
{"type": "Feature", "id": "Jt849DvHsW0cjrpGX5ENMWAgsRc=", "properties": {"ref": "1042", "@spider": "rainbow_shops", "addr:full": "215 W Greens Rd", "addr:city": "Houston", "addr:state": "TX", "addr:postcode": "77067", "addr:country": "US", "name": "Greens Crossroads", "phone": "+12818769829", "opening_hours": "Mo-Sa 10:00-21:00; Su 11:00-18:00"}, "geometry": {"type": "Point", "coordinates": [-95.434241, 29.83399]}},