{"type":"FeatureCollection","features":[{"type": "Feature", "id": "qwdm3nw95Q83iNgyxRFSk0CRPEc=", "properties": {"ref": "3255", "@spider": "signet_jewelers", "addr:full": "122 INTU Watford The Harlequin Centre", "addr:city": "Watford", "addr:postcode": "WD17 2EJ", "addr:country": "GB", "name": "Watford", "brand": "ernestjones"}, "geometry": {"type": "Point", "coordinates": [-0.3933, 51.6547]}},
{"type": "Feature", "id": "ViXthOdVQWi64M8nagPY7-OaPO8=", "properties": {"ref": "3498", "@spider": "signet_jewelers", "addr:full": "Brent Cross Centre", "addr:city": "London", "addr:postcode": "NW4 3FQ", "addr:country": "GB", "name": "Brent Cross", "brand": "ernestjones"}, "geometry": {"type": "Point", "coordinates": [-0.2238, 51.5764]}},
{"type": "Feature", "id": "EPTi8MXDKu3Y7a0i8oXXTRxtOT4=", "properties": {"ref": "3175", "@spider": "signet_jewelers", "addr:full": "20 St Anns Centre", "addr:city": "Harrow", "addr:postcode": "HA1 1AS", "addr:country": "GB", "name": "Harrow St Anns", "brand": "ernestjones"}, "geometry": {"type": "Point", "coordinates": [-0.3369, 51.5809]}},
{"type": "Feature", "id": "hy_--X86IlnrBh3rROp1sWnSsX8=", "properties": {"ref": "3011", "@spider": "signet_jewelers", "addr:full": "29 Palace Gardens", "addr:city": "Enfield", "addr:postcode": "EN2 6SN", "addr:country": "GB", "name": "Enfield", "brand": "ernestjones"}, "geometry": {"type": "Point", "coordinates": [-0.0835, 51.6512]}},
{"type": "Feature", "id": "NyiW-7jDHNBCW3aH3_xemVgBMtg=", "properties": {"ref": "3345", "@spider": "signet_jewelers", "addr:full": "Unit 41", "addr:city": "Wood Green", "addr:postcode": "N22 6YQ", "addr:country": "GB", "name": "Wood Green", "brand": "ernestjones"}, "geometry": {"type": "Point", "coordinates": [-0.1085, 51.5945]}},
{"type": "Feature", "id": "RchvBbzyiNi9Vvx6-t8cXDcCfCg=", "properties": {"ref": "3107", "@spider": "signet_jewelers", "addr:full": "1 Ealing Broadway Centre", "addr:city": "Ealing Broadway", "addr:postcode": "W5 5JY", "addr:country": "GB", "name": "Ealing Broadway", "brand": "ernestjones"}, "geometry": {"type": "Point", "coordinates": [-0.3031, 51.5125]}},
{"type": "Feature", "id": "A3bKxU1JStlNpS4eXOJd9k0b64o=", "properties": {"ref": "3294", "@spider": "signet_jewelers", "addr:full": "1 Howards Centre", "addr:city": "Welwyn Garden City", "addr:postcode": "AL8 6HA", "addr:country": "GB", "name": "Welwyn G'dn City", "brand": "ernestjones"}, "geometry": {"type": "Point", "coordinates": [-0.2046, 51.8012]}},
{"type": "Feature", "id": "ib_Tl4SFCATDHO842gXYq4DKotM=", "properties": {"ref": "3506", "@spider": "signet_jewelers", "addr:full": "Unit SU1106a", "addr:city": "London", "addr:postcode": "W12 7GD", "addr:country": "GB", "name": "Breitling Loft Westfield London", "brand": "ernestjones"}, "geometry": {"type": "Point", "coordinates": [-0.2232, 51.5071]}},
{"type": "Feature", "id": "HlcXddXuYQfrjyLfjXch_auzelM=", "properties": {"ref": "3442", "@spider": "signet_jewelers", "addr:full": "Unit 1117", "addr:city": "London", "addr:postcode": "W12 7GD", "addr:country": "GB", "name": "Westfield London", "brand": "ernestjones"}, "geometry": {"type": "Point", "coordinates": [-0.2232, 51.5071]}},
{"type": "Feature", "id": "8kcz62oQLlFGzRgExrp_RSy5bl8=", "properties": {"ref": "3507", "@spider": "signet_jewelers", "addr:full": "Unit SU1106", "addr:city": "London", "addr:postcode": "W12 7GD", "addr:country": "GB", "name": "Tag Boutique Westfield London", "brand": "ernestjones"}, "geometry": {"type": "Point", "coordinates": [-0.2232, 51.5071]}},
{"type": "Feature", "id": "P5l-JcrhlYtRTEdlruqi-TN7yeI=", "properties": {"ref": "3042", "@spider": "signet_jewelers", "addr:full": "Unit 46", "addr:city": "Hemel Hempstead", "addr:postcode": "HP1 1DX", "addr:country": "GB", "name": "Hemel Hempstead", "brand": "ernestjones"}, "geometry": {"type": "Point", "coordinates": [-0.4717, 51.7491]}},
{"type": "Feature", "id": "hlzRR_YuFeLg8VUuqtlhBaYgrBY=", "properties": {"ref": "3235", "@spider": "signet_jewelers", "addr:full": "277 Oxford Street", "addr:city": "London", "addr:postcode": "W1C 2DL", "addr:country": "GB", "name": "Oxford St 277", "brand": "ernestjones"}, "geometry": {"type": "Point", "coordinates": [-0.1433, 51.5149]}},
{"type": "Feature", "id": "CaYB3gIhPU9ck9qpbLhCF20sRXs=", "properties": {"ref": "3368", "@spider": "signet_jewelers", "addr:full": "233 The Chimes", "addr:city": "Uxbridge", "addr:postcode": "UB8 1GB", "addr:country": "GB", "name": "Uxbridge", "brand": "ernestjones"}, "geometry": {"type": "Point", "coordinates": [-0.4774, 51.5456]}},
{"type": "Feature", "id": "HHPCrZP6-tlAhuijevVsmXuQNaY=", "properties": {"ref": "3494", "@spider": "signet_jewelers", "addr:full": "81 - 82 Cheapside", "addr:city": "London", "addr:postcode": "EC2V 6EB", "addr:country": "GB", "name": "Cheapside", "brand": "ernestjones"}, "geometry": {"type": "Point", "coordinates": [-0.0916, 51.5137]}},
{"type": "Feature", "id": "qNv0KHxtxgXHrRo-Cb4IucM1S_Q=", "properties": {"ref": "3406", "@spider": "signet_jewelers", "addr:full": "Unit 29", "addr:city": "Putney", "addr:postcode": "SW15 1TW", "addr:country": "GB", "name": "Putney", "brand": "ernestjones"}, "geometry": {"type": "Point", "coordinates": [-0.2165, 51.4637]}},
{"type": "Feature", "id": "GbFujSaehjgYsxMCoHDBovazMdc=", "properties": {"ref": "3449", "@spider": "signet_jewelers", "addr:full": "158-159 THE ARCADE", "addr:city": "LONDON", "addr:postcode": "E20 1EL", "addr:country": "GB", "name": "Stratford City", "brand": "ernestjones"}, "geometry": {"type": "Point", "coordinates": [-0.0068, 51.5436]}},
{"type": "Feature", "id": "Bs31cnEwB4MtUwW9jfwGZD7CjtE=", "properties": {"ref": "3173", "@spider": "signet_jewelers", "addr:full": "37 Treaty Centre", "addr:city": "Hounslow", "addr:postcode": "TW3 1ES", "addr:country": "GB", "name": "Hounslow", "brand": "ernestjones"}, "geometry": {"type": "Point", "coordinates": [-0.363, 51.4681]}},
{"type": "Feature", "id": "peSDsrB4UTsFaxytA4gMs1XbuHM=", "properties": {"ref": "3139", "@spider": "signet_jewelers", "addr:full": "8 Surrey Quays Centre", "addr:city": "Surrey Quays", "addr:postcode": "SE16 7LL", "addr:country": "GB", "name": "Surrey Quays", "brand": "ernestjones"}, "geometry": {"type": "Point", "coordinates": [-0.0469, 51.4953]}},
{"type": "Feature", "id": "SqZMoUmSF1dMs7zhJ8i1qGo9Gp0=", "properties": {"ref": "3418", "@spider": "signet_jewelers", "addr:full": "Unit 62 The Exchange", "addr:city": "Ilford", "addr:postcode": "IG1 1AS", "addr:country": "GB", "name": "Ilford", "brand": "ernestjones"}, "geometry": {"type": "Point", "coordinates": [0.0723, 51.5596]}},
{"type": "Feature", "id": "jnYTwkC1HeTcrYvHCK7z2xekITY=", "properties": {"ref": "3377", "@spider": "signet_jewelers", "addr:full": "126a The Mall", "addr:city": "Luton", "addr:postcode": "LU1 2TJ", "addr:country": "GB", "name": "Luton", "brand": "ernestjones"}, "geometry": {"type": "Point", "coordinates": [-0.4153, 51.8795]}},
{"type": "Feature", "id": "ae0Jfo9gTw_kR63HFQf-d8OeLQs=", "properties": {"ref": "3472", "@spider": "signet_jewelers", "addr:full": "Unit 19 Bentall Centre", "addr:city": "Kingston", "addr:postcode": "KT1 1TR", "addr:country": "GB", "name": "Ej Kingston Bentalls", "brand": "ernestjones"}, "geometry": {"type": "Point", "coordinates": [-0.3047, 51.4118]}},
{"type": "Feature", "id": "ItQHtRUChIejj9xpFlVJHEn6jEo=", "properties": {"ref": "3268", "@spider": "signet_jewelers", "addr:full": "Unit 13", "addr:city": "Stevenage", "addr:postcode": "SG1 1QR", "addr:country": "GB", "name": "Stevenage Westgate", "brand": "ernestjones"}, "geometry": {"type": "Point", "coordinates": [-0.2024, 51.9029]}},
{"type": "Feature", "id": "70cyYZY1DJ0QDlB1tdAOdyqAIdw=", "properties": {"ref": "3357", "@spider": "signet_jewelers", "addr:full": "Unit 39 Queensmere", "addr:city": "Slough", "addr:postcode": "SL1 1DD", "addr:country": "GB", "name": "Slough Queensmere", "brand": "ernestjones"}, "geometry": {"type": "Point", "coordinates": [-0.5917, 51.5091]}},
{"type": "Feature", "id": "1YEoBX8zQvx_7HDjcaKIssAzN0U=", "properties": {"ref": "3256", "@spider": "signet_jewelers", "addr:full": "21 Broadwalk", "addr:city": "Harlow", "addr:postcode": "CM20 1HX", "addr:country": "GB", "name": "Harlow", "brand": "ernestjones"}, "geometry": {"type": "Point", "coordinates": [0.0944, 51.7704]}},
{"type": "Feature", "id": "fmz3fBXSnNGC4GoPfh4XWxTXdp0=", "properties": {"ref": "4359", "@spider": "signet_jewelers", "addr:full": "INTU Watford The Harlequin Centre", "addr:city": "Watford", "addr:postcode": "WD17 2HS", "addr:country": "GB", "name": "Watford", "brand": "hsamuel"}, "geometry": {"type": "Point", "coordinates": [-0.3943, 51.656]}},
{"type": "Feature", "id": "FnI_WlDIHnO9ayS57N0irsk-U1k=", "properties": {"ref": "4032", "@spider": "signet_jewelers", "addr:full": "Unit B4", "addr:city": "Brent Cross", "addr:postcode": "NW4 3FQ", "addr:country": "GB", "name": "Brent Cross", "brand": "hsamuel"}, "geometry": {"type": "Point", "coordinates": [-0.2238, 51.5764]}},
{"type": "Feature", "id": "y1oZjHvm0PlHkIa4buGbUEFE1Ts=", "properties": {"ref": "4137", "@spider": "signet_jewelers", "addr:full": "Unit 11", "addr:city": "Harrow", "addr:postcode": "HA1 1AS", "addr:country": "GB", "name": "Harrow St Anns", "brand": "hsamuel"}, "geometry": {"type": "Point", "coordinates": [-0.3369, 51.5809]}},
{"type": "Feature", "id": "kKGDrRqAH4qH-u9EGteqOjqr2to=", "properties": {"ref": "4103", "@spider": "signet_jewelers", "addr:full": "17 Palace Gardens", "addr:city": "Enfield", "addr:postcode": "EN2 6SN", "addr:country": "GB", "name": "Enfield", "brand": "hsamuel"}, "geometry": {"type": "Point", "coordinates": [-0.0835, 51.6512]}},
{"type": "Feature", "id": "DzxNp9HkYlchpCNAsbYFnWP8B1E=", "properties": {"ref": "4368", "@spider": "signet_jewelers", "addr:full": "3 Cheapside", "addr:city": "Wood Green", "addr:postcode": "N22 6HH", "addr:country": "GB", "name": "Wood Green", "brand": "hsamuel"}, "geometry": {"type": "Point", "coordinates": [-0.1066, 51.5932]}},
{"type": "Feature", "id": "x1x7mek6SDJgxVDQUOfPCPvU9wI=", "properties": {"ref": "4105", "@spider": "signet_jewelers", "addr:full": "70 Ealing Broadway Centre", "addr:city": "Ealing", "addr:postcode": "W5 5JY", "addr:country": "GB", "name": "Ealing Broadway", "brand": "hsamuel"}, "geometry": {"type": "Point", "coordinates": [-0.3031, 51.5125]}},
{"type": "Feature", "id": "YT74UEOff1ZN4heufeB_gQsBYo4=", "properties": {"ref": "4361", "@spider": "signet_jewelers", "addr:full": "Unit 8", "addr:city": "Welwyn Garden City", "addr:postcode": "AL8 6HA", "addr:country": "GB", "name": "Welwyn G'dn City", "brand": "hsamuel"}, "geometry": {"type": "Point", "coordinates": [-0.2046, 51.8012]}},
{"type": "Feature", "id": "7ALGCBGSd__rI1nUxvysPl9VYTk=", "properties": {"ref": "4669", "@spider": "signet_jewelers", "addr:full": "Unit 1151", "addr:city": "London", "addr:postcode": "W12 7GG", "addr:country": "GB", "name": "Westfield London", "brand": "hsamuel"}, "geometry": {"type": "Point", "coordinates": [-0.2213, 51.5075]}},
{"type": "Feature", "id": "95gRN0d8dur8qdoZkaUvJrQ5vv0=", "properties": {"ref": "4142", "@spider": "signet_jewelers", "addr:full": "Unit 51", "addr:city": "Hemel Hempstead", "addr:postcode": "HP1 1DX", "addr:country": "GB", "name": "Hemel Hempstead", "brand": "hsamuel"}, "geometry": {"type": "Point", "coordinates": [-0.4717, 51.7491]}},
{"type": "Feature", "id": "4OBhDd3lHthdOo-caFmZ9sYEdLk=", "properties": {"ref": "4253", "@spider": "signet_jewelers", "addr:full": "250 Oxford Street", "addr:city": "London", "addr:postcode": "W1C 1DJ", "addr:country": "GB", "name": "Oxford Circus", "brand": "hsamuel"}, "geometry": {"type": "Point", "coordinates": [-0.1432, 51.5153]}},
{"type": "Feature", "id": "QuNIYFmDx8x3OEcJ0KcskchqElI=", "properties": {"ref": "4355", "@spider": "signet_jewelers", "addr:full": "46 Selbourne Walk", "addr:city": "Walthamstow", "addr:postcode": "E17 7JS", "addr:country": "GB", "name": "Walthamstow", "brand": "hsamuel"}, "geometry": {"type": "Point", "coordinates": [-0.0252, 51.5835]}},
{"type": "Feature", "id": "LgdRYTIBCThXbkWhsOFDTuz0JVU=", "properties": {"ref": "4628", "@spider": "signet_jewelers", "addr:full": "230 INTU Uxbridge Shopping Centre", "addr:city": "Uxbridge", "addr:postcode": "UB8 1GB", "addr:country": "GB", "name": "Uxbridge", "brand": "hsamuel"}, "geometry": {"type": "Point", "coordinates": [-0.4774, 51.5456]}},
{"type": "Feature", "id": "PUXStBJEedUIL7TbE64HS1JYT1U=", "properties": {"ref": "3278", "@spider": "signet_jewelers", "addr:full": "Unit 10", "addr:city": "Lewisham", "addr:postcode": "SE13 7EP", "addr:country": "GB", "name": "Lewisham", "brand": "ernestjones"}, "geometry": {"type": "Point", "coordinates": [-0.0121, 51.4617]}},
{"type": "Feature", "id": "39rew0WxVwRWucZ3FTvFNtBenb8=", "properties": {"ref": "3062", "@spider": "signet_jewelers", "addr:full": "37 Elmsleigh Centre", "addr:city": "Staines", "addr:postcode": "TW18 4QD", "addr:country": "GB", "name": "Staines", "brand": "ernestjones"}, "geometry": {"type": "Point", "coordinates": [-0.5021, 51.4333]}},
{"type": "Feature", "id": "tk-7s-fHDhs8XV82fX5YPhYVgQ4=", "properties": {"ref": "3331", "@spider": "signet_jewelers", "addr:full": "104, Peascod Street", "addr:city": "Windsor", "addr:postcode": "SL4 1TF", "addr:country": "GB", "name": "Windsor", "brand": "ernestjones"}, "geometry": {"type": "Point", "coordinates": [-0.6112, 51.4817]}},
{"type": "Feature", "id": "N0fEP5zh-mXE1lJjXQvV9EJ7Xhc=", "properties": {"ref": "3400", "@spider": "signet_jewelers", "addr:full": "Unit GL5", "addr:city": "Romford", "addr:postcode": "RM1 3RL", "addr:country": "GB", "name": "Romford", "brand": "ernestjones"}, "geometry": {"type": "Point", "coordinates": [0.1837, 51.5783]}},
{"type": "Feature", "id": "41m31wournXaey6YtNqaNt3fYw0=", "properties": {"ref": "3401", "@spider": "signet_jewelers", "addr:full": "Unit 62 Centrale Shopping Centre", "addr:city": "Croydon", "addr:postcode": "CR0 1TY", "addr:country": "GB", "name": "Croydon Centrale", "brand": "ernestjones"}, "geometry": {"type": "Point", "coordinates": [-0.1021, 51.3762]}},
{"type": "Feature", "id": "muXACCpQks_T2DKDqK3c40CwHSQ=", "properties": {"ref": "3445", "@spider": "signet_jewelers", "addr:full": "Unit 19", "addr:city": "High Wycombe", "addr:postcode": "HP11 2BZ", "addr:country": "GB", "name": "High Wycombe", "brand": "ernestjones"}, "geometry": {"type": "Point", "coordinates": [-0.7563, 51.6304]}},
{"type": "Feature", "id": "gEV1YBhzwlurvdVKuNUWpqUpqW8=", "properties": {"ref": "4680", "@spider": "signet_jewelers", "addr:full": "111 THE GALLERY", "addr:city": "LONDON", "addr:postcode": "E20 1EP", "addr:country": "GB", "name": "Stratford City", "brand": "hsamuel"}, "geometry": {"type": "Point", "coordinates": [-0.0068, 51.5431]}},
{"type": "Feature", "id": "GohPzslDC3QBuLivWC5X6W4Deko=", "properties": {"ref": "4153", "@spider": "signet_jewelers", "addr:full": "20 The Treaty Centre", "addr:city": "Hounslow", "addr:postcode": "TW3 1ES", "addr:country": "GB", "name": "Hounslow", "brand": "hsamuel"}, "geometry": {"type": "Point", "coordinates": [-0.363, 51.4681]}},
{"type": "Feature", "id": "ZJraoOd_H3U1xuQSFOduvWsBM3U=", "properties": {"ref": "4331", "@spider": "signet_jewelers", "addr:full": "14 The Mall", "addr:city": "Stratford East", "addr:postcode": "E15 1XA", "addr:country": "GB", "name": "Stratford East", "brand": "hsamuel"}, "geometry": {"type": "Point", "coordinates": [0.0005, 51.5411]}},
{"type": "Feature", "id": "tWcYfyHk7JQjt1P5miDy2HfEWYo=", "properties": {"ref": "4310", "@spider": "signet_jewelers", "addr:full": "Unit 14 Surrey Quays Ctr", "addr:city": "London", "addr:postcode": "SE16 7LL", "addr:country": "GB", "name": "Surrey Quays", "brand": "hsamuel"}, "geometry": {"type": "Point", "coordinates": [-0.0469, 51.4953]}},
{"type": "Feature", "id": "JfQ_f4uoK_kUuJ4TPw6gw4-3SAI=", "properties": {"ref": "4160", "@spider": "signet_jewelers", "addr:full": "66 The Exchange", "addr:city": "Ilford", "addr:postcode": "IG1 1RR", "addr:country": "GB", "name": "Ilford", "brand": "hsamuel"}, "geometry": {"type": "Point", "coordinates": [0.072, 51.5604]}},
{"type": "Feature", "id": "BTp8iOcVraw4Ot9cdfbylIh0q7o=", "properties": {"ref": "4499", "@spider": "signet_jewelers", "addr:full": "53 The Mall", "addr:city": "Luton", "addr:postcode": "LU1 2TD", "addr:country": "GB", "name": "Luton", "brand": "hsamuel"}, "geometry": {"type": "Point", "coordinates": [-0.4121, 51.8794]}},
{"type": "Feature", "id": "FEbpCG4GteEQMbXENmOBP0zWLMY=", "properties": {"ref": "4323", "@spider": "signet_jewelers", "addr:full": "56 Queensway", "addr:city": "Stevenage", "addr:postcode": "SG1 1EE", "addr:country": "GB", "name": "Stevenage", "brand": "hsamuel"}, "geometry": {"type": "Point", "coordinates": [-0.2019, 51.9025]}},
{"type": "Feature", "id": "sP3chQ4fMIHkGB9_eIF6DvH2x0E=", "properties": {"ref": "4495", "@spider": "signet_jewelers", "addr:full": "51-51A Clarence Street", "addr:city": "Kingston", "addr:postcode": "KT1 1RF", "addr:country": "GB", "name": "Kingston Clarence St", "brand": "hsamuel"}, "geometry": {"type": "Point", "coordinates": [-0.3044, 51.4111]}},
{"type": "Feature", "id": "YU9ezRTNnZa5l7N6dxPxD_I7Vbg=", "properties": {"ref": "3249", "@spider": "signet_jewelers", "addr:full": "SU21", "addr:city": "Bromley", "addr:postcode": "BR1 1DD", "addr:country": "GB", "name": "Bromley Glades", "brand": "ernestjones"}, "geometry": {"type": "Point", "coordinates": [0.0166, 51.4038]}},
{"type": "Feature", "id": "uj1Sjnh0AVcV23xoxQpFcIjX5js=", "properties": {"ref": "3193", "@spider": "signet_jewelers", "addr:full": "75A High Street", "addr:city": "Maidenhead", "addr:postcode": "SL6 1JX", "addr:country": "GB", "name": "Maidenhead", "brand": "ernestjones"}, "geometry": {"type": "Point", "coordinates": [-0.7227, 51.5225]}},
{"type": "Feature", "id": "pP5b1MttHI-Gxt2eLmsjgq_6TaQ=", "properties": {"ref": "3226", "@spider": "signet_jewelers", "addr:full": "10 Central Square", "addr:city": "Epsom", "addr:postcode": "KT18 5DA", "addr:country": "GB", "name": "Epsom", "brand": "ernestjones"}, "geometry": {"type": "Point", "coordinates": [-0.269, 51.3325]}},
{"type": "Feature", "id": "r7TWJepcb_noG8yWLCRCawj9PDA=", "properties": {"ref": "3217", "@spider": "signet_jewelers", "addr:full": "30 The Mall", "addr:city": "Bexleyheath", "addr:postcode": "DA6 7JJ", "addr:country": "GB", "name": "Bexley Heath", "brand": "ernestjones"}, "geometry": {"type": "Point", "coordinates": [0.1462, 51.4558]}},
{"type": "Feature", "id": "jRaFmOj1fmIsyaB7GSM3lRTKA-s=", "properties": {"ref": "3448", "@spider": "signet_jewelers", "addr:full": "44 Friars Square Shopping Centre", "addr:city": "Aylesbury", "addr:postcode": "HP20 2GF", "addr:country": "GB", "name": "Aylesbury", "brand": "ernestjones"}, "geometry": {"type": "Point", "coordinates": [-0.8095, 51.8277]}},
{"type": "Feature", "id": "zTUKi8-25WJL5I7WUz3oA_hUw-A=", "properties": {"ref": "3296", "@spider": "signet_jewelers", "addr:full": "339 Lakeside Centre", "addr:city": "Thurrock", "addr:postcode": "RM20 2ZH", "addr:country": "GB", "name": "Thurrock", "brand": "ernestjones"}, "geometry": {"type": "Point", "coordinates": [0.2838, 51.4874]}},
{"type": "Feature", "id": "h7ZpbOybgpkm_enXyl-wG1dVvCk=", "properties": {"ref": "3496", "@spider": "signet_jewelers", "addr:full": "Unit 5R 2 Braccan Walk", "addr:city": "Bracknell", "addr:postcode": "RG12 1BE", "addr:country": "GB", "name": "Bracknell", "brand": "ernestjones"}, "geometry": {"type": "Point", "coordinates": [-0.7503, 51.4169]}},
{"type": "Feature", "id": "vQfAdqXyLILv8YY4yBvd0B7g67s=", "properties": {"ref": "3348", "@spider": "signet_jewelers", "addr:full": "Unit L037", "addr:city": "Greenhithe", "addr:postcode": "DA9 9SH", "addr:country": "GB", "name": "Bluewater", "brand": "ernestjones"}, "geometry": {"type": "Point", "coordinates": [0.2721, 51.439]}},
{"type": "Feature", "id": "51E4GCw3HYRpsJd_3iPgbAMznLI=", "properties": {"ref": "3195", "@spider": "signet_jewelers", "addr:full": "14 Cambridge Walk", "addr:city": "Camberley", "addr:postcode": "GU15 3SW", "addr:country": "GB", "name": "Camberley", "brand": "ernestjones"}, "geometry": {"type": "Point", "coordinates": [-0.7465, 51.3376]}},
{"type": "Feature", "id": "YRN2am1yHXx0gU_yGhoDYNXt-CQ=", "properties": {"ref": "4143", "@spider": "signet_jewelers", "addr:full": "35 Harvey Centre", "addr:city": "Harlow", "addr:postcode": "CM20 1XP", "addr:country": "GB", "name": "Harlow", "brand": "hsamuel"}, "geometry": {"type": "Point", "coordinates": [0.092, 51.7689]}},
{"type": "Feature", "id": "UNAeCSmMqtWbltut6i2Svnvbuxo=", "properties": {"ref": "4524", "@spider": "signet_jewelers", "addr:full": "19 Queensmere Ctr", "addr:city": "Slough", "addr:postcode": "SL1 1DB", "addr:country": "GB", "name": "Slough Queensmere", "brand": "hsamuel"}, "geometry": {"type": "Point", "coordinates": [-0.5907, 51.5087]}},
{"type": "Feature", "id": "r_iafbqm3eegJgAkxihEoydtGPk=", "properties": {"ref": "4185", "@spider": "signet_jewelers", "addr:full": "1A-2 Riverdale Centre", "addr:city": "Lewisham", "addr:postcode": "SE13 7EP", "addr:country": "GB", "name": "Lewisham", "brand": "hsamuel"}, "geometry": {"type": "Point", "coordinates": [-0.0121, 51.4617]}},
{"type": "Feature", "id": "-oVcZJC2y6IrObngcsv4sYhdQYs=", "properties": {"ref": "4657", "@spider": "signet_jewelers", "addr:full": "Unit 24 Gallions Reach", "addr:city": "Beckton", "addr:postcode": "E6 7ER", "addr:country": "GB", "name": "Beckton", "brand": "hsamuel"}, "geometry": {"type": "Point", "coordinates": [0.0806, 51.5171]}},
{"type": "Feature", "id": "H_6OQVz5KRD6jBrV97E111bjx8w=", "properties": {"ref": "4369", "@spider": "signet_jewelers", "addr:full": "40-42 Powis Street", "addr:city": "Woolwich", "addr:postcode": "SE18 6LQ", "addr:country": "GB", "name": "Woolwich", "brand": "hsamuel"}, "geometry": {"type": "Point", "coordinates": [0.0663, 51.4916]}},
{"type": "Feature", "id": "7oKSt6QRpRL_rm0OVNBZcQ_YdzM=", "properties": {"ref": "4332", "@spider": "signet_jewelers", "addr:full": "1 & 2 Elmsleigh Centre", "addr:city": "Staines Upon Thames", "addr:postcode": "TW18 4QB", "addr:country": "GB", "name": "Staines", "brand": "hsamuel"}, "geometry": {"type": "Point", "coordinates": [-0.5098, 51.4334]}},
{"type": "Feature", "id": "uUteDvJ2k1x94JWGZ5Ar311CXFQ=", "properties": {"ref": "4521", "@spider": "signet_jewelers", "addr:full": "11 The Liberty", "addr:city": "Romford", "addr:postcode": "RM1 3RL", "addr:country": "GB", "name": "Romford Liberty", "brand": "hsamuel"}, "geometry": {"type": "Point", "coordinates": [0.1837, 51.5783]}},
{"type": "Feature", "id": "zzMtKtTbarrx29MlvCKQ6F3fiGU=", "properties": {"ref": "4336", "@spider": "signet_jewelers", "addr:full": "128 High Street", "addr:city": "Sutton", "addr:postcode": "SM1 1LU", "addr:country": "GB", "name": "Sutton", "brand": "hsamuel"}, "geometry": {"type": "Point", "coordinates": [-0.1931, 51.3635]}},
{"type": "Feature", "id": "SIIjOvzahcSqJbMy9l-2sT_8G8I=", "properties": {"ref": "4049", "@spider": "signet_jewelers", "addr:full": "37-38 The Mall", "addr:city": "Croydon", "addr:postcode": "CR0 1UP", "addr:country": "GB", "name": "Croydon Whitgift", "brand": "hsamuel"}, "geometry": {"type": "Point", "coordinates": [-0.1001, 51.3766]}},
{"type": "Feature", "id": "s5mCcFKKxI90EBW1LvLRpbK0f6w=", "properties": {"ref": "4182", "@spider": "signet_jewelers", "addr:full": "61 The Glades Centre", "addr:city": "Bromley", "addr:postcode": "BR1 1DD", "addr:country": "GB", "name": "Bromley Glades", "brand": "hsamuel"}, "geometry": {"type": "Point", "coordinates": [0.0166, 51.4038]}},
{"type": "Feature", "id": "PNhLXeqm-BJk3le9GcXbDG6A_IY=", "properties": {"ref": "4210", "@spider": "signet_jewelers", "addr:full": "39 Nicholsons Walk", "addr:city": "Maidenhead", "addr:postcode": "SL6 1LB", "addr:country": "GB", "name": "Maidenhead", "brand": "hsamuel"}, "geometry": {"type": "Point", "coordinates": [-0.7219, 51.5221]}},
{"type": "Feature", "id": "n149S_hGoxE46vRJo2ScZyNo2EA=", "properties": {"ref": "4120", "@spider": "signet_jewelers", "addr:full": "Unit 61", "addr:city": "Bexleyheath", "addr:postcode": "DA6 7JN", "addr:country": "GB", "name": "Bexley Heath", "brand": "hsamuel"}, "geometry": {"type": "Point", "coordinates": [0.1462, 51.4562]}},
{"type": "Feature", "id": "GrmrVfl2U8ZPSu4SMI_nsji0Iyo=", "properties": {"ref": "4442", "@spider": "signet_jewelers", "addr:full": "35 Friars Square", "addr:city": "Aylesbury", "addr:postcode": "HP20 2SP", "addr:country": "GB", "name": "Aylesbury", "brand": "hsamuel"}, "geometry": {"type": "Point", "coordinates": [-0.8132, 51.8154]}},
{"type": "Feature", "id": "qv5e7IhjzoKxY94wyhC186MIRtI=", "properties": {"ref": "4344", "@spider": "signet_jewelers", "addr:full": "289 Lakeside Ctr", "addr:city": "Thurrock", "addr:postcode": "RM20 2ZH", "addr:country": "GB", "name": "Thurrock", "brand": "hsamuel"}, "geometry": {"type": "Point", "coordinates": [0.2838, 51.4874]}},
{"type": "Feature", "id": "8z-f75KjMR3ZySDCe1VLZj8wAG8=", "properties": {"ref": "4550", "@spider": "signet_jewelers", "addr:full": "21 The Peacock Centre", "addr:city": "Woking", "addr:postcode": "GU21 6GB", "addr:country": "GB", "name": "Woking", "brand": "hsamuel"}, "geometry": {"type": "Point", "coordinates": [-0.561, 51.3197]}},
{"type": "Feature", "id": "8m90qmhhlBn3FSQ1drv8k0sIOjE=", "properties": {"ref": "3117", "@spider": "signet_jewelers", "addr:full": "5 East Gate Centre", "addr:city": "Basildon", "addr:postcode": "SS14 1AF", "addr:country": "GB", "name": "Basildon East Gate", "brand": "ernestjones"}, "geometry": {"type": "Point", "coordinates": [0.4605, 51.5694]}},
{"type": "Feature", "id": "iB3eyj4W29yblxG4w1u7_5lZhJw=", "properties": {"ref": "3341", "@spider": "signet_jewelers", "addr:full": "77/81 High Street", "addr:city": "Guildford", "addr:postcode": "GU1 3DY", "addr:country": "GB", "name": "Guildford", "brand": "ernestjones"}, "geometry": {"type": "Point", "coordinates": [-0.575, 51.2353]}},
{"type": "Feature", "id": "7ldbfZMDEu9O-8uC8yHh1rIIdEQ=", "properties": {"ref": "3474", "@spider": "signet_jewelers", "addr:full": "Unit 38 High Chelmer", "addr:city": "Chelmsford", "addr:postcode": "CM1 1XU", "addr:country": "GB", "name": "Chelmsford", "brand": "ernestjones"}, "geometry": {"type": "Point", "coordinates": [0.4725, 51.7334]}},
{"type": "Feature", "id": "GdcxAOgvB79Uhzbxtwd1_nQKPbY=", "properties": {"ref": "3350", "@spider": "signet_jewelers", "addr:full": "36, Town Mall", "addr:city": "Reading", "addr:postcode": "RG1 2AH", "addr:country": "GB", "name": "Reading Oracle", "brand": "ernestjones"}, "geometry": {"type": "Point", "coordinates": [-0.9708, 51.4538]}},
{"type": "Feature", "id": "Xc_1HLjOvmVFosG9udf85vjNLic=", "properties": {"ref": "3454", "@spider": "signet_jewelers", "addr:full": "Unit B 26-28 Eagle Walk", "addr:city": "Milton Keynes", "addr:postcode": "MK9 3AJ", "addr:country": "GB", "name": "Milton Keynes", "brand": "ernestjones"}, "geometry": {"type": "Point", "coordinates": [-0.7538, 52.0444]}},
{"type": "Feature", "id": "GayHfZYjI9sawIeF-XEkeIc_W0Q=", "properties": {"ref": "3260", "@spider": "signet_jewelers", "addr:full": "81 Silbury Arcade", "addr:city": "Milton Keynes", "addr:postcode": "MK9 3AG", "addr:country": "GB", "name": "Milton Keynes", "brand": "ernestjones"}, "geometry": {"type": "Point", "coordinates": [-0.7575, 52.0434]}},
{"type": "Feature", "id": "50MCE8HhBwchXOfJNP3KlKm5s44=", "properties": {"ref": "3194", "@spider": "signet_jewelers", "addr:full": "15A Silver Street", "addr:city": "Bedford", "addr:postcode": "MK40 1SY", "addr:country": "GB", "name": "Bedford", "brand": "ernestjones"}, "geometry": {"type": "Point", "coordinates": [-0.4679, 52.137]}},
{"type": "Feature", "id": "0Wus4KfE7MmBkzMCBMOHus3uzKA=", "properties": {"ref": "3310", "@spider": "signet_jewelers", "addr:full": "Unit 21 Lower Mall", "addr:city": "Crawley", "addr:postcode": "RH10 1FF", "addr:country": "GB", "name": "Crawley", "brand": "ernestjones"}, "geometry": {"type": "Point", "coordinates": [-0.1857, 51.1135]}},
{"type": "Feature", "id": "hMqYNHbYDDfQu--Q0tSoRaMeumc=", "properties": {"ref": "3466", "@spider": "signet_jewelers", "addr:full": "UNIT 44 LION YARD", "addr:city": "CAMBRIDGE", "addr:postcode": "CB2 3NA", "addr:country": "GB", "name": "Cambridge", "brand": "ernestjones"}, "geometry": {"type": "Point", "coordinates": [0.121, 52.2047]}},
{"type": "Feature", "id": "FAOdj_A-C7NzeKtIEplH6stWbb0=", "properties": {"ref": "3250", "@spider": "signet_jewelers", "addr:full": "52 Grafton Centre", "addr:city": "Cambridge", "addr:postcode": "CB1 1PS", "addr:country": "GB", "name": "Cambridge Grafton", "brand": "ernestjones"}, "geometry": {"type": "Point", "coordinates": [0.1333, 52.2069]}},
{"type": "Feature", "id": "ocy0Uiv9p_t6dYIo59yaO5tSXI0=", "properties": {"ref": "3228", "@spider": "signet_jewelers", "addr:full": "4 Hempstead Valley Centre", "addr:city": "Gillingham", "addr:postcode": "ME7 3PB", "addr:country": "GB", "name": "Hempstead Valley", "brand": "ernestjones"}, "geometry": {"type": "Point", "coordinates": [0.573, 51.3416]}},
{"type": "Feature", "id": "brw30lNtJnhunb6ygq1iRpltjRo=", "properties": {"ref": "3372", "@spider": "signet_jewelers", "addr:full": "Unit 243", "addr:city": "Tunbridge Wells", "addr:postcode": "TN1 2SS", "addr:country": "GB", "name": "Tunbridge Wells", "brand": "ernestjones"}, "geometry": {"type": "Point", "coordinates": [0.2653, 51.1347]}},
{"type": "Feature", "id": "FqH4DJfuC31oyp78uTJvLVUsslw=", "properties": {"ref": "3012", "@spider": "signet_jewelers", "addr:full": "172 High Street", "addr:city": "Southend", "addr:postcode": "SS1 1JX", "addr:country": "GB", "name": "Southend", "brand": "ernestjones"}, "geometry": {"type": "Point", "coordinates": [0.7128, 51.5394]}},
{"type": "Feature", "id": "BJ0voWISf5GQrAJbiLnt7ly-_EA=", "properties": {"ref": "4578", "@spider": "signet_jewelers", "addr:full": "L020, Lower Rose Gallery", "addr:city": "Greenhithe", "addr:postcode": "DA9 9SH", "addr:country": "GB", "name": "Bluewater", "brand": "hsamuel"}, "geometry": {"type": "Point", "coordinates": [0.2721, 51.439]}},
{"type": "Feature", "id": "tes6t2aZXC19KTw-gbFd9F4wSbY=", "properties": {"ref": "4592", "@spider": "signet_jewelers", "addr:full": "Unit 21", "addr:city": "Redhill", "addr:postcode": "RH1 1SA", "addr:country": "GB", "name": "Redhill", "brand": "hsamuel"}, "geometry": {"type": "Point", "coordinates": [-0.1695, 51.2395]}},
{"type": "Feature", "id": "O5cbMSG4hpBiPKFteoTa2fLpBng=", "properties": {"ref": "4461", "@spider": "signet_jewelers", "addr:full": "Unit 7", "addr:city": "Camberley", "addr:postcode": "GU15 3SL", "addr:country": "GB", "name": "Camberley", "brand": "hsamuel"}, "geometry": {"type": "Point", "coordinates": [-0.7462, 51.338]}},
{"type": "Feature", "id": "E9cMXdISsVDUo6x8Z-pD_fC4ZE8=", "properties": {"ref": "4026", "@spider": "signet_jewelers", "addr:full": "104 Town Square", "addr:city": "Basildon", "addr:postcode": "SS14 1BX", "addr:country": "GB", "name": "Basildon", "brand": "hsamuel"}, "geometry": {"type": "Point", "coordinates": [0.4588, 51.5699]}},
{"type": "Feature", "id": "mNik1XaNmt8WwPfvSxCUPIEgAec=", "properties": {"ref": "4133", "@spider": "signet_jewelers", "addr:full": "12 White Lion Walk", "addr:city": "Guildford", "addr:postcode": "GU1 3DN", "addr:country": "GB", "name": "Guildford White Lion", "brand": "hsamuel"}, "geometry": {"type": "Point", "coordinates": [-0.5755, 51.2358]}},
{"type": "Feature", "id": "gyU7XT1ho_KC-BbI9cnSlJ4mu-0=", "properties": {"ref": "4468", "@spider": "signet_jewelers", "addr:full": "81 High Street", "addr:city": "Chelmsford", "addr:postcode": "CM1 1DX", "addr:country": "GB", "name": "Chelmsford", "brand": "hsamuel"}, "geometry": {"type": "Point", "coordinates": [0.4733, 51.7338]}},
{"type": "Feature", "id": "kLvlwyd0AaO4VCk7gaJ5uykmMcY=", "properties": {"ref": "4108", "@spider": "signet_jewelers", "addr:full": "Unit 5", "addr:city": "Farnborough", "addr:postcode": "GU14 6YA", "addr:country": "GB", "name": "Farnborough", "brand": "hsamuel"}, "geometry": {"type": "Point", "coordinates": [-0.7579, 51.2918]}},
{"type": "Feature", "id": "m-UeFE_TeuxkzOdB_nGcSx6U3ec=", "properties": {"ref": "4581", "@spider": "signet_jewelers", "addr:full": "14, Holly Brook Mall", "addr:city": "Reading", "addr:postcode": "RG1 2AQ", "addr:country": "GB", "name": "Reading Oracle", "brand": "hsamuel"}, "geometry": {"type": "Point", "coordinates": [-0.9719, 51.4535]}},
{"type": "Feature", "id": "QBAjJjItY3XCEPVCP8iVL_-HPuc=", "properties": {"ref": "4218", "@spider": "signet_jewelers", "addr:full": "11 Crown Walk", "addr:city": "Milton Keynes", "addr:postcode": "MK9 3AH", "addr:country": "GB", "name": "Milton Keynes", "brand": "hsamuel"}, "geometry": {"type": "Point", "coordinates": [-0.7559, 52.0434]}},
{"type": "Feature", "id": "NYx94WoRJrNzEM0CXb4646LXJhc=", "properties": {"ref": "4025", "@spider": "signet_jewelers", "addr:full": "31 Midland Road", "addr:city": "Bedford", "addr:postcode": "MK40 1PL", "addr:country": "GB", "name": "Bedford", "brand": "hsamuel"}, "geometry": {"type": "Point", "coordinates": [-0.4692, 52.1368]}},
{"type": "Feature", "id": "Bwbche3PwMo4dpjlQzrEH_tWl_o=", "properties": {"ref": "4576", "@spider": "signet_jewelers", "addr:full": "Unit 7, County Mall", "addr:city": "Crawley", "addr:postcode": "RH10 1FF", "addr:country": "GB", "name": "Crawley", "brand": "hsamuel"}, "geometry": {"type": "Point", "coordinates": [-0.1857, 51.1135]}},
{"type": "Feature", "id": "THVVB2IZElUsI93mIxucBIpKr5c=", "properties": {"ref": "4266", "@spider": "signet_jewelers", "addr:full": "50 Bank Street", "addr:city": "Essex", "addr:postcode": "CM7 1UR", "addr:country": "GB", "name": "Braintree", "brand": "hsamuel"}, "geometry": {"type": "Point", "coordinates": [0.5512, 51.8788]}},
{"type": "Feature", "id": "-6YSC8t0gkS6tP1QGsDG8Kwip8g=", "properties": {"ref": "4064", "@spider": "signet_jewelers", "addr:full": "2-4 Military Road", "addr:city": "Chatham", "addr:postcode": "ME4 4JA", "addr:country": "GB", "name": "Chatham", "brand": "hsamuel"}, "geometry": {"type": "Point", "coordinates": [0.5245, 51.3837]}},
{"type": "Feature", "id": "FEFI7CVBbNxnDiKlDbs2qMixUbA=", "properties": {"ref": "4050", "@spider": "signet_jewelers", "addr:full": "20 Crown Walk Centre", "addr:city": "Bicester", "addr:postcode": "OX26 6HY", "addr:country": "GB", "name": "Bicester", "brand": "hsamuel"}, "geometry": {"type": "Point", "coordinates": [-1.1516, 51.8973]}},
{"type": "Feature", "id": "kkYrfSgbrEMa1hM4Zh6grRLLDd0=", "properties": {"ref": "3435", "@spider": "signet_jewelers", "addr:full": "5 Fremlin Walk", "addr:city": "Maidstone", "addr:postcode": "ME14 1QG", "addr:country": "GB", "name": "Maidstone", "brand": "ernestjones"}, "geometry": {"type": "Point", "coordinates": [0.5209, 51.2751]}},
{"type": "Feature", "id": "mXTvkc4v3PCauivg3cnFU02zojI=", "properties": {"ref": "3505", "@spider": "signet_jewelers", "addr:full": "Unit 44", "addr:city": "Oxford", "addr:postcode": "OX1 1PE", "addr:country": "GB", "name": "Oxford", "brand": "ernestjones"}, "geometry": {"type": "Point", "coordinates": [-1.2637, 51.7523]}},
{"type": "Feature", "id": "yTf10My_kCkzRHIeUbrF2RYilak=", "properties": {"ref": "3410", "@spider": "signet_jewelers", "addr:full": "Unit 17", "addr:city": "Basingstoke", "addr:postcode": "RG21 7BE", "addr:country": "GB", "name": "Basingstoke", "brand": "ernestjones"}, "geometry": {"type": "Point", "coordinates": [-1.0857, 51.2654]}},
{"type": "Feature", "id": "1Pb-7TYxGNXMekbo7xAG-kYEtCI=", "properties": {"ref": "3182", "@spider": "signet_jewelers", "addr:full": "25 Newland Walk", "addr:city": "Northampton", "addr:postcode": "NN1 2EB", "addr:country": "GB", "name": "Northampton Grosvenor", "brand": "ernestjones"}, "geometry": {"type": "Point", "coordinates": [-0.8949, 52.2387]}},
{"type": "Feature", "id": "KorBQDWKw1pI_qDaBCVBWUzLkh4=", "properties": {"ref": "3051", "@spider": "signet_jewelers", "addr:full": "25 Northbrook Street", "addr:city": "Newbury", "addr:postcode": "RG14 1DJ", "addr:country": "GB", "name": "Newbury", "brand": "ernestjones"}, "geometry": {"type": "Point", "coordinates": [-1.3243, 51.4031]}},
{"type": "Feature", "id": "JoDCJHplRtGDQKe6IaTnAIyfyMA=", "properties": {"ref": "3174", "@spider": "signet_jewelers", "addr:full": "1 Shewell Walk", "addr:city": "Colchester", "addr:postcode": "CO1 1WG", "addr:country": "GB", "name": "Colchester", "brand": "ernestjones"}, "geometry": {"type": "Point", "coordinates": [0.898, 51.8887]}},
{"type": "Feature", "id": "rJd5X58C4T4r0ce385G9KLkH3Mk=", "properties": {"ref": "3149", "@spider": "signet_jewelers", "addr:full": "Unit 20A", "addr:city": "Banbury", "addr:postcode": "OX16 5UH", "addr:country": "GB", "name": "Banbury", "brand": "ernestjones"}, "geometry": {"type": "Point", "coordinates": [-1.3348, 52.0627]}},
{"type": "Feature", "id": "YVmITu-icjsROl2c2EsRutk8IUg=", "properties": {"ref": "3335", "@spider": "signet_jewelers", "addr:full": "Unit 26-27, Churchill Square", "addr:city": "Brighton", "addr:postcode": "BN1 2TD", "addr:country": "GB", "name": "Brighton", "brand": "ernestjones"}, "geometry": {"type": "Point", "coordinates": [-0.1464, 50.8231]}},
{"type": "Feature", "id": "Lo253qyY9CYu4DiZMnTVW_jnXPQ=", "properties": {"ref": "3419", "@spider": "signet_jewelers", "addr:full": "33-34 Cornhill", "addr:city": "Bury St Edmunds", "addr:postcode": "IP33 1DY", "addr:country": "GB", "name": "Bury St Edmunds", "brand": "ernestjones"}, "geometry": {"type": "Point", "coordinates": [0.7117, 52.2462]}},
{"type": "Feature", "id": "_DSmanPJ4v1CDa-rYfFgxNKHR0k=", "properties": {"ref": "3298", "@spider": "signet_jewelers", "addr:full": "42 Chantry Way", "addr:city": "Andover", "addr:postcode": "SP10 1LZ", "addr:country": "GB", "name": "Andover", "brand": "ernestjones"}, "geometry": {"type": "Point", "coordinates": [-1.4805, 51.2086]}},
{"type": "Feature", "id": "x-2hFdSTr1qacNGbAGVR5yQ-Fwc=", "properties": {"ref": "3497", "@spider": "signet_jewelers", "addr:full": "30 East Street", "addr:city": "Chichester", "addr:postcode": "PO19 1HS", "addr:country": "GB", "name": "Chichester", "brand": "ernestjones"}, "geometry": {"type": "Point", "coordinates": [-0.7766, 50.8364]}},
{"type": "Feature", "id": "IKboQQfqUPXOPbrqeH1l_gA37D4=", "properties": {"ref": "4048", "@spider": "signet_jewelers", "addr:full": "34 Lion Yard", "addr:city": "Cambridge", "addr:postcode": "CB2 3NA", "addr:country": "GB", "name": "Cambridge", "brand": "hsamuel"}, "geometry": {"type": "Point", "coordinates": [0.121, 52.2047]}},
{"type": "Feature", "id": "c4Ciazr6m1qwVuc67Jn3qLvK-Vw=", "properties": {"ref": "4148", "@spider": "signet_jewelers", "addr:full": "18 Hempstead Valley Centre", "addr:city": "Gillingham", "addr:postcode": "ME7 3PB", "addr:country": "GB", "name": "Hempstead Valley", "brand": "hsamuel"}, "geometry": {"type": "Point", "coordinates": [0.573, 51.3416]}},
{"type": "Feature", "id": "noVm9W-jq7SKE51HsAXHxhuVOAE=", "properties": {"ref": "4322", "@spider": "signet_jewelers", "addr:full": "253-255 Victoria Plaza", "addr:city": "Southend", "addr:postcode": "SS2 5SA", "addr:country": "GB", "name": "Southend", "brand": "hsamuel"}, "geometry": {"type": "Point", "coordinates": [0.7121, 51.5406]}},
{"type": "Feature", "id": "y4hPC6PRdJ46Eh0U53Pukxbn4R0=", "properties": {"ref": "4217", "@spider": "signet_jewelers", "addr:full": "312 Dukes Walk", "addr:city": "Maidstone", "addr:postcode": "ME15 6AS", "addr:country": "GB", "name": "Maidstone Chequers", "brand": "hsamuel"}, "geometry": {"type": "Point", "coordinates": [0.5254, 51.2728]}},
{"type": "Feature", "id": "XS_8hvxcXPxxR23hCP0SDN1Njq8=", "properties": {"ref": "4450", "@spider": "signet_jewelers", "addr:full": "24 Bury Street", "addr:city": "Abingdon", "addr:postcode": "OX14 3QT", "addr:country": "GB", "name": "Abingdon", "brand": "hsamuel"}, "geometry": {"type": "Point", "coordinates": [-1.2832, 51.6711]}},
{"type": "Feature", "id": "0_gsTwOQRM_OAivx6z6HuySPExQ=", "properties": {"ref": "4183", "@spider": "signet_jewelers", "addr:full": "28 Mayfair Houses", "addr:city": "Basingstoke", "addr:postcode": "RG21 7JY", "addr:country": "GB", "name": "Basingstoke", "brand": "hsamuel"}, "geometry": {"type": "Point", "coordinates": [-1.087, 51.2652]}},
{"type": "Feature", "id": "5E6wtW1TN9joxeJGC63b4NWCEXc=", "properties": {"ref": "4128", "@spider": "signet_jewelers", "addr:full": "Unit C", "addr:city": "Huntingdon", "addr:postcode": "PE29 3PN", "addr:country": "GB", "name": "Huntingdon", "brand": "hsamuel"}, "geometry": {"type": "Point", "coordinates": [-0.1834, 52.3297]}},
{"type": "Feature", "id": "QasuiEzlYBRZZAlofWAXc5XpGqk=", "properties": {"ref": "4279", "@spider": "signet_jewelers", "addr:full": "Unit21, Weston Favell Shopping Centre", "addr:city": "Northampton", "addr:postcode": "NN3 8JZ", "addr:country": "GB", "name": "Weston Favell", "brand": "hsamuel"}, "geometry": {"type": "Point", "coordinates": [-0.8355, 52.257]}},
{"type": "Feature", "id": "wlg_TTWJ4LJgQo4SCA_zl_7eGdY=", "properties": {"ref": "4229", "@spider": "signet_jewelers", "addr:full": "3-4 The Drapery", "addr:city": "Northampton", "addr:postcode": "NN1 2ET", "addr:country": "GB", "name": "Northampton", "brand": "hsamuel"}, "geometry": {"type": "Point", "coordinates": [-0.8975, 52.2371]}},
{"type": "Feature", "id": "HTfgUj7fdxQfpG__pVBrGIWdn84=", "properties": {"ref": "4503", "@spider": "signet_jewelers", "addr:full": "8-10 Wood Street", "addr:city": "Northampton", "addr:postcode": "NN1 2ED", "addr:country": "GB", "name": "Northampton Grosvenor", "brand": "hsamuel"}, "geometry": {"type": "Point", "coordinates": [-0.8939, 52.2387]}},
{"type": "Feature", "id": "alSoCP4i9InaH96em49E4miAvXc=", "properties": {"ref": "4062", "@spider": "signet_jewelers", "addr:full": "1 Trinity Square", "addr:city": "Colchester", "addr:postcode": "CO1 1JR", "addr:country": "GB", "name": "Colchester", "brand": "hsamuel"}, "geometry": {"type": "Point", "coordinates": [0.8997, 51.8891]}},
{"type": "Feature", "id": "tQk-K_JZQEjgOXm9lSGNHzX754g=", "properties": {"ref": "3078", "@spider": "signet_jewelers", "addr:full": "123 - 124 High Street", "addr:city": "Winchester", "addr:postcode": "SO23 9AS", "addr:country": "GB", "name": "Winchester", "brand": "ernestjones"}, "geometry": {"type": "Point", "coordinates": [-1.314, 51.0625]}},
{"type": "Feature", "id": "3ANJNCMEBgy86nyH_NhlJpthCuo=", "properties": {"ref": "3017", "@spider": "signet_jewelers", "addr:full": "Unit 15", "addr:city": "Peterborough", "addr:postcode": "PE1 1NH", "addr:country": "GB", "name": "Peterborough Queensgate", "brand": "ernestjones"}, "geometry": {"type": "Point", "coordinates": [-0.2438, 52.5734]}},
{"type": "Feature", "id": "qP8MdVvkcsYW7i9zPV6pmTWV6CI=", "properties": {"ref": "3014", "@spider": "signet_jewelers", "addr:full": "Unit 91", "addr:city": "Peterborough", "addr:postcode": "PE1 1NS", "addr:country": "GB", "name": "Peterborough Queensgate", "brand": "ernestjones"}, "geometry": {"type": "Point", "coordinates": [-0.2448, 52.5739]}},
{"type": "Feature", "id": "vPKfRBCzOoC54o32gKmwnpiBdPM=", "properties": {"ref": "3433", "@spider": "signet_jewelers", "addr:full": "14 Whitefriars Street", "addr:city": "Canterbury", "addr:postcode": "CT1 2TB", "addr:country": "GB", "name": "Canterbury", "brand": "ernestjones"}, "geometry": {"type": "Point", "coordinates": [1.0827, 51.2771]}},
{"type": "Feature", "id": "Bj-kYl6hrPj8T2OexzPnJlZ1iJM=", "properties": {"ref": "3290", "@spider": "signet_jewelers", "addr:full": "26 Regent Street", "addr:city": "Swindon", "addr:postcode": "SN1 1JL", "addr:country": "GB", "name": "Swindon", "brand": "ernestjones"}, "geometry": {"type": "Point", "coordinates": [-1.7829, 51.56]}},
{"type": "Feature", "id": "cEmRuefXzKGQy6XdN8-b4nnaIcY=", "properties": {"ref": "3072", "@spider": "signet_jewelers", "addr:full": "Unit 26 The Mall", "addr:city": "Eastbourne", "addr:postcode": "BN21 3NW", "addr:country": "GB", "name": "Eastbourne", "brand": "ernestjones"}, "geometry": {"type": "Point", "coordinates": [0.2854, 50.7692]}},
{"type": "Feature", "id": "Ecw-4zToTxGBc37nh-Q6uuQ2vac=", "properties": {"ref": "3393", "@spider": "signet_jewelers", "addr:full": "11 Kings Walk", "addr:city": "Hastings", "addr:postcode": "TN34 1PH", "addr:country": "GB", "name": "Hastings", "brand": "ernestjones"}, "geometry": {"type": "Point", "coordinates": [0.5806, 50.857]}},
{"type": "Feature", "id": "_7BVqe41pmu1SuNpwJpmE-2xzec=", "properties": {"ref": "3230", "@spider": "signet_jewelers", "addr:full": "Unit 13", "addr:city": "Ipswich", "addr:postcode": "IP1 3BB", "addr:country": "GB", "name": "Ipswich", "brand": "ernestjones"}, "geometry": {"type": "Point", "coordinates": [1.1544, 52.0584]}},
{"type": "Feature", "id": "-GokG49QLI9CyHarPwHS2Pjhtys=", "properties": {"ref": "3204", "@spider": "signet_jewelers", "addr:full": "38a -38b Swan Centre", "addr:city": "Eastleigh", "addr:postcode": "SO50 5SG", "addr:country": "GB", "name": "Eastleigh", "brand": "ernestjones"}, "geometry": {"type": "Point", "coordinates": [-1.3534, 50.9668]}},
{"type": "Feature", "id": "oxVLxzzLO4RByynbOPfSosJ5EqE=", "properties": {"ref": "3482", "@spider": "signet_jewelers", "addr:full": "Unit E9B Whiteley Shopping Centre", "addr:city": "Fareham", "addr:postcode": "PO15 7PD", "addr:country": "GB", "name": "Fareham Whiteley", "brand": "ernestjones"}, "geometry": {"type": "Point", "coordinates": [-1.246, 50.8852]}},
{"type": "Feature", "id": "_9LE0q7smTJWqYeNrhUlWpayVPA=", "properties": {"ref": "3036", "@spider": "signet_jewelers", "addr:full": "3 Westbury Mall", "addr:city": "Fareham", "addr:postcode": "PO16 0PE", "addr:country": "GB", "name": "Fareham", "brand": "ernestjones"}, "geometry": {"type": "Point", "coordinates": [-1.1782, 50.8528]}},
{"type": "Feature", "id": "6BHwiTjeb086cNhPLuRlAT_HpDE=", "properties": {"ref": "3275", "@spider": "signet_jewelers", "addr:full": "Unit 51", "addr:city": "Portsmouth", "addr:postcode": "PO1 4RJ", "addr:country": "GB", "name": "Portsmouth", "brand": "ernestjones"}, "geometry": {"type": "Point", "coordinates": [-1.0903, 50.8013]}},
{"type": "Feature", "id": "fW4tym8zs2IflHxpQ-hEWg9f97A=", "properties": {"ref": "3157", "@spider": "signet_jewelers", "addr:full": "3 Upper Mall", "addr:city": "Leamington Spa", "addr:postcode": "CV32 4XT", "addr:country": "GB", "name": "Leamington Spa", "brand": "ernestjones"}, "geometry": {"type": "Point", "coordinates": [-1.5343, 52.2913]}},
{"type": "Feature", "id": "wfAM_pBfVH9XnV-aeoofZ4dDDV8=", "properties": {"ref": "3508", "@spider": "signet_jewelers", "addr:full": "Unit 17 Vernon Avenue", "addr:city": "Portsmouth", "addr:postcode": "PO1 3TR", "addr:country": "GB", "name": "Gunwharf Quays Outlet", "brand": "ernestjones"}, "geometry": {"type": "Point", "coordinates": [-1.1075, 50.7956]}},
{"type": "Feature", "id": "rg_fm1NF8XGlTFQ_Ug457bS9RYE=", "properties": {"ref": "3353", "@spider": "signet_jewelers", "addr:full": "Unit 17 Upper Level", "addr:city": "Southampton", "addr:postcode": "SO15 1QD", "addr:country": "GB", "name": "Southampton Westquay", "brand": "ernestjones"}, "geometry": {"type": "Point", "coordinates": [-1.406, 50.9036]}},
{"type": "Feature", "id": "mIWNW9yDHXgX9nmOTs-Uown4z94=", "properties": {"ref": "3099", "@spider": "signet_jewelers", "addr:full": "Ramp Development", "addr:city": "Coventry", "addr:postcode": "CV1 1DE", "addr:country": "GB", "name": "Coventry", "brand": "ernestjones"}, "geometry": {"type": "Point", "coordinates": [-1.5117, 52.4083]}},
{"type": "Feature", "id": "wXbH3J3XhJijzoTRG7WKh2UUEUk=", "properties": {"ref": "3434", "@spider": "signet_jewelers", "addr:full": "Unit 10", "addr:city": "Thanet", "addr:postcode": "CT10 2BF", "addr:country": "GB", "name": "Thanet", "brand": "ernestjones"}, "geometry": {"type": "Point", "coordinates": [1.393, 51.3594]}},
{"type": "Feature", "id": "ZqjAcrdnhiBMdj6y8zYZ2RDmbYc=", "properties": {"ref": "3446", "@spider": "signet_jewelers", "addr:full": "Unit LL95", "addr:city": "Leicester", "addr:postcode": "LE1 4FS", "addr:country": "GB", "name": "Leicester", "brand": "ernestjones"}, "geometry": {"type": "Point", "coordinates": [-1.1369, 52.6367]}},
{"type": "Feature", "id": "upOZSFd1K-QtBN2N4XFbsANPjk4=", "properties": {"ref": "3237", "@spider": "signet_jewelers", "addr:full": "35 Silver Street", "addr:city": "Salisbury", "addr:postcode": "SP1 2NG", "addr:country": "GB", "name": "Salisbury", "brand": "ernestjones"}, "geometry": {"type": "Point", "coordinates": [-1.7967, 51.0684]}},
{"type": "Feature", "id": "mu0J9UCgnjB1lk2B0n9x9eU0RZM=", "properties": {"ref": "4354", "@spider": "signet_jewelers", "addr:full": "Unit 8", "addr:city": "Witney", "addr:postcode": "OX28 6AP", "addr:country": "GB", "name": "Witney", "brand": "hsamuel"}, "geometry": {"type": "Point", "coordinates": [-1.4845, 51.7849]}},
{"type": "Feature", "id": "tP4eo6p_YbPNOVgjOuR25qO8R3U=", "properties": {"ref": "4640", "@spider": "signet_jewelers", "addr:full": "Unit 62", "addr:city": "Banbury", "addr:postcode": "OX16 5UW", "addr:country": "GB", "name": "Banbury", "brand": "hsamuel"}, "geometry": {"type": "Point", "coordinates": [-1.3338, 52.0631]}},
{"type": "Feature", "id": "3xM63aFRqN5pSiQqGZBkhywHG78=", "properties": {"ref": "4177", "@spider": "signet_jewelers", "addr:full": "12-14 Gold Street", "addr:city": "Kettering", "addr:postcode": "NN16 8JB", "addr:country": "GB", "name": "Kettering", "brand": "hsamuel"}, "geometry": {"type": "Point", "coordinates": [-0.7266, 52.4005]}},
{"type": "Feature", "id": "wuggchOJHavzgEjSOlKStMa54s0=", "properties": {"ref": "4571", "@spider": "signet_jewelers", "addr:full": "44/45 Churchill Square", "addr:city": "Brighton", "addr:postcode": "BN1 2TD", "addr:country": "GB", "name": "Brighton", "brand": "hsamuel"}, "geometry": {"type": "Point", "coordinates": [-0.1464, 50.8231]}},
{"type": "Feature", "id": "WCwWLo3b4DolO6oSjmdViDPGTvE=", "properties": {"ref": "3429", "@spider": "signet_jewelers", "addr:full": "Unit 16", "addr:city": "Nuneaton", "addr:postcode": "CV11 5TZ", "addr:country": "GB", "name": "Nuneaton", "brand": "ernestjones"}, "geometry": {"type": "Point", "coordinates": [-1.4696, 52.5217]}},
{"type": "Feature", "id": "f4kO68ax59K4kkD2gz3_SLOMyig=", "properties": {"ref": "3223", "@spider": "signet_jewelers", "addr:full": "Unit 10 Regent Arcade", "addr:city": "Cheltenham", "addr:postcode": "GL50 1JZ", "addr:country": "GB", "name": "Cheltenham", "brand": "ernestjones"}, "geometry": {"type": "Point", "coordinates": [-2.0748, 51.8994]}},
{"type": "Feature", "id": "Rh3oWK1fArJUL7y6XZFBlf0dwro=", "properties": {"ref": "3162", "@spider": "signet_jewelers", "addr:full": "4 Norfolk Street", "addr:city": "Kings Lynn", "addr:postcode": "PE30 1AR", "addr:country": "GB", "name": "Kings Lynn", "brand": "ernestjones"}, "geometry": {"type": "Point", "coordinates": [0.3962, 52.755]}},
{"type": "Feature", "id": "Chuj---SEzx4m8sZO1ljpD6ke34=", "properties": {"ref": "3374", "@spider": "signet_jewelers", "addr:full": "30 Crescent Arcade", "addr:city": "Solihull", "addr:postcode": "B91 3GZ", "addr:country": "GB", "name": "Solihull", "brand": "ernestjones"}, "geometry": {"type": "Point", "coordinates": [-1.7792, 52.4127]}},
{"type": "Feature", "id": "NqYpCY3g--JWWoS_ACD0foWJnOg=", "properties": {"ref": "3183", "@spider": "signet_jewelers", "addr:full": "6 Northgate Street", "addr:city": "Gloucester", "addr:postcode": "GL1 1SE", "addr:country": "GB", "name": "Gloucester", "brand": "ernestjones"}, "geometry": {"type": "Point", "coordinates": [-2.2454, 51.8654]}},
{"type": "Feature", "id": "7XfJhhIv-QodDOFDVsr8ijdr1qw=", "properties": {"ref": "3412", "@spider": "signet_jewelers", "addr:full": "Unit SU506 Middle Mall", "addr:city": "Birmingham", "addr:postcode": "B5 4BE", "addr:country": "GB", "name": "Birmingham Bull Ring", "brand": "ernestjones"}, "geometry": {"type": "Point", "coordinates": [-1.8943, 52.4775]}},
{"type": "Feature", "id": "Ewu05w0JLpNTox-_q03WUAt7EyE=", "properties": {"ref": "4654", "@spider": "signet_jewelers", "addr:full": "33-34 Cornhill", "addr:city": "Bury St Edmunds", "addr:postcode": "IP33 1DY", "addr:country": "GB", "name": "Bury St Edmunds", "brand": "hsamuel"}, "geometry": {"type": "Point", "coordinates": [0.7117, 52.2462]}},
{"type": "Feature", "id": "PHSXapGOEIfQI-7HRFJ_507D1x4=", "properties": {"ref": "4371", "@spider": "signet_jewelers", "addr:full": "15-19 Montague Street", "addr:city": "Worthing", "addr:postcode": "BN11 3AX", "addr:country": "GB", "name": "Worthing", "brand": "hsamuel"}, "geometry": {"type": "Point", "coordinates": [-0.3706, 50.8102]}},
{"type": "Feature", "id": "ZRJu8T5gNqh2SIyurfA3nD_W8kg=", "properties": {"ref": "4473", "@spider": "signet_jewelers", "addr:full": "47 Corporation Street", "addr:city": "Corby", "addr:postcode": "NN17 1NQ", "addr:country": "GB", "name": "Corby", "brand": "hsamuel"}, "geometry": {"type": "Point", "coordinates": [-0.702, 52.4874]}},
{"type": "Feature", "id": "-GTpldzQ5QVjIAlzMXIYyeyOmME=", "properties": {"ref": "4454", "@spider": "signet_jewelers", "addr:full": "41 County Square", "addr:city": "Ashford", "addr:postcode": "TN23 1YE", "addr:country": "GB", "name": "Ashford", "brand": "hsamuel"}, "geometry": {"type": "Point", "coordinates": [0.8706, 51.149]}},
{"type": "Feature", "id": "n7OdfWf1U9BSrvH0NrZvUoaEfmg=", "properties": {"ref": "4452", "@spider": "signet_jewelers", "addr:full": "46 High Street", "addr:city": "Andover", "addr:postcode": "SP10 1NF", "addr:country": "GB", "name": "Andover", "brand": "hsamuel"}, "geometry": {"type": "Point", "coordinates": [-1.4789, 51.208]}},
{"type": "Feature", "id": "GEXq_wujvJR1pQB2ESSLWjiz3tQ=", "properties": {"ref": "4469", "@spider": "signet_jewelers", "addr:full": "18 North Street", "addr:city": "Chichester", "addr:postcode": "PO19 1LB", "addr:country": "GB", "name": "Chichester", "brand": "hsamuel"}, "geometry": {"type": "Point", "coordinates": [-0.779, 50.8373]}},
{"type": "Feature", "id": "J3FRqX0xUXsWf1PBhy6b78e-S0Q=", "properties": {"ref": "4582", "@spider": "signet_jewelers", "addr:full": "Unit 15B Serpentine Green Shopping Centre", "addr:city": "Peterborough", "addr:postcode": "PE7 8BE", "addr:country": "GB", "name": "Peterborough Serpentine", "brand": "hsamuel"}, "geometry": {"type": "Point", "coordinates": [-0.2625, 52.5401]}},
{"type": "Feature", "id": "C3Yc5f83NsOGN0JmfZhcjbBgIhk=", "properties": {"ref": "4460", "@spider": "signet_jewelers", "addr:full": "11 London Road", "addr:city": "Bognor Regis", "addr:postcode": "PO21 1PQ", "addr:country": "GB", "name": "Bognor Regis", "brand": "hsamuel"}, "geometry": {"type": "Point", "coordinates": [-0.6735, 50.7846]}},
{"type": "Feature", "id": "s8AhXXrd7rxrFl2uzc2R7AMJXkg=", "properties": {"ref": "4267", "@spider": "signet_jewelers", "addr:full": "47 Queensgate Centre", "addr:city": "Peterborough", "addr:postcode": "PE1 1NH", "addr:country": "GB", "name": "Peterborough Queensgate", "brand": "hsamuel"}, "geometry": {"type": "Point", "coordinates": [-0.2438, 52.5734]}},
{"type": "Feature", "id": "4kjv2CHRndxkgYxkPibi_mNVGRw=", "properties": {"ref": "4656", "@spider": "signet_jewelers", "addr:full": "Unit 18", "addr:city": "Canterbury", "addr:postcode": "CT1 2TF", "addr:country": "GB", "name": "Canterbury", "brand": "hsamuel"}, "geometry": {"type": "Point", "coordinates": [1.0806, 51.2768]}},
{"type": "Feature", "id": "S45zJBsMpQ7hCHM7k2vZqPxK23Y=", "properties": {"ref": "4410", "@spider": "signet_jewelers", "addr:full": "5 Royal George Buildings", "addr:city": "Rugby", "addr:postcode": "CV21 3EA", "addr:country": "GB", "name": "Rugby", "brand": "hsamuel"}, "geometry": {"type": "Point", "coordinates": [-1.262, 52.3727]}},
{"type": "Feature", "id": "otmWLi40ljYOUwt4GX4PstGtSOc=", "properties": {"ref": "4541", "@spider": "signet_jewelers", "addr:full": "14-15 Regent Street", "addr:city": "Swindon", "addr:postcode": "SN1 1JQ", "addr:country": "GB", "name": "Swindon", "brand": "hsamuel"}, "geometry": {"type": "Point", "coordinates": [-1.7844, 51.5609]}},
{"type": "Feature", "id": "fz7kZ78fSlgJP5cbMq2kotM0p_Y=", "properties": {"ref": "4339", "@spider": "signet_jewelers", "addr:full": "13 Brunel Plaza", "addr:city": "Swindon", "addr:postcode": "SN1 1LF", "addr:country": "GB", "name": "Swindon", "brand": "hsamuel"}, "geometry": {"type": "Point", "coordinates": [-1.7863, 51.5605]}},
{"type": "Feature", "id": "BJJK7Ia7rBKUJne74OjH1obR1AI=", "properties": {"ref": "4090", "@spider": "signet_jewelers", "addr:full": "33-34 Arndale Centre", "addr:city": "Eastbourne", "addr:postcode": "BN21 3NW", "addr:country": "GB", "name": "Eastbourne", "brand": "hsamuel"}, "geometry": {"type": "Point", "coordinates": [0.2854, 50.7692]}},
{"type": "Feature", "id": "aWqefaQzolqmLwIHT-UAr0uarlE=", "properties": {"ref": "4259", "@spider": "signet_jewelers", "addr:full": "Kings Walk", "addr:city": "Hastings", "addr:postcode": "TN34 1PH", "addr:country": "GB", "name": "Hastings", "brand": "hsamuel"}, "geometry": {"type": "Point", "coordinates": [0.5806, 50.857]}},
{"type": "Feature", "id": "j1lbDEGb2EMRDL8IUXQVZJoaiug=", "properties": {"ref": "4162", "@spider": "signet_jewelers", "addr:full": "5-5A Westgate Street", "addr:city": "Ipswich", "addr:postcode": "IP1 3DR", "addr:country": "GB", "name": "Ipswich", "brand": "hsamuel"}, "geometry": {"type": "Point", "coordinates": [1.1515, 52.0581]}},
{"type": "Feature", "id": "ZlmekuVLAXORz9sgQ6QbrupWU9A=", "properties": {"ref": "3451", "@spider": "signet_jewelers", "addr:full": "Upper Mall East", "addr:city": "Birmngham", "addr:postcode": "B5 4BG", "addr:country": "GB", "name": "Omega Boutique Bullring", "brand": "ernestjones"}, "geometry": {"type": "Point", "coordinates": [-1.8957, 52.4775]}},
{"type": "Feature", "id": "Mtnx1CVs7rZp9wsQF-uok6w3spQ=", "properties": {"ref": "3413", "@spider": "signet_jewelers", "addr:full": "Unit SU726 Upper Mall", "addr:city": "Birmingham", "addr:postcode": "B5 4BG", "addr:country": "GB", "name": "Birmingham Bull Ring", "brand": "ernestjones"}, "geometry": {"type": "Point", "coordinates": [-1.8957, 52.4775]}},
{"type": "Feature", "id": "8LZiesjt6bmf6NbemZNsfR3XGCw=", "properties": {"ref": "3184", "@spider": "signet_jewelers", "addr:full": "64 High Street", "addr:city": "Worcester", "addr:postcode": "WR1 2EH", "addr:country": "GB", "name": "Worcester", "brand": "ernestjones"}, "geometry": {"type": "Point", "coordinates": [-2.2213, 52.1926]}},
{"type": "Feature", "id": "HeZiWV0nCB7lsx7Z30rHumzzh10=", "properties": {"ref": "3086", "@spider": "signet_jewelers", "addr:full": "29 Stall Street", "addr:city": "Bath", "addr:postcode": "BA1 1QF", "addr:country": "GB", "name": "Bath", "brand": "ernestjones"}, "geometry": {"type": "Point", "coordinates": [-2.3601, 51.38]}},
{"type": "Feature", "id": "Pzf325jfY5ACr3LNXo2AGXNJ4qw=", "properties": {"ref": "3438", "@spider": "signet_jewelers", "addr:full": "203 North Terrace", "addr:city": "Norwich", "addr:postcode": "NR2 1SQ", "addr:country": "GB", "name": "Norwich", "brand": "ernestjones"}, "geometry": {"type": "Point", "coordinates": [1.2898, 52.6258]}},
{"type": "Feature", "id": "nzTe9sHmJKnDnM-ah_zXaLTvNFM=", "properties": {"ref": "3144", "@spider": "signet_jewelers", "addr:full": "28A Old Christchurch Road", "addr:city": "Bournemouth", "addr:postcode": "BH1 1LG", "addr:country": "GB", "name": "Bournemouth", "brand": "ernestjones"}, "geometry": {"type": "Point", "coordinates": [-1.8779, 50.7199]}},
{"type": "Feature", "id": "WQeOLalHnjFlJ3_ChEN8ofIkDiI=", "properties": {"ref": "3203", "@spider": "signet_jewelers", "addr:full": "Unit L89, Merry Hill Shopping Centre", "addr:city": "West Midlands", "addr:postcode": "DY5 1QX", "addr:country": "GB", "name": "Merry Hill", "brand": "ernestjones"}, "geometry": {"type": "Point", "coordinates": [-2.1105, 52.482]}},
{"type": "Feature", "id": "dO4PRTda8llGrkSwQhjgL4OinXc=", "properties": {"ref": "3188", "@spider": "signet_jewelers", "addr:full": "139 Victoria Centre", "addr:city": "Nottingham", "addr:postcode": "NG1 3QE", "addr:country": "GB", "name": "Nottingham Victoria", "brand": "ernestjones"}, "geometry": {"type": "Point", "coordinates": [-1.1476, 52.9574]}},
{"type": "Feature", "id": "IrNc6G52skvZpFAnhaOMk-CUQM8=", "properties": {"ref": "3191", "@spider": "signet_jewelers", "addr:full": "1 St Modwens Walk", "addr:city": "Burton On Trent", "addr:postcode": "DE14 1HL", "addr:country": "GB", "name": "Burton On Trent", "brand": "ernestjones"}, "geometry": {"type": "Point", "coordinates": [-1.6316, 52.8018]}},
{"type": "Feature", "id": "jken_uWtlVMAztBmdllxcQPh3o8=", "properties": {"ref": "3069", "@spider": "signet_jewelers", "addr:full": "217 - 219 High Street", "addr:city": "Poole", "addr:postcode": "BH15 1BY", "addr:country": "GB", "name": "Poole", "brand": "ernestjones"}, "geometry": {"type": "Point", "coordinates": [-1.9811, 50.7184]}},
{"type": "Feature", "id": "VVBvUM6qjt2w_1R4CIUjqJyFUso=", "properties": {"ref": "3338", "@spider": "signet_jewelers", "addr:full": "Unit 535, Lower Level", "addr:city": "Bristol", "addr:postcode": "BS34 5GG", "addr:country": "GB", "name": "Cribbs Causeway", "brand": "ernestjones"}, "geometry": {"type": "Point", "coordinates": [-2.596, 51.525]}},
{"type": "Feature", "id": "yl8kMYDmPgiXCiN58WsHGy_-79c=", "properties": {"ref": "3443", "@spider": "signet_jewelers", "addr:full": "Unit SU33", "addr:city": "Bristol", "addr:postcode": "BS1 3XB", "addr:country": "GB", "name": "Bristol Cabot Circus", "brand": "ernestjones"}, "geometry": {"type": "Point", "coordinates": [-2.5898, 51.4568]}},
{"type": "Feature", "id": "Z-VPmfJ8gR_HpBdWGrAhzOF8rVw=", "properties": {"ref": "3440", "@spider": "signet_jewelers", "addr:full": "SU215 East Mall", "addr:city": "Derby", "addr:postcode": "DE1 2PQ", "addr:country": "GB", "name": "Derby Westfield", "brand": "ernestjones"}, "geometry": {"type": "Point", "coordinates": [-1.4722, 52.9191]}},
{"type": "Feature", "id": "F_QvQqRV7V6wv-2Keg2o495Gwiw=", "properties": {"ref": "3178", "@spider": "signet_jewelers", "addr:full": "2 - 4 Trinity Square", "addr:city": "Hereford", "addr:postcode": "HR1 2DR", "addr:country": "GB", "name": "Hereford", "brand": "ernestjones"}, "geometry": {"type": "Point", "coordinates": [-2.715, 52.0577]}},
{"type": "Feature", "id": "5rEE0Y6lotN6qpWzbxR6r7rhum4=", "properties": {"ref": "3484", "@spider": "signet_jewelers", "addr:full": "303 High Street", "addr:city": "Lincoln", "addr:postcode": "LN5 7DR", "addr:country": "GB", "name": "Lincoln", "brand": "ernestjones"}, "geometry": {"type": "Point", "coordinates": [-0.5406, 53.228]}},
{"type": "Feature", "id": "1JrIJL_xWpakYRT72KxYeTz5XiA=", "properties": {"ref": "3245", "@spider": "signet_jewelers", "addr:full": "Unit 52", "addr:city": "Mansfield", "addr:postcode": "NG18 1SX", "addr:country": "GB", "name": "Mansfield", "brand": "ernestjones"}, "geometry": {"type": "Point", "coordinates": [-1.1989, 53.1453]}},
{"type": "Feature", "id": "UXmOhsH0DQVpHurwiMSOUIalhH0=", "properties": {"ref": "4154", "@spider": "signet_jewelers", "addr:full": "32 Swan Centre", "addr:city": "Eastleigh", "addr:postcode": "SO50 5SG", "addr:country": "GB", "name": "Eastleigh", "brand": "hsamuel"}, "geometry": {"type": "Point", "coordinates": [-1.3534, 50.9668]}},
{"type": "Feature", "id": "62BASyqXX3j_wzDnUaiqMcZ84f0=", "properties": {"ref": "4107", "@spider": "signet_jewelers", "addr:full": "23 Westbury Square", "addr:city": "Fareham", "addr:postcode": "PO16 0PB", "addr:country": "GB", "name": "Fareham", "brand": "hsamuel"}, "geometry": {"type": "Point", "coordinates": [-1.1773, 50.8528]}},
{"type": "Feature", "id": "yVk7RGhTiCW_eBq8bY4KXKDnsOs=", "properties": {"ref": "4273", "@spider": "signet_jewelers", "addr:full": "145-147 Commercial Road", "addr:city": "Portsmouth", "addr:postcode": "PO1 1EX", "addr:country": "GB", "name": "Portsmouth", "brand": "hsamuel"}, "geometry": {"type": "Point", "coordinates": [-1.0896, 50.8005]}},
{"type": "Feature", "id": "JNVPjx3DQZ-JgnHehVSWZEw3qt4=", "properties": {"ref": "4496", "@spider": "signet_jewelers", "addr:full": "47 The Parade", "addr:city": "Leamington Spa", "addr:postcode": "CV32 4BL", "addr:country": "GB", "name": "Leamington Spa", "brand": "hsamuel"}, "geometry": {"type": "Point", "coordinates": [-1.5354, 52.2916]}},
{"type": "Feature", "id": "o03B0IMz4wJid4MjU-Sac34NN-o=", "properties": {"ref": "4612", "@spider": "signet_jewelers", "addr:full": "Unit 33", "addr:city": "Southampton", "addr:postcode": "SO15 1QE", "addr:country": "GB", "name": "Southampton Westquay", "brand": "hsamuel"}, "geometry": {"type": "Point", "coordinates": [-1.4069, 50.9036]}},
{"type": "Feature", "id": "U-6VdmmjrLr4O0FvWCle1AFw1O4=", "properties": {"ref": "4360", "@spider": "signet_jewelers", "addr:full": "Unit 19", "addr:city": "Wisbech", "addr:postcode": "PE13 1AR", "addr:country": "GB", "name": "Wisbech", "brand": "hsamuel"}, "geometry": {"type": "Point", "coordinates": [0.1618, 52.6658]}},
{"type": "Feature", "id": "ZXsXWdvi06H3ibIF8BKCI85PyRM=", "properties": {"ref": "4475", "@spider": "signet_jewelers", "addr:full": "8 The Precinct", "addr:city": "Coventry", "addr:postcode": "CV1 1DE", "addr:country": "GB", "name": "Coventry", "brand": "hsamuel"}, "geometry": {"type": "Point", "coordinates": [-1.5117, 52.4083]}},
{"type": "Feature", "id": "RJJNhj2_u7e93oOykMxjPEkl6VA=", "properties": {"ref": "3060", "@spider": "signet_jewelers", "addr:full": "2 Gaolgate Street", "addr:city": "Stafford", "addr:postcode": "ST16 2BG", "addr:country": "GB", "name": "Stafford", "brand": "ernestjones"}, "geometry": {"type": "Point", "coordinates": [-2.118, 52.8076]}},
{"type": "Feature", "id": "ICFdHMQ6lATKbRp8iND0szL0elE=", "properties": {"ref": "3025", "@spider": "signet_jewelers", "addr:full": "12-14 Middle Street", "addr:city": "Yeovil", "addr:postcode": "BA20 1LY", "addr:country": "GB", "name": "Yeovil", "brand": "ernestjones"}, "geometry": {"type": "Point", "coordinates": [-2.6305, 50.9411]}},
{"type": "Feature", "id": "yrgZ-JUcDMCAm5jCrC6Im4WbPeA=", "properties": {"ref": "3098", "@spider": "signet_jewelers", "addr:full": "18 Sherwood Street", "addr:city": "Telford", "addr:postcode": "TF3 4BW", "addr:country": "GB", "name": "Telford", "brand": "ernestjones"}, "geometry": {"type": "Point", "coordinates": [-2.4465, 52.6756]}},
{"type": "Feature", "id": "saG94a4ZWW1B6PrJCAVZzUO0wPQ=", "properties": {"ref": "3272", "@spider": "signet_jewelers", "addr:full": "Unit SU16", "addr:city": "Hanley", "addr:postcode": "ST1 1PS", "addr:country": "GB", "name": "Hanley Potteries", "brand": "ernestjones"}, "geometry": {"type": "Point", "coordinates": [-2.1758, 53.0275]}},
{"type": "Feature", "id": "pB9gICGHHEMdnWIboldq0WdhJ7M=", "properties": {"ref": "3146", "@spider": "signet_jewelers", "addr:full": "Unit SU46", "addr:city": "Hanley", "addr:postcode": "ST1 1PS", "addr:country": "GB", "name": "Hanley Potteries", "brand": "ernestjones"}, "geometry": {"type": "Point", "coordinates": [-2.1758, 53.0275]}},
{"type": "Feature", "id": "ipZ5uACYmCb3J3-uuniEITOO8VQ=", "properties": {"ref": "3220", "@spider": "signet_jewelers", "addr:full": "62 Queen Street", "addr:city": "Cardiff", "addr:postcode": "CF10 2GQ", "addr:country": "GB", "name": "Cardiff", "brand": "ernestjones"}, "geometry": {"type": "Point", "coordinates": [-3.1756, 51.4818]}},
{"type": "Feature", "id": "gr2h6T_Z9pOMRgFSfa2WTkXMf8Q=", "properties": {"ref": "3205", "@spider": "signet_jewelers", "addr:full": "Unit 21 Darwin Centre", "addr:city": "Shrewsbury", "addr:postcode": "SY1 1BN", "addr:country": "GB", "name": "Shrewsbury", "brand": "ernestjones"}, "geometry": {"type": "Point", "coordinates": [-2.7526, 52.7096]}},
{"type": "Feature", "id": "I6qZDOLcJWvWL9DklufYbClgpYc=", "properties": {"ref": "4111", "@spider": "signet_jewelers", "addr:full": "37 Sandgate Road", "addr:city": "Folkestone", "addr:postcode": "CT20 1SB", "addr:country": "GB", "name": "Folkestone", "brand": "hsamuel"}, "geometry": {"type": "Point", "coordinates": [1.1805, 51.0795]}},
{"type": "Feature", "id": "UfkeOZQvoBOBkJmxcgK027-fz0s=", "properties": {"ref": "4662", "@spider": "signet_jewelers", "addr:full": "Unit 17", "addr:city": "Thanet", "addr:postcode": "CT10 2BF", "addr:country": "GB", "name": "Thanet", "brand": "hsamuel"}, "geometry": {"type": "Point", "coordinates": [1.393, 51.3594]}},
{"type": "Feature", "id": "7cvO9vnZwB4purOchVfi3o4bZiU=", "properties": {"ref": "4191", "@spider": "signet_jewelers", "addr:full": "7-9 Gallowtree Gate", "addr:city": "Leicester", "addr:postcode": "LE1 5AD", "addr:country": "GB", "name": "Leicester", "brand": "hsamuel"}, "geometry": {"type": "Point", "coordinates": [-1.1328, 52.6354]}},
{"type": "Feature", "id": "DrEbeSyJK9Z3zLAmBm6TwbejJ8s=", "properties": {"ref": "4155", "@spider": "signet_jewelers", "addr:full": "21 Castle Street", "addr:city": "Hinckley", "addr:postcode": "LE10 1DA", "addr:country": "GB", "name": "Hinckley", "brand": "hsamuel"}, "geometry": {"type": "Point", "coordinates": [-1.3699, 52.5417]}},
{"type": "Feature", "id": "38Pk_trgGy-QemSOwQaDfhBrrfc=", "properties": {"ref": "4308", "@spider": "signet_jewelers", "addr:full": "49-51 Old George Mall", "addr:city": "Salisbury", "addr:postcode": "SP1 2AG", "addr:country": "GB", "name": "Salisbury", "brand": "hsamuel"}, "geometry": {"type": "Point", "coordinates": [-1.7959, 51.0675]}},
{"type": "Feature", "id": "ZovVO1wJeeqiTfSDamRjiAK2iFQ=", "properties": {"ref": "4586", "@spider": "signet_jewelers", "addr:full": "9 Riverside Shopping Centre", "addr:city": "Evesham", "addr:postcode": "WR11 4BG", "addr:country": "GB", "name": "Evesham", "brand": "hsamuel"}, "geometry": {"type": "Point", "coordinates": [-1.9466, 52.0917]}},
{"type": "Feature", "id": "Jdle2pugAgJKBbkGg4WVMEeleZ0=", "properties": {"ref": "4417", "@spider": "signet_jewelers", "addr:full": "8 Market Place", "addr:city": "Nuneaton", "addr:postcode": "CV11 4EA", "addr:country": "GB", "name": "Nuneaton", "brand": "hsamuel"}, "geometry": {"type": "Point", "coordinates": [-1.467, 52.5226]}},
{"type": "Feature", "id": "HmS1VU4t4o6Mz-rS_NVdiTOokqE=", "properties": {"ref": "4055", "@spider": "signet_jewelers", "addr:full": "189 High Street", "addr:city": "Cheltenham", "addr:postcode": "GL50 1DF", "addr:country": "GB", "name": "Cheltenham", "brand": "hsamuel"}, "geometry": {"type": "Point", "coordinates": [-2.0736, 51.9004]}},
{"type": "Feature", "id": "gWT-nYbL25fgOr8Ra9KMNh3-hCo=", "properties": {"ref": "4188", "@spider": "signet_jewelers", "addr:full": "24 Fletcher Mall", "addr:city": "Beaumont Leys", "addr:postcode": "LE4 1DG", "addr:country": "GB", "name": "Beaumont Leys", "brand": "hsamuel"}, "geometry": {"type": "Point", "coordinates": [-1.1669, 52.6659]}},
{"type": "Feature", "id": "nU6c177C7zsbWOeKnsu1cQl0VC8=", "properties": {"ref": "4244", "@spider": "signet_jewelers", "addr:full": "35 High Street", "addr:city": "Isle of Wight", "addr:postcode": "PO30 1SR", "addr:country": "GB", "name": "Newport Iow", "brand": "hsamuel"}, "geometry": {"type": "Point", "coordinates": [-1.2939, 50.7]}},
{"type": "Feature", "id": "8EOIaQe1-rvk1s-yO3r705LAuyA=", "properties": {"ref": "4172", "@spider": "signet_jewelers", "addr:full": "70 High Street", "addr:city": "Kings Lynn", "addr:postcode": "PE30 1AY", "addr:country": "GB", "name": "Kings Lynn", "brand": "hsamuel"}, "geometry": {"type": "Point", "coordinates": [0.395, 52.7555]}},
{"type": "Feature", "id": "qQ_Mugut-D0lFyFM3kWSZ6HBdmc=", "properties": {"ref": "4517", "@spider": "signet_jewelers", "addr:full": "59 Evesham Walk", "addr:city": "Redditch", "addr:postcode": "B97 4HA", "addr:country": "GB", "name": "Redditch", "brand": "hsamuel"}, "geometry": {"type": "Point", "coordinates": [-1.9422, 52.3051]}},
{"type": "Feature", "id": "ftkGGAT0LczyIVQc030OCGHfxuE=", "properties": {"ref": "3360", "@spider": "signet_jewelers", "addr:full": "2 Fore Street", "addr:city": "Taunton", "addr:postcode": "TA1 1HX", "addr:country": "GB", "name": "Taunton", "brand": "ernestjones"}, "geometry": {"type": "Point", "coordinates": [-3.1025, 51.0142]}},
{"type": "Feature", "id": "BPGRcl6AHafvIM0q1jRYxGDL3dE=", "properties": {"ref": "3284", "@spider": "signet_jewelers", "addr:full": "66 High Street", "addr:city": "Sheffield", "addr:postcode": "S9 1EN", "addr:country": "GB", "name": "Meadowhall", "brand": "ernestjones"}, "geometry": {"type": "Point", "coordinates": [-1.4116, 53.414]}},
{"type": "Feature", "id": "WKFBq_gBpGrooQnnZgqsuu5soLQ=", "properties": {"ref": "3105", "@spider": "signet_jewelers", "addr:full": "38 Friargate", "addr:city": "Grimsby", "addr:postcode": "DN31 1QR", "addr:country": "GB", "name": "Grimsby", "brand": "ernestjones"}, "geometry": {"type": "Point", "coordinates": [-0.0858, 53.566]}},
{"type": "Feature", "id": "Qx5-0sUimK6uYyS6s96W3myr9IU=", "properties": {"ref": "3170", "@spider": "signet_jewelers", "addr:full": "4 North Mall", "addr:city": "Doncaster", "addr:postcode": "DN1 1SR", "addr:country": "GB", "name": "Doncaster Frenchgate", "brand": "ernestjones"}, "geometry": {"type": "Point", "coordinates": [-1.137, 53.5234]}},
{"type": "Feature", "id": "1pn0oP5zSkFLAAQD9SG3xF9SKQk=", "properties": {"ref": "3124", "@spider": "signet_jewelers", "addr:full": "Unit 15", "addr:city": "Crewe", "addr:postcode": "CW1 2NG", "addr:country": "GB", "name": "Crewe", "brand": "ernestjones"}, "geometry": {"type": "Point", "coordinates": [-2.4413, 53.0997]}},
{"type": "Feature", "id": "KW2kbMwtMQb3YlWh5klADCpDQKs=", "properties": {"ref": "3085", "@spider": "signet_jewelers", "addr:full": "4 - 6 Cheapside", "addr:city": "Barnsley", "addr:postcode": "S70 1RR", "addr:country": "GB", "name": "Barnsley", "brand": "ernestjones"}, "geometry": {"type": "Point", "coordinates": [-1.4799, 53.552]}},
{"type": "Feature", "id": "JCoJ5pF3P7Mkg09BhzRQgPjHKpA=", "properties": {"ref": "3287", "@spider": "signet_jewelers", "addr:full": "Unit G2", "addr:city": "Hull", "addr:postcode": "HU1 2PQ", "addr:country": "GB", "name": "Hull", "brand": "ernestjones"}, "geometry": {"type": "Point", "coordinates": [-0.3395, 53.7423]}},
{"type": "Feature", "id": "fzwBZfq1vCP-IOew0TgxAvFMA6U=", "properties": {"ref": "3048", "@spider": "signet_jewelers", "addr:full": "31 Merseyway", "addr:city": "Stockport", "addr:postcode": "SK1 1PN", "addr:country": "GB", "name": "Stockport", "brand": "ernestjones"}, "geometry": {"type": "Point", "coordinates": [-2.1589, 53.4118]}},
{"type": "Feature", "id": "nNtsSBfpPReChzaYcu1L6BMGmG4=", "properties": {"ref": "3259", "@spider": "signet_jewelers", "addr:full": "97 The Arndale Centre", "addr:city": "Manchester", "addr:postcode": "M4 3AB", "addr:country": "GB", "name": "Manchester Arndale", "brand": "ernestjones"}, "geometry": {"type": "Point", "coordinates": [-2.2415, 53.4834]}},
{"type": "Feature", "id": "b92YARWFay69sPXDdBwZ-etpHb4=", "properties": {"ref": "3470", "@spider": "signet_jewelers", "addr:full": "15-19 St Ann Street", "addr:city": "Manchester", "addr:postcode": "M2 7LG", "addr:country": "GB", "name": "Manchester St Ann's", "brand": "ernestjones"}, "geometry": {"type": "Point", "coordinates": [-2.2465, 53.482]}},
{"type": "Feature", "id": "aUIP2gCGUagYRLsqBMokUO0doNE=", "properties": {"ref": "3416", "@spider": "signet_jewelers", "addr:full": "Unit 37", "addr:city": "Huddersfield", "addr:postcode": "HD1 2QB", "addr:country": "GB", "name": "Huddersfield", "brand": "ernestjones"}, "geometry": {"type": "Point", "coordinates": [-1.7791, 53.6459]}},
{"type": "Feature", "id": "ix4g-kQgQGEG4K9XBNf-GQu8ERE=", "properties": {"ref": "3234", "@spider": "signet_jewelers", "addr:full": "8 Town Square Centre", "addr:city": "Oldham", "addr:postcode": "OL1 1XD", "addr:country": "GB", "name": "Oldham", "brand": "ernestjones"}, "geometry": {"type": "Point", "coordinates": [-2.113, 53.5414]}},
{"type": "Feature", "id": "w0V2wA0atjJQyThHEUo9P6iLJc4=", "properties": {"ref": "3339", "@spider": "signet_jewelers", "addr:full": "108 The Dome", "addr:city": "Manchester", "addr:postcode": "M17 8DF", "addr:country": "GB", "name": "Trafford Park", "brand": "ernestjones"}, "geometry": {"type": "Point", "coordinates": [-2.3481, 53.4657]}},
{"type": "Feature", "id": "0YcFa_sKEo8-TTxXzJOTQAvpGtI=", "properties": {"ref": "3045", "@spider": "signet_jewelers", "addr:full": "10 Eastgate Street", "addr:city": "Chester", "addr:postcode": "CH1 1LF", "addr:country": "GB", "name": "Chester", "brand": "ernestjones"}, "geometry": {"type": "Point", "coordinates": [-2.8907, 53.1903]}},
{"type": "Feature", "id": "0FoXr4t1_v3HA3-VEd6B1oDcbz4=", "properties": {"ref": "4123", "@spider": "signet_jewelers", "addr:full": "1-3 Southgate Street", "addr:city": "Gloucester", "addr:postcode": "GL1 1TG", "addr:country": "GB", "name": "Gloucester", "brand": "hsamuel"}, "geometry": {"type": "Point", "coordinates": [-2.246, 51.8649]}},
{"type": "Feature", "id": "UCjol4Zkbac3ZIjzj-8hf_UNbhc=", "properties": {"ref": "4203", "@spider": "signet_jewelers", "addr:full": "5 Carillon Court", "addr:city": "Leicestershire", "addr:postcode": "LE11 3XA", "addr:country": "GB", "name": "Loughborough", "brand": "hsamuel"}, "geometry": {"type": "Point", "coordinates": [-1.2074, 52.7718]}},
{"type": "Feature", "id": "l11OUBat34MZF2bDVZtUlZH7rh4=", "properties": {"ref": "4623", "@spider": "signet_jewelers", "addr:full": "Unit 41", "addr:city": "Trowbridge", "addr:postcode": "BA14 8AT", "addr:country": "GB", "name": "Trowbridge", "brand": "hsamuel"}, "geometry": {"type": "Point", "coordinates": [-2.2091, 51.3204]}},
{"type": "Feature", "id": "MIUz2xESv-JIieGBfDSmy-GTzms=", "properties": {"ref": "4130", "@spider": "signet_jewelers", "addr:full": "52 High Street", "addr:city": "Grantham", "addr:postcode": "NG31 6NE", "addr:country": "GB", "name": "Grantham", "brand": "hsamuel"}, "geometry": {"type": "Point", "coordinates": [-0.642, 52.9114]}},
{"type": "Feature", "id": "LX-ns7ize50eJEkbv-SeNKU8PdI=", "properties": {"ref": "4647", "@spider": "signet_jewelers", "addr:full": "Unit SU328 Lower Mall", "addr:city": "Birmingham", "addr:postcode": "B5 4BA", "addr:country": "GB", "name": "Birmingham Bull Ring", "brand": "hsamuel"}, "geometry": {"type": "Point", "coordinates": [-1.8954, 52.4768]}},
{"type": "Feature", "id": "wR_9aX2DCeuFASSKi_pnCCfeppU=", "properties": {"ref": "4596", "@spider": "signet_jewelers", "addr:full": "Unit C25, Ankerside Shopping Centre", "addr:city": "Staffs", "addr:postcode": "B79 7LG", "addr:country": "GB", "name": "Tamworth", "brand": "hsamuel"}, "geometry": {"type": "Point", "coordinates": [-1.6936, 52.6326]}},
{"type": "Feature", "id": "ayim0szoKdpaz9UgXIrrm8nBU3k=", "properties": {"ref": "4540", "@spider": "signet_jewelers", "addr:full": "22 The Parade", "addr:city": "Sutton Coldfield", "addr:postcode": "B72 1PD", "addr:country": "GB", "name": "Sutton Coldfield", "brand": "hsamuel"}, "geometry": {"type": "Point", "coordinates": [-1.8244, 52.5621]}},
{"type": "Feature", "id": "8XgDLoGu94v9nso8yN-5GVE4RF0=", "properties": {"ref": "4664", "@spider": "signet_jewelers", "addr:full": "83-84 High Street", "addr:city": "Worcester", "addr:postcode": "WR1 2ET", "addr:country": "GB", "name": "Worcester", "brand": "hsamuel"}, "geometry": {"type": "Point", "coordinates": [-2.2211, 52.1918]}},
{"type": "Feature", "id": "DMOh9ZXwA_xjiKc1amvktbqnp9o=", "properties": {"ref": "4156", "@spider": "signet_jewelers", "addr:full": "55-56 Market Place", "addr:city": "Boston", "addr:postcode": "PE21 6LS", "addr:country": "GB", "name": "Boston", "brand": "hsamuel"}, "geometry": {"type": "Point", "coordinates": [-0.0238, 52.9786]}},
{"type": "Feature", "id": "b-3SpjqRnfvgLWrLoXFCHYdVmLI=", "properties": {"ref": "4018", "@spider": "signet_jewelers", "addr:full": "15 Union Street", "addr:city": "Bath", "addr:postcode": "BA1 1RR", "addr:country": "GB", "name": "Bath", "brand": "hsamuel"}, "geometry": {"type": "Point", "coordinates": [-2.3604, 51.3823]}},
{"type": "Feature", "id": "ABlvQ6zyqgYCaum0SswPaQOH0Vg=", "properties": {"ref": "4663", "@spider": "signet_jewelers", "addr:full": "Unit LG24", "addr:city": "Norwich", "addr:postcode": "NR2 1SH", "addr:country": "GB", "name": "Norwich", "brand": "hsamuel"}, "geometry": {"type": "Point", "coordinates": [1.2898, 52.6258]}},
{"type": "Feature", "id": "ZBFoYTHjPvA67H-4ZMGmAzck8KY=", "properties": {"ref": "4237", "@spider": "signet_jewelers", "addr:full": "13-14 The Walk", "addr:city": "Norwich", "addr:postcode": "NR2 1NA", "addr:country": "GB", "name": "Norwich", "brand": "hsamuel"}, "geometry": {"type": "Point", "coordinates": [1.2936, 52.6283]}},
{"type": "Feature", "id": "ruAlZB7N54GCDTDNBpwjpmDb-cU=", "properties": {"ref": "3439", "@spider": "signet_jewelers", "addr:full": "Unit 30 The Mall", "addr:city": "Warrington", "addr:postcode": "WA1 1QE", "addr:country": "GB", "name": "Warrington", "brand": "ernestjones"}, "geometry": {"type": "Point", "coordinates": [-2.5954, 53.3899]}},
{"type": "Feature", "id": "_5ndmwJRi0dqlLRgd9WKu8gtEMA=", "properties": {"ref": "3314", "@spider": "signet_jewelers", "addr:full": "Unit 38 White Rose Shopping Centre", "addr:city": "Leeds", "addr:postcode": "LS11 8LL", "addr:country": "GB", "name": "White Rose", "brand": "ernestjones"}, "geometry": {"type": "Point", "coordinates": [-1.5741, 53.7579]}},
{"type": "Feature", "id": "sBpl9W48A5oI1Qv6ekFW-jBGJq4=", "properties": {"ref": "3450", "@spider": "signet_jewelers", "addr:full": "211-212 High Street", "addr:city": "Exeter", "addr:postcode": "EX4 3ED", "addr:country": "GB", "name": "Exeter", "brand": "ernestjones"}, "geometry": {"type": "Point", "coordinates": [-3.5314, 50.7235]}},
{"type": "Feature", "id": "AmDnqzpt_nqM3-8UXkA5nd0RJfY=", "properties": {"ref": "3469", "@spider": "signet_jewelers", "addr:full": "2-2a Commercial Street", "addr:city": "Leeds", "addr:postcode": "LS1 6AL", "addr:country": "GB", "name": "Leeds", "brand": "ernestjones"}, "geometry": {"type": "Point", "coordinates": [-1.5439, 53.7975]}},
{"type": "Feature", "id": "9YYMnyQthgiwrcry-BUjaC4-LzA=", "properties": {"ref": "3239", "@spider": "signet_jewelers", "addr:full": "6 Wassail Square", "addr:city": "Swansea", "addr:postcode": "SA1 3QW", "addr:country": "GB", "name": "Swansea Quadrant", "brand": "ernestjones"}, "geometry": {"type": "Point", "coordinates": [-3.9451, 51.6184]}},
{"type": "Feature", "id": "c1PxQf1i_cxjyxMNvatl0TC3J4o=", "properties": {"ref": "3415", "@spider": "signet_jewelers", "addr:full": "1 The Mall", "addr:city": "Bury", "addr:postcode": "BL9 0QQ", "addr:country": "GB", "name": "Bury", "brand": "ernestjones"}, "geometry": {"type": "Point", "coordinates": [-2.2954, 53.5924]}},
{"type": "Feature", "id": "ToTTMOyKzrBh8bksuZWXB7mKSlU=", "properties": {"ref": "3473", "@spider": "signet_jewelers", "addr:full": "58a Petergate Mall", "addr:city": "Bradford", "addr:postcode": "BD1 1US", "addr:country": "GB", "name": "Bradford", "brand": "ernestjones"}, "geometry": {"type": "Point", "coordinates": [-1.7503, 53.7942]}},
{"type": "Feature", "id": "8lBkZH2Eh_Vw2rrmIEatx1PXjKk=", "properties": {"ref": "4381", "@spider": "signet_jewelers", "addr:full": "7-8 Sandwell Centre", "addr:city": "West Bromwich", "addr:postcode": "B70 7NG", "addr:country": "GB", "name": "West Bromwich", "brand": "hsamuel"}, "geometry": {"type": "Point", "coordinates": [-1.9919, 52.5187]}},
{"type": "Feature", "id": "BU6o11QZLbCyetKW_ub34H_Wi4g=", "properties": {"ref": "4031", "@spider": "signet_jewelers", "addr:full": "22-28 Commercial Road", "addr:city": "Bournemouth", "addr:postcode": "BH2 5LP", "addr:country": "GB", "name": "Bournemouth", "brand": "hsamuel"}, "geometry": {"type": "Point", "coordinates": [-1.8815, 50.7203]}},
{"type": "Feature", "id": "ZdHZ56av0skYdmGBGWmVp1SuoP8=", "properties": {"ref": "4078", "@spider": "signet_jewelers", "addr:full": "Unit L42, Merry Hill", "addr:city": "West Midlands", "addr:postcode": "DY5 1SL", "addr:country": "GB", "name": "Merry Hill", "brand": "hsamuel"}, "geometry": {"type": "Point", "coordinates": [-2.1121, 52.4815]}},
{"type": "Feature", "id": "QgZqOD7MlEQu0hyRGDASD07fOnk=", "properties": {"ref": "4375", "@spider": "signet_jewelers", "addr:full": "41 Park Street", "addr:city": "Walsall", "addr:postcode": "WS1 1LY", "addr:country": "GB", "name": "Walsall", "brand": "hsamuel"}, "geometry": {"type": "Point", "coordinates": [-1.9833, 52.5845]}},
{"type": "Feature", "id": "47YIjre7qBfDPFz3_PW-RkQTJY4=", "properties": {"ref": "4240", "@spider": "signet_jewelers", "addr:full": "90 Victoria Centre", "addr:city": "Nottingham", "addr:postcode": "NG1 3QE", "addr:country": "GB", "name": "Nottingham Victoria", "brand": "hsamuel"}, "geometry": {"type": "Point", "coordinates": [-1.1476, 52.9574]}},
{"type": "Feature", "id": "5XPvSN1SG2VKv-TZfKO0aQF0xug=", "properties": {"ref": "4047", "@spider": "signet_jewelers", "addr:full": "15 High Street", "addr:city": "Burton On Trent", "addr:postcode": "DE14 1HU", "addr:country": "GB", "name": "Burton On Trent", "brand": "hsamuel"}, "geometry": {"type": "Point", "coordinates": [-1.6307, 52.8021]}},
{"type": "Feature", "id": "qc9f2K3_JAzzR0UigTjdSOCne4c=", "properties": {"ref": "4168", "@spider": "signet_jewelers", "addr:full": "10 High Street", "addr:city": "Kidderminster", "addr:postcode": "DY10 2DQ", "addr:country": "GB", "name": "Kidderminster", "brand": "hsamuel"}, "geometry": {"type": "Point", "coordinates": [-2.2483, 52.3882]}},
{"type": "Feature", "id": "0igEqgmxqWcCo_lS3JoIPTJXst4=", "properties": {"ref": "4277", "@spider": "signet_jewelers", "addr:full": "32 Dolphin Centre", "addr:city": "Dorset", "addr:postcode": "BH15 1SS", "addr:country": "GB", "name": "Poole", "brand": "hsamuel"}, "geometry": {"type": "Point", "coordinates": [-1.9802, 50.7177]}},
{"type": "Feature", "id": "hL8uf-XDlCAW0GtlIe8nI_b6R58=", "properties": {"ref": "4589", "@spider": "signet_jewelers", "addr:full": "Unit 117, Upper Mall", "addr:city": "Bristol", "addr:postcode": "BS34 5UP", "addr:country": "GB", "name": "Cribbs Causeway", "brand": "hsamuel"}, "geometry": {"type": "Point", "coordinates": [-2.5954, 51.5256]}},
{"type": "Feature", "id": "htxB0n5s915DPwWx6UTOJG6UmVU=", "properties": {"ref": "4670", "@spider": "signet_jewelers", "addr:full": "Unit SU48", "addr:city": "Bristol", "addr:postcode": "BS1 3BA", "addr:country": "GB", "name": "Bristol Cabot Circus", "brand": "hsamuel"}, "geometry": {"type": "Point", "coordinates": [-2.5857, 51.4583]}},
{"type": "Feature", "id": "e99xs6Z4jPch_DyrZpYWeDUNaYo=", "properties": {"ref": "4164", "@spider": "signet_jewelers", "addr:full": "46 Bath Street", "addr:city": "Ilkeston", "addr:postcode": "DE7 8FD", "addr:country": "GB", "name": "Ilkeston", "brand": "hsamuel"}, "geometry": {"type": "Point", "coordinates": [-1.3088, 52.9737]}},
{"type": "Feature", "id": "vyLWswV1FCL_JebOgozv_7gXX4c=", "properties": {"ref": "4611", "@spider": "signet_jewelers", "addr:full": "30 Albion Street", "addr:city": "Derby", "addr:postcode": "DE1 2NQ", "addr:country": "GB", "name": "Derby Westfield", "brand": "hsamuel"}, "geometry": {"type": "Point", "coordinates": [-1.4729, 52.9201]}},
{"type": "Feature", "id": "k1h248N08NfjNNBmutUoSe4eAyo=", "properties": {"ref": "4380", "@spider": "signet_jewelers", "addr:full": "39 The Gallery", "addr:city": "Wolverhampton", "addr:postcode": "WV1 3NJ", "addr:country": "GB", "name": "Wolverhampton Mander", "brand": "hsamuel"}, "geometry": {"type": "Point", "coordinates": [-2.1283, 52.5845]}},
{"type": "Feature", "id": "DiNlGz07pY3dlvr-VT36Z8wRrUs=", "properties": {"ref": "4196", "@spider": "signet_jewelers", "addr:full": "94-96 London Road North", "addr:city": "Lowestoft", "addr:postcode": "NR32 1ET", "addr:country": "GB", "name": "Lowestoft", "brand": "hsamuel"}, "geometry": {"type": "Point", "coordinates": [1.7527, 52.4757]}},
{"type": "Feature", "id": "GBFqRKmeq1_tk46GSvU1t-IGuvg=", "properties": {"ref": "4637", "@spider": "signet_jewelers", "addr:full": "16 Market Hill Street", "addr:city": "Cannock", "addr:postcode": "WS11 1EB", "addr:country": "GB", "name": "Cannock", "brand": "hsamuel"}, "geometry": {"type": "Point", "coordinates": [-2.0301, 52.6895]}},
{"type": "Feature", "id": "n5UM3fIzvaEsH3ZoaCtRZXCg2H4=", "properties": {"ref": "3495", "@spider": "signet_jewelers", "addr:full": "Unit E Market Shopping Centre", "addr:city": "Bolton", "addr:postcode": "BL1 2AL", "addr:country": "GB", "name": "Bolton", "brand": "ernestjones"}, "geometry": {"type": "Point", "coordinates": [-2.4302, 53.5813]}},
{"type": "Feature", "id": "txAp79iSMtuHEqGtH9rcVB6w1wc=", "properties": {"ref": "3447", "@spider": "signet_jewelers", "addr:full": "21 Coney Street", "addr:city": "York", "addr:postcode": "YO1 9QL", "addr:country": "GB", "name": "York", "brand": "ernestjones"}, "geometry": {"type": "Point", "coordinates": [-1.0842, 53.959]}},
{"type": "Feature", "id": "v4ksoC9w9ldfzJcuFq_NbqzHfYY=", "properties": {"ref": "3197", "@spider": "signet_jewelers", "addr:full": "10 Union Street", "addr:city": "Torquay", "addr:postcode": "TQ2 5PL", "addr:country": "GB", "name": "Torquay", "brand": "ernestjones"}, "geometry": {"type": "Point", "coordinates": [-3.5279, 50.4654]}},
{"type": "Feature", "id": "L1KXeEGxuxjWJNCJHZBjEMfIXwo=", "properties": {"ref": "3293", "@spider": "signet_jewelers", "addr:full": "2 Standish Gallery", "addr:city": "Wigan", "addr:postcode": "WN1 1AT", "addr:country": "GB", "name": "Wigan", "brand": "ernestjones"}, "geometry": {"type": "Point", "coordinates": [-2.6316, 53.5474]}},
{"type": "Feature", "id": "sB0bKciZaP7BGwz0jsnM_Zlo3aI=", "properties": {"ref": "3093", "@spider": "signet_jewelers", "addr:full": "5 Parker Street", "addr:city": "Liverpool", "addr:postcode": "L1 1DJ", "addr:country": "GB", "name": "Liverpool", "brand": "ernestjones"}, "geometry": {"type": "Point", "coordinates": [-2.9824, 53.4054]}},
{"type": "Feature", "id": "wqCafhK2fukOM1hNOj05LBhACiU=", "properties": {"ref": "3441", "@spider": "signet_jewelers", "addr:full": "Unit 53C Liverpool One", "addr:city": "Liverpool", "addr:postcode": "L1 8BU", "addr:country": "GB", "name": "Liverpool One", "brand": "ernestjones"}, "geometry": {"type": "Point", "coordinates": [-2.9872, 53.4039]}},
{"type": "Feature", "id": "ZwMHW61unj_YRa9nkz0n5CkqQ4M=", "properties": {"ref": "3343", "@spider": "signet_jewelers", "addr:full": "61 The Mall", "addr:city": "Burnley", "addr:postcode": "BB11 1BA", "addr:country": "GB", "name": "Burnley", "brand": "ernestjones"}, "geometry": {"type": "Point", "coordinates": [-2.2433, 53.7896]}},
{"type": "Feature", "id": "pUBpr-HyOgwzVBks57XVJLJ_DHE=", "properties": {"ref": "3330", "@spider": "signet_jewelers", "addr:full": "34 James Street", "addr:city": "Harrogate", "addr:postcode": "HG1 1RF", "addr:country": "GB", "name": "Harrogate", "brand": "ernestjones"}, "geometry": {"type": "Point", "coordinates": [-1.5399, 53.9925]}},
{"type": "Feature", "id": "izoFnQk0zWECra1VsnmD1OsnYKI=", "properties": {"ref": "4317", "@spider": "signet_jewelers", "addr:full": "Unit 6", "addr:city": "Skegness", "addr:postcode": "PE25 3NR", "addr:country": "GB", "name": "Skegness", "brand": "hsamuel"}, "geometry": {"type": "Point", "coordinates": [0.3387, 53.1422]}},
{"type": "Feature", "id": "Z-c3-uA1yGiL7j_cP472-iJ3peg=", "properties": {"ref": "4139", "@spider": "signet_jewelers", "addr:full": "22-23 High Town", "addr:city": "Hereford", "addr:postcode": "HR1 2AB", "addr:country": "GB", "name": "Hereford", "brand": "hsamuel"}, "geometry": {"type": "Point", "coordinates": [-2.7158, 52.0563]}},
{"type": "Feature", "id": "X253H7UwaKJxoaDtuWMm6tERT7Q=", "properties": {"ref": "4192", "@spider": "signet_jewelers", "addr:full": "298 High Street", "addr:city": "Lincoln", "addr:postcode": "LN2 1AF", "addr:country": "GB", "name": "Lincoln", "brand": "hsamuel"}, "geometry": {"type": "Point", "coordinates": [-0.5404, 53.2288]}},
{"type": "Feature", "id": "npIKIEvOLwbUowSFEO8mHRNG4qE=", "properties": {"ref": "4219", "@spider": "signet_jewelers", "addr:full": "8 Four Seasons Centre", "addr:city": "Mansfield", "addr:postcode": "NG18 1SN", "addr:country": "GB", "name": "Mansfield", "brand": "hsamuel"}, "geometry": {"type": "Point", "coordinates": [-1.1985, 53.1448]}},
{"type": "Feature", "id": "OkTO9fyS5nytaZLZJRUzz51uMqI=", "properties": {"ref": "4325", "@spider": "signet_jewelers", "addr:full": "33 Gaolgate Street", "addr:city": "Stafford", "addr:postcode": "ST16 2NT", "addr:country": "GB", "name": "Stafford", "brand": "hsamuel"}, "geometry": {"type": "Point", "coordinates": [-2.118, 52.8085]}},
{"type": "Feature", "id": "m2t-RvIynROK41CjQ0Vol7G39sM=", "properties": {"ref": "4374", "@spider": "signet_jewelers", "addr:full": "4 Middle Street", "addr:city": "Yeovil", "addr:postcode": "BA20 1LZ", "addr:country": "GB", "name": "Yeovil", "brand": "hsamuel"}, "geometry": {"type": "Point", "coordinates": [-2.6317, 50.9413]}},
{"type": "Feature", "id": "8auE1fummxNlwoPaF5F1JqC0r3c=", "properties": {"ref": "4345", "@spider": "signet_jewelers", "addr:full": "Unit 201, Dean Street", "addr:city": "Telford", "addr:postcode": "TF3 4BT", "addr:country": "GB", "name": "Telford", "brand": "hsamuel"}, "geometry": {"type": "Point", "coordinates": [-2.4474, 52.6766]}},
{"type": "Feature", "id": "XX_iLiXVgxnYXxobUTz4hGxFZPI=", "properties": {"ref": "4069", "@spider": "signet_jewelers", "addr:full": "12-14 South Walk", "addr:city": "Cwmbran", "addr:postcode": "NP44 1PU", "addr:country": "GB", "name": "Cwmbran", "brand": "hsamuel"}, "geometry": {"type": "Point", "coordinates": [-3.0215, 51.6529]}},
{"type": "Feature", "id": "Ydp29SYzINu2k5pYAq29wWXKzk4=", "properties": {"ref": "3437", "@spider": "signet_jewelers", "addr:full": "Unit 4", "addr:city": "Blackburn", "addr:postcode": "BB1 7JB", "addr:country": "GB", "name": "Blackburn", "brand": "ernestjones"}, "geometry": {"type": "Point", "coordinates": [-2.4828, 53.7488]}},
{"type": "Feature", "id": "J0jrbymna4Au_eV93PPjqhvN60Y=", "properties": {"ref": "3067", "@spider": "signet_jewelers", "addr:full": "88 Fishergate Walk", "addr:city": "Preston", "addr:postcode": "PR1 2NR", "addr:country": "GB", "name": "Preston", "brand": "ernestjones"}, "geometry": {"type": "Point", "coordinates": [-2.7016, 53.7588]}},
{"type": "Feature", "id": "dqekTqQBb1GtPVjTGyWZh-Kcuks=", "properties": {"ref": "3359", "@spider": "signet_jewelers", "addr:full": "245/251 Lord Street", "addr:city": "Southport", "addr:postcode": "PR8 1NY", "addr:country": "GB", "name": "Southport", "brand": "ernestjones"}, "geometry": {"type": "Point", "coordinates": [-3.0071, 53.6478]}},
{"type": "Feature", "id": "EbBREOHPPFNaCwAVABK4RlQBYtA=", "properties": {"ref": "3468", "@spider": "signet_jewelers", "addr:full": "UNIT 6", "addr:city": "PLYMOUTH", "addr:postcode": "PL1 1EA", "addr:country": "GB", "name": "Plymouth", "brand": "ernestjones"}, "geometry": {"type": "Point", "coordinates": [-4.1378, 50.3725]}},
{"type": "Feature", "id": "NgEM4SgPVa6jj-n3iV4zEGhKFe4=", "properties": {"ref": "3386", "@spider": "signet_jewelers", "addr:full": "12 Penny Street", "addr:city": "Lancaster", "addr:postcode": "LA1 1UA", "addr:country": "GB", "name": "Lancaster", "brand": "ernestjones"}, "geometry": {"type": "Point", "coordinates": [-2.8, 54.0481]}},
{"type": "Feature", "id": "TTOerErxAhr6n4ymSInlsg8bNqk=", "properties": {"ref": "3089", "@spider": "signet_jewelers", "addr:full": "2 East Mall", "addr:city": "Middlesbrough", "addr:postcode": "TS1 1TB", "addr:country": "GB", "name": "Middlesbrough", "brand": "ernestjones"}, "geometry": {"type": "Point", "coordinates": [-1.2383, 54.5773]}},
{"type": "Feature", "id": "6Xi4PxG7bTLnVZ60l0YbcyD6QOU=", "properties": {"ref": "3403", "@spider": "signet_jewelers", "addr:full": "7 High street", "addr:city": "Durham", "addr:postcode": "DH1 3UJ", "addr:country": "GB", "name": "Durham", "brand": "ernestjones"}, "geometry": {"type": "Point", "coordinates": [-1.5741, 54.777]}},
{"type": "Feature", "id": "I6vhBa3m9BHSkQN6XtKjLSuz08k=", "properties": {"ref": "3467", "@spider": "signet_jewelers", "addr:full": "9 - 10 Boscawen Street", "addr:city": "Truro", "addr:postcode": "TR1 2QU", "addr:country": "GB", "name": "Truro", "brand": "ernestjones"}, "geometry": {"type": "Point", "coordinates": [-5.0516, 50.263]}},
{"type": "Feature", "id": "2S4gnqXXlbvtToDOFPOXecfSuqA=", "properties": {"ref": "3254", "@spider": "signet_jewelers", "addr:full": "36 - 38 Cameron Walk", "addr:city": "Gateshead", "addr:postcode": "NE11 9YR", "addr:country": "GB", "name": "Gateshead", "brand": "ernestjones"}, "geometry": {"type": "Point", "coordinates": [-1.6689, 54.9565]}},
{"type": "Feature", "id": "gwkWFQ_XFkbv1EnYB30zfew3S6Q=", "properties": {"ref": "3103", "@spider": "signet_jewelers", "addr:full": "11 Eldon Way", "addr:city": "Newcastle", "addr:postcode": "NE1 7XS", "addr:country": "GB", "name": "Newcastle Eldon Sq", "brand": "ernestjones"}, "geometry": {"type": "Point", "coordinates": [-1.6133, 54.9755]}},
{"type": "Feature", "id": "E5RmvExBQjxCqKEgJbRqG9DatG8=", "properties": {"ref": "3221", "@spider": "signet_jewelers", "addr:full": "7 Grapes Lane", "addr:city": "Carlisle", "addr:postcode": "CA3 8NH", "addr:country": "GB", "name": "Carlisle", "brand": "ernestjones"}, "geometry": {"type": "Point", "coordinates": [-2.9344, 54.8949]}},
{"type": "Feature", "id": "Hptmal0s6Ctjd8ofg2zfPEnpsg0=", "properties": {"ref": "3430", "@spider": "signet_jewelers", "addr:full": "Unit 34a", "addr:city": "Newry", "addr:postcode": "BT35 8QS", "addr:country": "GB", "name": "Newry", "brand": "ernestjones"}, "geometry": {"type": "Point", "coordinates": [-6.341, 54.1689]}},
{"type": "Feature", "id": "FftxgcS3Qarmjd1q5VT2JpJcITQ=", "properties": {"ref": "4363", "@spider": "signet_jewelers", "addr:full": "69-71 High Street", "addr:city": "Weston Super Mare", "addr:postcode": "BS23 1HE", "addr:country": "GB", "name": "Weston S M", "brand": "hsamuel"}, "geometry": {"type": "Point", "coordinates": [-2.9794, 51.3488]}},
{"type": "Feature", "id": "XQhbrygirkfEv8WWl4toVF-CrUQ=", "properties": {"ref": "4054", "@spider": "signet_jewelers", "addr:full": "17 Burlington Street", "addr:city": "Chesterfield", "addr:postcode": "S40 1RS", "addr:country": "GB", "name": "Chesterfield", "brand": "hsamuel"}, "geometry": {"type": "Point", "coordinates": [-1.4264, 53.2358]}},
{"type": "Feature", "id": "R4joqVkxTZROz5UA3C0HybIhk_A=", "properties": {"ref": "4034", "@spider": "signet_jewelers", "addr:full": "30 Fore Street", "addr:city": "Bridgwater", "addr:postcode": "TA6 3NG", "addr:country": "GB", "name": "Bridgwater", "brand": "hsamuel"}, "geometry": {"type": "Point", "coordinates": [-3.0026, 51.1287]}},
{"type": "Feature", "id": "A8PfDkO4H1cNrCRVa3w4LlId5uo=", "properties": {"ref": "4488", "@spider": "signet_jewelers", "addr:full": "10-12 Market Square", "addr:city": "Stoke On Trent", "addr:postcode": "ST1 1NU", "addr:country": "GB", "name": "Hanley", "brand": "hsamuel"}, "geometry": {"type": "Point", "coordinates": [-2.175, 53.0263]}},
{"type": "Feature", "id": "iT9mfpdD2y2WURrNKNxjLoSm3TA=", "properties": {"ref": "3308", "@spider": "signet_jewelers", "addr:full": "33 Donegal place", "addr:city": "Belfast", "addr:postcode": "BT1 5AB", "addr:country": "GB", "name": "Belfast", "brand": "ernestjones"}, "geometry": {"type": "Point", "coordinates": [-5.9321, 54.5974]}},
{"type": "Feature", "id": "1HuZKvxoi8InP55lQiGMucNWA8Q=", "properties": {"ref": "3407", "@spider": "signet_jewelers", "addr:full": "Unit 5a", "addr:city": "Newtownabbey", "addr:postcode": "BT37 9UH", "addr:country": "GB", "name": "Newtownabbey", "brand": "ernestjones"}, "geometry": {"type": "Point", "coordinates": [-5.9183, 54.6547]}},
{"type": "Feature", "id": "i1yw-1pUjQ1mQj4LqagJ4UPudhk=", "properties": {"ref": "3489", "@spider": "signet_jewelers", "addr:full": "Unit 17A Skye Square", "addr:city": "Ayr", "addr:postcode": "KA7 1TP", "addr:country": "GB", "name": "Ayr Central", "brand": "ernestjones"}, "geometry": {"type": "Point", "coordinates": [-4.6268, 55.46]}},
{"type": "Feature", "id": "OF3OO61NbnWKfpjVWlRufaTVRdA=", "properties": {"ref": "3180", "@spider": "signet_jewelers", "addr:full": "78 Princes Street", "addr:city": "Edinburgh", "addr:postcode": "EH2 2ER", "addr:country": "GB", "name": "Edinburgh Prince St", "brand": "ernestjones"}, "geometry": {"type": "Point", "coordinates": [-3.1982, 55.9521]}},