{"type":"FeatureCollection","features":[{"type": "Feature", "id": "Ja22f0Jce2IzbTJYVvPkgodGwCs=", "properties": {"ref": "LAN10650", "@spider": "spar", "addr:full": "43 St Swithin St, AB10 6XL", "name": "SPAR St Swithin St", "phone": "01224 322031", "website": "https://spar.co.uk/store-locator/lan10650-spar-st-swithin-st", "brand": "Spar"}, "geometry": {"type": "Point", "coordinates": [-2.12504594434329, 57.1399520288175]}},
{"type": "Feature", "id": "u9dnVmHXi6PySpgP5umIW1-l4gc=", "properties": {"ref": "LAN10768", "@spider": "spar", "addr:full": "7-13 Provost Watt Drive, Aberdeen, AB12 5BT", "name": "SPAR Kincorth", "phone": "01224 874363", "website": "https://spar.co.uk/store-locator/lan10768-spar-kincorth", "brand": "Spar"}, "geometry": {"type": "Point", "coordinates": [-2.10275284015501, 57.1208564020331]}},
{"type": "Feature", "id": "1m_Tf_LZF2fykAhQJKUiX-pgwow=", "properties": {"ref": "LAN10554", "@spider": "spar", "addr:full": "60-66 Midstocket Road, AB15 5JB", "name": "SPAR Midstocket", "phone": "01224 634391", "website": "https://spar.co.uk/store-locator/lan10554-spar-midstocket", "brand": "Spar"}, "geometry": {"type": "Point", "coordinates": [-2.12800473048287, 57.1498393476968]}},
{"type": "Feature", "id": "oNPeLbibKmvyvV3fiO-8tS3kVKU=", "properties": {"ref": "LAN10809", "@spider": "spar", "addr:full": "120 Rosemount Viaduct, AB25 1NX", "name": "SPAR Rosemount", "phone": "01224 641723", "website": "https://spar.co.uk/store-locator/lan10809-spar-rosemount", "brand": "Spar"}, "geometry": {"type": "Point", "coordinates": [-2.10987137918964, 57.1489313224336]}},
{"type": "Feature", "id": "mHdrZSqP2wKhEnZn5zBU-d0gOWA=", "properties": {"ref": "LAN10864", "@spider": "spar", "addr:full": "80-84 Victoria Road, Aberdeen, AB11 9DT", "name": "Spar Torry", "phone": "01224 878991", "website": "https://spar.co.uk/store-locator/lan10864-spar-torry", "brand": "Spar"}, "geometry": {"type": "Point", "coordinates": [-2.08809446788156, 57.1374862109922]}},
{"type": "Feature", "id": "pq92ChdfbjB7dEnzmVaNqWx4jik=", "properties": {"ref": "LAN10950", "@spider": "spar", "addr:full": "225 Victoria Road, AB11 9NQ", "name": "SPAR 225 Victoria Road", "phone": "01224 876033", "website": "https://spar.co.uk/store-locator/lan10950-spar-225-victoria-road", "brand": "Spar"}, "geometry": {"type": "Point", "coordinates": [-2.07897306523596, 57.1368904402697]}},
{"type": "Feature", "id": "avZ-toHI7qKRGf_yZfX9J7Z4yog=", "properties": {"ref": "LAN05438", "@spider": "spar", "addr:full": "Echt Stores, Main Street, AB32 6UL", "name": "SPAR Echt", "phone": "01330860501", "website": "https://spar.co.uk/store-locator/lan05438-spar-echt", "brand": "Spar"}, "geometry": {"type": "Point", "coordinates": [-2.43368555083816, 57.1416716108554]}},
{"type": "Feature", "id": "IhuUwsYdexKT0Zdig0zsrwvbEUg=", "properties": {"ref": "LAN18131", "@spider": "spar", "addr:full": "The Square, AB41 7GX", "name": "SPAR Tarves", "phone": "01651 851208", "website": "https://spar.co.uk/store-locator/lan18131-spar-tarves", "brand": "Spar"}, "geometry": {"type": "Point", "coordinates": [-2.22182005836323, 57.3711272842709]}},
{"type": "Feature", "id": "TXMq2QccD5L0Pxxum1uQFQa1D-A=", "properties": {"ref": "LAN10810", "@spider": "spar", "addr:full": "5-9 Greenfern Road, Aberdeen, AB16 5PY", "name": "SPAR Mastrick", "phone": "01224 691589", "website": "https://spar.co.uk/store-locator/lan10810-spar-mastrick", "brand": "Spar"}, "geometry": {"type": "Point", "coordinates": [-2.16168161817436, 57.1559986868761]}},
{"type": "Feature", "id": "3wsegB_RYNcxRsqPXRnHAdl1YbA=", "properties": {"ref": "LAN10713", "@spider": "spar", "addr:full": "1-4 Byron Square, Aberdeen, AB16 7LL", "name": "SPAR Byron Square Northfield", "phone": "01224 692644", "website": "https://spar.co.uk/store-locator/lan10713-spar-byron-square-northfield", "brand": "Spar"}, "geometry": {"type": "Point", "coordinates": [-2.16212191517801, 57.1659423054473]}},
{"type": "Feature", "id": "a1roePN0lKWpJh-_eezzRKqJvi0=", "properties": {"ref": "LAN02583", "@spider": "spar", "addr:full": "Westhill Service Station, Elrick , AB32 6TJ", "name": "SPAR Westhill", "phone": "01224 742336", "website": "https://spar.co.uk/store-locator/lan02583-spar-westhill", "brand": "Spar"}, "geometry": {"type": "Point", "coordinates": [-2.29715995762641, 57.149345814417]}},
{"type": "Feature", "id": "eKgTrsV7--m3zQSoD6TmyGjWlpk=", "properties": {"ref": "LAN10617", "@spider": "spar", "addr:full": "254 North Deeside Road, Aberdeen, AB14 0UQ", "name": "SPAR Peterculter", "phone": "01224 733165", "website": "https://spar.co.uk/store-locator/lan10617-spar-peterculter", "brand": "Spar"}, "geometry": {"type": "Point", "coordinates": [-2.27029866279044, 57.0966489382627]}},
{"type": "Feature", "id": "eHc0y81vDst1_dhiXG8EosmANBk=", "properties": {"ref": "LAN10500", "@spider": "spar", "addr:full": "270 Clifton Road, AB24 4HA", "name": "SPAR Clifton Road", "phone": "01224 483213", "website": "https://spar.co.uk/store-locator/lan10500-spar-clifton-road", "brand": "Spar"}, "geometry": {"type": "Point", "coordinates": [-2.123499906892, 57.1668397140964]}},
{"type": "Feature", "id": "idHfQtb7jXZEE3Wj2tpYGhAaSbw=", "properties": {"ref": "LAN10886", "@spider": "spar", "addr:full": "32 Ashgrove Road, AB25 3AD", "name": "SPAR Ashgrove", "phone": "01224 480329", "website": "https://spar.co.uk/store-locator/lan10886-spar-ashgrove", "brand": "Spar"}, "geometry": {"type": "Point", "coordinates": [-2.11834954680542, 57.1591911741269]}},
{"type": "Feature", "id": "VKMMk7hPY92zKBRQtaiQhVt-HbA=", "properties": {"ref": "LAN21045", "@spider": "spar", "addr:full": "Buchan Way , Aberdeenshire , AB24 3GT", "name": "SPAR EG Group Peterhead ", "website": "https://spar.co.uk/store-locator/lan21045-spar-eg-group-peterhead", "brand": "Spar"}, "geometry": {"type": "Point", "coordinates": [-1.8075404, 57.4863777]}},
{"type": "Feature", "id": "bjctCt8_-KCugB7s-setpm3FrKk=", "properties": {"ref": "LAN10897", "@spider": "spar", "addr:full": "Units 2-3, Drummer's Corner, Aberdeenshire, AB42 1AB", "name": "SPAR Drummers Corner", "phone": "01779 481400", "website": "https://spar.co.uk/store-locator/lan10897-spar-drummers-corner", "brand": "Spar"}, "geometry": {"type": "Point", "coordinates": [-1.78087562599023, 57.505018856565]}},
{"type": "Feature", "id": "YoP2bMS00azhx-rtzN-O5w1CLt4=", "properties": {"ref": "LAN19615", "@spider": "spar", "addr:full": "Certas Energy UK Ltd , Aberdeen Road , AB54 6JD", "name": "SPAR Certas Energy Uk Ltd Strathbogie Filling Station ", "phone": "01466 794840", "website": "https://spar.co.uk/store-locator/lan19615-spar-certas-energy-uk-ltd-strathbogie-filling-station", "brand": "Spar"}, "geometry": {"type": "Point", "coordinates": [-2.76280810000003, 57.4388706]}},
{"type": "Feature", "id": "vuh_3VS81pZUyWY8ga2_MoTtHRU=", "properties": {"ref": "LAN10510", "@spider": "spar", "addr:full": "45 St Machar Drive, AB24 3SE", "name": "SPAR St Machar", "phone": "01224 483222", "website": "https://spar.co.uk/store-locator/lan10510-spar-st-machar", "brand": "Spar"}, "geometry": {"type": "Point", "coordinates": [-2.09797041514111, 57.167086864771]}},
{"type": "Feature", "id": "24pYfitOhyTnyZ-NCi_gLurK5Gg=", "properties": {"ref": "LAN24560", "@spider": "spar", "addr:full": "7, High Street, Angus, DD9 7TE", "name": "SPAR Edzell", "phone": "01356 647114", "website": "https://spar.co.uk/store-locator/lan24560-spar-edzell", "brand": "Spar"}, "geometry": {"type": "Point", "coordinates": [-2.65545105961466, 56.8090378006359]}},
{"type": "Feature", "id": "BWRx8JeVf2ptkxf3UKL7NbXA90I=", "properties": {"ref": "LAN19070", "@spider": "spar", "addr:full": "108-124 North Esk Road, DD10 9AY", "name": "SPAR Montrose Service Station", "phone": "01674 675910", "website": "https://spar.co.uk/store-locator/lan19070-spar-montrose-service-station", "brand": "Spar"}, "geometry": {"type": "Point", "coordinates": [-2.46576959999993, 56.7231794]}},
{"type": "Feature", "id": "msRqP4_pzOiDflDxNKPQj4Rf2eY=", "properties": {"ref": "LAN19555", "@spider": "spar", "addr:full": "Certas Energy UK Ltd , 3 Academy Street , DD8 2XF", "name": "SPAR Certas Energy UK Ltd Forfar", "phone": "01307 466580", "website": "https://spar.co.uk/store-locator/lan19555-spar-certas-energy-uk-ltd-forfar", "brand": "Spar"}, "geometry": {"type": "Point", "coordinates": [-2.88249259999998, 56.6445285]}},
{"type": "Feature", "id": "zUsr-vzwdTHR9Zp8o8y9NEvAeyU=", "properties": {"ref": "LAN19500", "@spider": "spar", "addr:full": "Certas Energy UK Ltd , Aberdeen Filling Station , AB21 0AF", "name": "SPAR Certas Energy UK Ltd Aberdeen Airport Filling Station ", "phone": "01224 799980", "website": "https://spar.co.uk/store-locator/lan19500-spar-certas-energy-uk-ltd-aberdeen-airport-filling-station", "brand": "Spar"}, "geometry": {"type": "Point", "coordinates": [-2.20907620000003, 57.1957847]}},
{"type": "Feature", "id": "TevshfRjN_VedosCQIw9WdGjs60=", "properties": {"ref": "LAN05427", "@spider": "spar", "addr:full": "Bellabeg Shop, Bellabeg, Aberdeenshire, AB36 8UL", "name": "SPAR Bellabeg", "phone": "01975 651211", "website": "https://spar.co.uk/store-locator/lan05427-spar-bellabeg", "brand": "Spar"}, "geometry": {"type": "Point", "coordinates": [-3.07004302508953, 57.2040747592489]}},
{"type": "Feature", "id": "J5IWX2iI82Fh6PtmtBGjNr4WVxc=", "properties": {"ref": "LAN88612", "@spider": "spar", "addr:full": "Nethybridge Post Office, Dell Road, Inverness-shire, PH25 3DA", "name": "SPAR Nethybridge", "phone": "01479 821217", "website": "https://spar.co.uk/store-locator/lan88612-spar-nethybridge", "brand": "Spar"}, "geometry": {"type": "Point", "coordinates": [-3.65832390310339, 57.2648855866216]}},
{"type": "Feature", "id": "6lswrIYPrIRtd4inL-o5VewC4d4=", "properties": {"ref": "LAN03711", "@spider": "spar", "addr:full": "Tilt Stores, Bridge of Tilt, Perthshire, PH18 5SX", "name": "SPAR Blair Atholl", "phone": "01796 481206", "website": "https://spar.co.uk/store-locator/lan03711-spar-blair-atholl", "brand": "Spar"}, "geometry": {"type": "Point", "coordinates": [-3.83642974045808, 56.7664412651888]}},
{"type": "Feature", "id": "jhxv3Lfe-ozNomszMyMpvUvssp4=", "properties": {"ref": "LAN42623", "@spider": "spar", "addr:full": "183 Mid Street, AB55 5BL", "name": "SPAR Mid Street", "phone": "01542 489086", "website": "https://spar.co.uk/store-locator/lan42623-spar-mid-street", "brand": "Spar"}, "geometry": {"type": "Point", "coordinates": [-2.9494937687749, 57.5420401441731]}},
{"type": "Feature", "id": "A4Ug5Hx7FmIjlG9RKE2w2DGzV18=", "properties": {"ref": "LAN04085", "@spider": "spar", "addr:full": "Main Street, Invernessshire, PH23 3AS", "name": "SPAR Carrbridge", "phone": "01479 841687", "website": "https://spar.co.uk/store-locator/lan04085-spar-carrbridge", "brand": "Spar"}, "geometry": {"type": "Point", "coordinates": [-3.81499739344431, 57.2831963143537]}},
{"type": "Feature", "id": "d3F18eNzIRHsRRE8fLtHI8CAeBI=", "properties": {"ref": "LAN19575", "@spider": "spar", "addr:full": "Certas Energy UK Ltd , Keith Filling Station , AB55 5ED", "name": "SPAR Certas Energy Keith Filling Station ", "phone": "01542 888269", "website": "https://spar.co.uk/store-locator/lan19575-spar-certas-energy-keith-filling-station", "brand": "Spar"}, "geometry": {"type": "Point", "coordinates": [-2.96492699999999, 57.546515]}},
{"type": "Feature", "id": "oGfzucsH3z4g0DV-i6v7WO5oUnE=", "properties": {"ref": "LAN14220", "@spider": "spar", "addr:full": "21, Regent Street, Moray, AB55 5DW", "name": "SPAR Keith ", "phone": "01542 888004", "website": "https://spar.co.uk/store-locator/lan14220-spar-keith", "brand": "Spar"}, "geometry": {"type": "Point", "coordinates": [-2.95764550755833, 57.543927870838]}},
{"type": "Feature", "id": "6sOEIhoJOYarOC84MpHgoMEDTak=", "properties": {"ref": "LAN21035", "@spider": "spar", "addr:full": "Coxton Park , IV30 8AZ", "name": "SPAR EG Group Elgin ", "website": "https://spar.co.uk/store-locator/lan21035-spar-eg-group-elgin", "brand": "Spar"}, "geometry": {"type": "Point", "coordinates": [-3.260672, 57.6396444]}},
{"type": "Feature", "id": "ICt_7OyvE2_AJ2yuWMfTaR4PXH0=", "properties": {"ref": "LAN20050", "@spider": "spar", "addr:full": "Suprav Ltd , Main Street , IV32 7LH", "name": "SPAR Mosstodloch Service Station ", "website": "https://spar.co.uk/store-locator/lan20050-spar-mosstodloch-service-station", "brand": "Spar"}, "geometry": {"type": "Point", "coordinates": [-3.12601359999996, 57.6322586]}},
{"type": "Feature", "id": "62UbiJNtYcKQR5RzdpKiPCLtk6w=", "properties": {"ref": "LAN04266", "@spider": "spar", "addr:full": "Kessock Service Station, South Road, AB43 8TJ", "name": "SPAR South Road", "phone": "01346 510066", "website": "https://spar.co.uk/store-locator/lan04266-spar-south-road", "brand": "Spar"}, "geometry": {"type": "Point", "coordinates": [-2.00567110495555, 57.682107273776]}},
{"type": "Feature", "id": "u52Ic9pJ2iqHWOYENYWmTIq_NSI=", "properties": {"ref": "LAN20045", "@spider": "spar", "addr:full": "Smyddyhill Road , AB43 9WL", "name": "SPAR Smiddyhill Road ", "website": "https://spar.co.uk/store-locator/lan20045-spar-smiddyhill-road", "brand": "Spar"}, "geometry": {"type": "Point", "coordinates": [-2.0272253, 57.679947]}},
{"type": "Feature", "id": "DFjvlMmOl00hn0U4rC1KAlvQ4Q8=", "properties": {"ref": "LAN04277", "@spider": "spar", "addr:full": "Watermill Service Station, Banff Road, AB43 7ED", "name": "SPAR Watermill Service Station ", "phone": "01346 519910", "website": "https://spar.co.uk/store-locator/lan04277-spar-watermill-service-station", "brand": "Spar"}, "geometry": {"type": "Point", "coordinates": [-2.03277749578892, 57.6905823328758]}},
{"type": "Feature", "id": "EVwnRxQJoHNCB9Omq70YZwzXQO8=", "properties": {"ref": "LAN02228", "@spider": "spar", "addr:full": "MacDuff Road, Banff, AB45 3YJ", "name": "SPAR Gardenstown", "phone": "01261 851912", "website": "https://spar.co.uk/store-locator/lan02228-spar-gardenstown", "brand": "Spar"}, "geometry": {"type": "Point", "coordinates": [-2.33460260666388, 57.6701401389544]}},
{"type": "Feature", "id": "jRN3NEmyAL4IRce94gn6UlS0wAc=", "properties": {"ref": "LAN18070", "@spider": "spar", "addr:full": "5 Church Street , Aberdeenshire , AB56 4LN", "name": "SPAR Portnockie ", "phone": "01542 841777", "website": "https://spar.co.uk/store-locator/lan18070-spar-portnockie", "brand": "Spar"}, "geometry": {"type": "Point", "coordinates": [-2.86068409531095, 57.7025700253754]}},
{"type": "Feature", "id": "rjzjDUPXJsIw0Ae5_BlH3ubttFo=", "properties": {"ref": "LAN16120", "@spider": "spar", "addr:full": "Buckie Service Station , High Street , AB56 4AD", "name": "SPAR Buckie ", "phone": "01543 834242", "website": "https://spar.co.uk/store-locator/lan16120-spar-buckie", "brand": "Spar"}, "geometry": {"type": "Point", "coordinates": [-2.95790616649945, 57.6683478399378]}},
{"type": "Feature", "id": "XmQnj5UwyH0LlU8QJGZ04Huc4t0=", "properties": {"ref": "LAN20055", "@spider": "spar", "addr:full": "6 Station Road , AB56 5RZ", "name": "McKays Mini Market Ltd", "website": "https://spar.co.uk/store-locator/lan20055-mckays-mini-market-ltd", "brand": "Spar"}, "geometry": {"type": "Point", "coordinates": [-3.0203249, 57.6633561]}},
{"type": "Feature", "id": "N1wpSKyl8T7HpU4tYjDGPQaXQpQ=", "properties": {"ref": "AFB17986", "@spider": "spar", "addr:full": "Euro Garages, 99-111 London Road , Hertfordhire , AL1 1LP", "name": "SPAR - Euro Garages - St Albans", "phone": "01727 838994", "website": "https://spar.co.uk/store-locator/afb17986-spar-euro-garages-st-albans", "brand": "Spar"}, "geometry": {"type": "Point", "coordinates": [-0.3262943, 51.7409685]}},
{"type": "Feature", "id": "Ekg4RMSRR3WoOGqQU8lrFYDo2VI=", "properties": {"ref": "AFB28006", "@spider": "spar", "addr:full": "225 Hatfield Road, Hertfordshire, AL1 4TB", "website": "https://spar.co.uk/store-locator/afb28006", "brand": "Spar"}, "geometry": {"type": "Point", "coordinates": [-0.3202038, 51.7529206]}},
{"type": "Feature", "id": "Zx4PODeXgDYU8WfmCRNgPpD397M=", "properties": {"ref": "AFB10281", "@spider": "spar", "addr:full": "Unit 1, Highfield Park, Herts, AL4 0RA", "name": "SPAR St Albans", "phone": "01727 893786", "website": "https://spar.co.uk/store-locator/afb10281-spar-st-albans", "brand": "Spar"}, "geometry": {"type": "Point", "coordinates": [-0.301770905169751, 51.7456958989263]}},
{"type": "Feature", "id": "j9YMRLvmn60je7m2aHsKIX2P65Y=", "properties": {"ref": "AFB20845", "@spider": "spar", "addr:full": "1176 High Road, Whetstone, Greater London, N20 0LH", "name": "SPAR - High Road Whetstone", "phone": "0208 4457781", "website": "https://spar.co.uk/store-locator/afb20845-spar-high-road-whetstone", "brand": "Spar"}, "geometry": {"type": "Point", "coordinates": [-0.174491869537138, 51.6279138657655]}},
{"type": "Feature", "id": "mpNv2zK7lJyqUMoEn9waTaXIbsk=", "properties": {"ref": "AFB18021", "@spider": "spar", "addr:full": "Euro Garages, Dunstable Road , Bedfordshire , LU1 1BN", "name": "SPAR - Euro Garages - Viva", "phone": "01582 487 884", "website": "https://spar.co.uk/store-locator/afb18021-spar-euro-garages-viva", "brand": "Spar"}, "geometry": {"type": "Point", "coordinates": [-0.426061797633216, 51.8829681260279]}},
{"type": "Feature", "id": "o4kUN3W_R0wx2cqY_6elYzS4D2g=", "properties": {"ref": "AFB17181", "@spider": "spar", "addr:full": "Farley Green Service Station , 1 Leyhill Drive Station , Bedfordshire , LU1 5QA", "name": "SPAR - Farley Green", "phone": "01582 407032 ", "website": "https://spar.co.uk/store-locator/afb17181-spar-farley-green", "brand": "Spar"}, "geometry": {"type": "Point", "coordinates": [-0.433832580526168, 51.8675701533122]}},
{"type": "Feature", "id": "VohkvQam4IANHc1lnrIv9OswvnA=", "properties": {"ref": "AFB19044", "@spider": "spar", "addr:full": "383 Edgeware Road , Greater London, NW2 6LD", "name": "SPAR - Staples Corner ", "phone": "0208 4527294", "website": "https://spar.co.uk/store-locator/afb19044-spar-staples-corner", "brand": "Spar"}, "geometry": {"type": "Point", "coordinates": [-0.225822122726846, 51.5657817012116]}},
{"type": "Feature", "id": "aaD_PpY1W1Xde1hHIEofxSOIpEc=", "properties": {"ref": "AFB17944", "@spider": "spar", "addr:full": "Dudden Hill Lane , Willesden , Greater London , NW10 1DE", "name": "SPAR - Euro Garages - Dudden Hill", "phone": "0208 4503022", "website": "https://spar.co.uk/store-locator/afb17944-spar-euro-garages-dudden-hill", "brand": "Spar"}, "geometry": {"type": "Point", "coordinates": [-0.244110107033058, 51.5536114007007]}},
{"type": "Feature", "id": "zIGhOpaK_0tfrBHV2pr5cfk-wuo=", "properties": {"ref": "AFB11518", "@spider": "spar", "addr:full": "47-49 Baldwins Lane, Croxley Green, WD3 3LS", "name": "SPAR - Croxley Green", "phone": "01923 229607", "website": "https://spar.co.uk/store-locator/afb11518-spar-croxley-green", "brand": "Spar"}, "geometry": {"type": "Point", "coordinates": [-0.432638180597146, 51.6521545651742]}},
{"type": "Feature", "id": "Bpg8AEM6NRkyku5Z260GUwftQ9o=", "properties": {"ref": "AFB18348", "@spider": "spar", "addr:full": "Wiggenhall Road , Watford , Buckinghamshire , WD18 0FS", "name": "SPAR - Colne", "phone": "01923 243732", "website": "https://spar.co.uk/store-locator/afb18348-spar-colne", "brand": "Spar"}, "geometry": {"type": "Point", "coordinates": [-0.394243851036892, 51.6476613813006]}},
{"type": "Feature", "id": "GCUdndXn6957Nm9Qw98S33GtzRM=", "properties": {"ref": "AFB57028", "@spider": "spar", "addr:full": "90 High Street, Bushey, Hertfordshire, WD23 3HD", "name": "SPAR - Bushey", "phone": "0208 950 2621", "website": "https://spar.co.uk/store-locator/afb57028-spar-bushey", "brand": "Spar"}, "geometry": {"type": "Point", "coordinates": [-0.365134926753669, 51.6447959086481]}},
{"type": "Feature", "id": "ziZ8Ak4lOwiZCOWXNgtxSauUMsE=", "properties": {"ref": "AFB23997", "@spider": "spar", "addr:full": "Gunnels Wood Road, Hertfordshire, SG1 2FS", "name": "SPAR - Euro Garages - Stevenage", "phone": "01438 750441 ", "website": "https://spar.co.uk/store-locator/afb23997-spar-euro-garages-stevenage", "brand": "Spar"}, "geometry": {"type": "Point", "coordinates": [-0.202208799999994, 51.8893119]}},
{"type": "Feature", "id": "hO94OaTEHt90c5ciK5g9pLxL6no=", "properties": {"ref": "AFB17972", "@spider": "spar", "addr:full": "Euro Garages, Broadwater Crescent , Hertfordshire , SG2 8EH", "name": "SPAR - Euro Garages - Broadwater", "phone": "01438 352065", "website": "https://spar.co.uk/store-locator/afb17972-spar-euro-garages-broadwater", "brand": "Spar"}, "geometry": {"type": "Point", "coordinates": [-0.186118985109973, 51.887984195967]}},
{"type": "Feature", "id": "lO9TQYvTYxUSiHViaNqRT8Y8FWY=", "properties": {"ref": "AFB26237", "@spider": "spar", "addr:full": "323 Ashcroft Road, Bedfordshire, LU2 9AE", "name": "SPAR - Luton", "website": "https://spar.co.uk/store-locator/afb26237-spar-luton", "brand": "Spar"}, "geometry": {"type": "Point", "coordinates": [-0.3878566, 51.8923682]}},
{"type": "Feature", "id": "NYb6oAuDYpf6lRmenElJXVoQiTk=", "properties": {"ref": "AFB17971", "@spider": "spar", "addr:full": "Euro Garages, Belmont Circle , Middlesex, HA3 8SF", "name": "SPAR - Euro Garages - Belmont", "phone": "0208 909 9820", "website": "https://spar.co.uk/store-locator/afb17971-spar-euro-garages-belmont", "brand": "Spar"}, "geometry": {"type": "Point", "coordinates": [-0.317383377005195, 51.6005993263497]}},
{"type": "Feature", "id": "kyOWL18WDB6kZjXPrfIoYxhXKVg=", "properties": {"ref": "AFB17977", "@spider": "spar", "addr:full": "Euro Garages, Norton Way North , Hertfordshire , SG6 1BS", "name": "SPAR - Euro Garages - Ickneild Way", "phone": "01462 481 271", "website": "https://spar.co.uk/store-locator/afb17977-spar-euro-garages-ickneild-way", "brand": "Spar"}, "geometry": {"type": "Point", "coordinates": [-0.221678848916624, 51.9850812324466]}},
{"type": "Feature", "id": "rDB7OzE51aeVQAginDn6tCkvPQM=", "properties": {"ref": "AFB19081", "@spider": "spar", "addr:full": "Highcross Service Station, Cambridge Road, Hertfordshire, SG11 1AZ", "name": "SPAR - Ware", "phone": "01920 462024", "website": "https://spar.co.uk/store-locator/afb19081-spar-ware", "brand": "Spar"}, "geometry": {"type": "Point", "coordinates": [-0.021917186427767, 51.8497561500339]}},
{"type": "Feature", "id": "yZf7RKoYLrBIGs0dn6qoFZTWeYc=", "properties": {"ref": "AFB18373", "@spider": "spar", "addr:full": "391-393 Dunstable Road, Luton, Bedfordshire, LU4 8DA", "name": "SPAR - Dunstable Road", "phone": "01582 571292", "website": "https://spar.co.uk/store-locator/afb18373-spar-dunstable-road", "brand": "Spar"}, "geometry": {"type": "Point", "coordinates": [-0.44494861312424, 51.8905923936938]}},
{"type": "Feature", "id": "UkoAZu4tlaz0jXgQQQvg71OkXgo=", "properties": {"ref": "AFB17976", "@spider": "spar", "addr:full": "Euro Garages, 518 Dunstable Road , Luton , LU4 8DG", "name": "SPAR - Euro Garages - Empire", "phone": "01582 595441", "website": "https://spar.co.uk/store-locator/afb17976-spar-euro-garages-empire", "brand": "Spar"}, "geometry": {"type": "Point", "coordinates": [-0.451500507247821, 51.8919196372946]}},
{"type": "Feature", "id": "fAPHoaKIFrkkcSzQnek84bRRoMk=", "properties": {"ref": "AFB11311", "@spider": "spar", "addr:full": "2-3 VILLAGE CENTRE, LEVERSTOCK GREEN ROAD, HERTFORDSHIRE, HP3 8QG", "name": "SPAR Leverstock Green", "phone": "01442245658", "website": "https://spar.co.uk/store-locator/afb11311-spar-leverstock-green", "brand": "Spar"}, "geometry": {"type": "Point", "coordinates": [-0.431632002421894, 51.7482558990044]}},
{"type": "Feature", "id": "9wnqVF6mzYDJ3q_9oi117rHaLtQ=", "properties": {"ref": "AFB18077", "@spider": "spar", "addr:full": "Luton Road , Dunstable, Bedfordshire, LU5 4LW", "name": "SPAR - Luton Road", "phone": "01582 606501", "website": "https://spar.co.uk/store-locator/afb18077-spar-luton-road", "brand": "Spar"}, "geometry": {"type": "Point", "coordinates": [-0.501006394090017, 51.8881637554817]}},
{"type": "Feature", "id": "bbISiDawbv01Y7-N-I5IyPVQuWY=", "properties": {"ref": "AFB18017", "@spider": "spar", "addr:full": "Euro Garages, Nightingale Road , Hertfordshire , SG5 1RH", "name": "SPAR - Euro Garages - Nightingale", "phone": "01462 455226", "website": "https://spar.co.uk/store-locator/afb18017-spar-euro-garages-nightingale", "brand": "Spar"}, "geometry": {"type": "Point", "coordinates": [-0.26855575544854, 51.9537602355529]}},
{"type": "Feature", "id": "RYVKdZaBqRQ5hIVE2gOlDo6ZEoU=", "properties": {"ref": "AFB10958", "@spider": "spar", "addr:full": "SPAR, 28 Schoolmead, Hertfordshire, WD5 0LA", "name": "SPAR Abbots Langley", "phone": "01923 265693", "website": "https://spar.co.uk/store-locator/afb10958-spar-abbots-langley", "brand": "Spar"}, "geometry": {"type": "Point", "coordinates": [-0.424840537117339, 51.6981880607677]}},
{"type": "Feature", "id": "7HBwCwcn8PceCYpTTT8X0j-L48g=", "properties": {"ref": "AFB10850", "@spider": "spar", "addr:full": "SPAR, 14 High Street, Hertfordshire, WD4 8BH", "name": "SPAR Kings Langley", "phone": "01923 262823", "website": "https://spar.co.uk/store-locator/afb10850-spar-kings-langley", "brand": "Spar"}, "geometry": {"type": "Point", "coordinates": [-0.450423019613511, 51.7134638254854]}},
{"type": "Feature", "id": "SQG7rvs80MVlZH7FEqOIRW5L5yQ=", "properties": {"ref": "AFB17950", "@spider": "spar", "addr:full": "Euro Garages, 520-522 Watford Way , Greater London, NW7 2PT", "name": "SPAR - Euro Garages - Observatory", "phone": "0208 959 5416", "website": "https://spar.co.uk/store-locator/afb17950-spar-euro-garages-observatory", "brand": "Spar"}, "geometry": {"type": "Point", "coordinates": [-0.24199882781884, 51.6154557602797]}},
{"type": "Feature", "id": "vDdJRzfv4Epe8k3e_UyPptL08sM=", "properties": {"ref": "AFB17193", "@spider": "spar", "addr:full": "57 Fore Street, Edmonton, Greater London, N18 2SX", "name": "SPAR - Edmonton", "phone": "0208 807 1441", "website": "https://spar.co.uk/store-locator/afb17193-spar-edmonton", "brand": "Spar"}, "geometry": {"type": "Point", "coordinates": [-0.066262088249726, 51.610507187742]}},
{"type": "Feature", "id": "FB-dIpYlAP90BgnDIcMGz0hdreE=", "properties": {"ref": "AFB12109", "@spider": "spar", "addr:full": "489 London Road, Hemel Hempstead, Hertfordshire, HP3 9BE", "name": "SPAR - Hemel Hempstead", "phone": "01442 259960", "website": "https://spar.co.uk/store-locator/afb12109-spar-hemel-hempstead", "brand": "Spar"}, "geometry": {"type": "Point", "coordinates": [-0.486670871108864, 51.7428809906453]}},
{"type": "Feature", "id": "LgZhnWmKZHevF7NCEpZNdH69vQQ=", "properties": {"ref": "AFB44084", "@spider": "spar", "addr:full": "Cotton Street Service Station, 40 Cotton Street, Greater London, E14 0EL", "name": "SPAR - Poplar", "phone": "0207 5389007", "website": "https://spar.co.uk/store-locator/afb44084-spar-poplar", "brand": "Spar"}, "geometry": {"type": "Point", "coordinates": [-0.01086907267751, 51.5107529009236]}},
{"type": "Feature", "id": "l88P3kko4oaBcOvKt4sQfU0A4LY=", "properties": {"ref": "AFB27721", "@spider": "spar", "addr:full": "SPAR Store, 32 Ellesmere Street, Greater London, E14 6BA", "name": "Spar - Poplar", "phone": "020 7987 2790", "website": "https://spar.co.uk/store-locator/afb27721-spar-poplar", "brand": "Spar"}, "geometry": {"type": "Point", "coordinates": [-0.0184458999999606, 51.5153202]}},
{"type": "Feature", "id": "dlUeUH6MHYX4V41Fl-yIL4GLvlc=", "properties": {"ref": "AFB11105", "@spider": "spar", "addr:full": "Grove Road Fillling Station, 51-53 Grove Road, Greater London, E3 4PE", "name": "SPAR - Plaistow", "phone": "0208 983 1813", "website": "https://spar.co.uk/store-locator/afb11105-spar-plaistow", "brand": "Spar"}, "geometry": {"type": "Point", "coordinates": [-0.036184546052054, 51.5266288569401]}},
{"type": "Feature", "id": "1NSJS4DfRtDi89K6gQLHbyIJji4=", "properties": {"ref": "AFB17870", "@spider": "spar", "addr:full": "Pruh Hospital , Farnborough Common, Kent, BR6 8ND", "name": "SPAR - Pruh Hospital ", "phone": "01689 863805", "website": "https://spar.co.uk/store-locator/afb17870-spar-pruh-hospital", "brand": "Spar"}, "geometry": {"type": "Point", "coordinates": [0.059625442533815, 51.3657134035708]}},
{"type": "Feature", "id": "_L15xhBsBRi3TiuUCADEsEKCp_c=", "properties": {"ref": "AFB14485", "@spider": "spar", "addr:full": "The Hive , Moor Street, West Midlands, B5 5JE", "name": "SPAR - Masshouse", "phone": "0121 233 3550", "website": "https://spar.co.uk/store-locator/afb14485-spar-masshouse", "brand": "Spar"}, "geometry": {"type": "Point", "coordinates": [-1.89003725445404, 52.4814217124524]}},
{"type": "Feature", "id": "_ZbT1p3s_DBcdjMlxhIG_HX9MZs=", "properties": {"ref": "AFB15092", "@spider": "spar", "addr:full": "Unit 1 The Matrix, Upper Dean Street, West Midlands, B5 4SG", "name": "SPAR - Upper Dean Street", "phone": "0121 622 6843", "website": "https://spar.co.uk/store-locator/afb15092-spar-upper-dean-street", "brand": "Spar"}, "geometry": {"type": "Point", "coordinates": [-1.89251161789381, 52.4751040356278]}},
{"type": "Feature", "id": "-LFya5gPrFHCosabscY8CecuZl4=", "properties": {"ref": "AFB27251", "@spider": "spar", "addr:full": "305 Corporation Street, West Midlands, B4 7DT", "name": "EURO GARAGES - SPAR - ASTON WAY", "phone": "0121 359 5017", "website": "https://spar.co.uk/store-locator/afb27251-euro-garages-spar-aston-way", "brand": "Spar"}, "geometry": {"type": "Point", "coordinates": [-1.8910142, 52.4888019]}},
{"type": "Feature", "id": "winAeZxsDUcbNX6OHEcWgTqNm8k=", "properties": {"ref": "AFB61300", "@spider": "spar", "addr:full": "SPAR, Unit 1A Brunswick Street, West Midlands, B1 2JF", "name": "SPAR Brindley Place", "phone": "0121 6435502", "website": "https://spar.co.uk/store-locator/afb61300-spar-brindley-place", "brand": "Spar"}, "geometry": {"type": "Point", "coordinates": [-1.91453070267303, 52.4780706510286]}},
{"type": "Feature", "id": "nimP9Wd-KoprbXVw0_ELTBKgUF4=", "properties": {"ref": "AFB10209", "@spider": "spar", "addr:full": "51-53 Bristol Road, Edgbaston, West Midlands, B5 7TU", "name": "SPAR - Edgbaston", "phone": "0121 4401173", "website": "https://spar.co.uk/store-locator/afb10209-spar-edgbaston", "brand": "Spar"}, "geometry": {"type": "Point", "coordinates": [-1.90347461783318, 52.4640108417161]}},
{"type": "Feature", "id": "zZRjIEZcarWtV-uMQbZpyQSFbd0=", "properties": {"ref": "AFB10601", "@spider": "spar", "addr:full": "SPAR, University Of Birmingham, West Midlands, B15 2TU", "name": "SPAR Birmingham Uni Guild", "phone": "0121 472 8751", "website": "https://spar.co.uk/store-locator/afb10601-spar-birmingham-uni-guild", "brand": "Spar"}, "geometry": {"type": "Point", "coordinates": [-1.92691659299216, 52.4492120816349]}},
{"type": "Feature", "id": "-DTdDnNidEfpV7Z_H5QqOZp7ewE=", "properties": {"ref": "AFB25392", "@spider": "spar", "addr:full": "61 Marsh Hill, West Midlands, B23 7DS", "name": "SPAR - Marsh Hill", "website": "https://spar.co.uk/store-locator/afb25392-spar-marsh-hill", "brand": "Spar"}, "geometry": {"type": "Point", "coordinates": [-1.8622612, 52.5250407]}},
{"type": "Feature", "id": "x_Hj3StiJWePLrrYPPp9JUq6FaI=", "properties": {"ref": "AFB11363", "@spider": "spar", "addr:full": "59 College Road, Perry Barr, West Midlands, B44 8DP", "name": "SPAR - Perry Barr", "phone": "0121 3321870", "website": "https://spar.co.uk/store-locator/afb11363-spar-perry-barr", "brand": "Spar"}, "geometry": {"type": "Point", "coordinates": [-1.89366263843552, 52.5290806008903]}},
{"type": "Feature", "id": "N3g__x8QwF3TbeozNgX7-7aXgrE=", "properties": {"ref": "AFB15908", "@spider": "spar", "addr:full": "240 Hagley Road, Hayley Green, West Midlands, B63 1EF", "name": "SPAR - Hayley Green", "phone": "0121 439 6090", "website": "https://spar.co.uk/store-locator/afb15908-spar-hayley-green", "brand": "Spar"}, "geometry": {"type": "Point", "coordinates": [-2.08666654879406, 52.4352230738706]}},
{"type": "Feature", "id": "EZiVZymhXi93M7w6g_zc-b3fMiA=", "properties": {"ref": "AFB15972", "@spider": "spar", "addr:full": "Widney Road, Knowle, West Midlands, B93 9DZ", "name": "EURO GARAGES - SPAR - WIDNEY", "phone": "01546 770759", "website": "https://spar.co.uk/store-locator/afb15972-euro-garages-spar-widney", "brand": "Spar"}, "geometry": {"type": "Point", "coordinates": [-1.7518342, 52.3815555]}},
{"type": "Feature", "id": "_oW2nHNdaX4MvMgdEOD4sniTIqE=", "properties": {"ref": "AFB47314", "@spider": "spar", "addr:full": "SPAR, 35 - 37 High Street, West Midlands, WS3 4LX", "name": "SPAR Pelsall", "phone": "01922 684642", "website": "https://spar.co.uk/store-locator/afb47314-spar-pelsall", "brand": "Spar"}, "geometry": {"type": "Point", "coordinates": [-1.96825139495322, 52.6295940148456]}},
{"type": "Feature", "id": "6kduj6DshaJ1R_uDwG2SBWS8Ze4=", "properties": {"ref": "HAL28164", "@spider": "spar", "addr:full": "Coleshill Road , Birmingham , B36 8BQ", "name": "SPAR Castle Bromwich", "phone": "01217253764", "website": "https://spar.co.uk/store-locator/hal28164-spar-castle-bromwich", "brand": "Spar"}, "geometry": {"type": "Point", "coordinates": [-1.80024726781873, 52.5008305753152]}},
{"type": "Feature", "id": "j0ANrbvLd1gbu8mBXR7ZLoqYPjo=", "properties": {"ref": "AFB26977", "@spider": "spar", "addr:full": "51 Well Lane, West Midlands, WS3 1JR", "name": "SPAR - The Oak Supermarket", "phone": "07936 549475", "website": "https://spar.co.uk/store-locator/afb26977-spar-the-oak-supermarket", "brand": "Spar"}, "geometry": {"type": "Point", "coordinates": [-1.9854306, 52.6122599]}},
{"type": "Feature", "id": "fiPSgofXYY6mv-H878akBLToYWw=", "properties": {"ref": "AFB10583", "@spider": "spar", "addr:full": "SPAR, Wolverhampton Road West, West Midlands, WV13 2RN", "name": "SPAR Bentley", "phone": "01902 631034", "website": "https://spar.co.uk/store-locator/afb10583-spar-bentley", "brand": "Spar"}, "geometry": {"type": "Point", "coordinates": [-2.0345688858624, 52.587134431847]}},
{"type": "Feature", "id": "MO22HzWIR020tdPE04b_A_BCr8M=", "properties": {"ref": "AFB10740", "@spider": "spar", "addr:full": "Exley Neighbourhood Centre, Field Farm Road, Staffordshire , B77 2LA", "name": "SPAR - Exley Neighbourhood Tamworth", "phone": "01827 288005", "website": "https://spar.co.uk/store-locator/afb10740-spar-exley-neighbourhood-tamworth", "brand": "Spar"}, "geometry": {"type": "Point", "coordinates": [-1.68001975341808, 52.6194848542032]}},
{"type": "Feature", "id": "oMZQ3d9vzybZx9GR56UeoVuQ5Rg=", "properties": {"ref": "AFB51289", "@spider": "spar", "addr:full": "Euro Garages, Stratford Road , West Midlands , B11 4AR", "name": "SPAR - Euro Garages - Sparkhill", "phone": "0121 777 0692", "website": "https://spar.co.uk/store-locator/afb51289-spar-euro-garages-sparkhill", "brand": "Spar"}, "geometry": {"type": "Point", "coordinates": [-1.86249830915289, 52.4495684220818]}},
{"type": "Feature", "id": "6X5G4QQ16rk20MYAqQylqY0D5AA=", "properties": {"ref": "AFB56931", "@spider": "spar", "addr:full": "Euro Garages, Northgate , West Midlands , WS9 8TH", "name": "SPAR - Euro Garages - Northgate", "phone": "01922 454 150", "website": "https://spar.co.uk/store-locator/afb56931-spar-euro-garages-northgate", "brand": "Spar"}, "geometry": {"type": "Point", "coordinates": [-1.92392230947452, 52.6161432692415]}},
{"type": "Feature", "id": "vc2mjgNfoZt-m60eS6DB9_XWSi0=", "properties": {"ref": "HAL28771", "@spider": "spar", "addr:full": "Fox Hollies Road , West Midlands , B27 7US", "name": "SPAR Euro Garage Merestones", "phone": "01217070184", "website": "https://spar.co.uk/store-locator/hal28771-spar-euro-garage-merestones", "brand": "Spar"}, "geometry": {"type": "Point", "coordinates": [-1.83307450988302, 52.4445771234289]}},
{"type": "Feature", "id": "1WMSPoHyLL4GcRMFif7Ew_QBTT4=", "properties": {"ref": "AFB11810", "@spider": "spar", "addr:full": "SPAR, Walsall Manor Hospital, West Midlands, WS2 9PS", "name": "SPAR Walsall Manor Hospital", "phone": "01922 723961", "website": "https://spar.co.uk/store-locator/afb11810-spar-walsall-manor-hospital", "brand": "Spar"}, "geometry": {"type": "Point", "coordinates": [-1.99918928329475, 52.5821861742435]}},
{"type": "Feature", "id": "p20WsKycQrN1_CWAehmWp_QIcyQ=", "properties": {"ref": "AFB28451", "@spider": "spar", "addr:full": "62 Walsall Road, West Midlands, WS9 0JW", "name": "SPAR - WALSALL", "website": "https://spar.co.uk/store-locator/afb28451-spar-walsall", "brand": "Spar"}, "geometry": {"type": "Point", "coordinates": [-1.9256274, 52.5990948]}},
{"type": "Feature", "id": "6c_Pu19sCcXRTrVprEN3hYgjEu8=", "properties": {"ref": "AFB18543", "@spider": "spar", "addr:full": "SPAR, 133 Golden Cross Lane, West Midlands, B61 0LA", "name": "SPAR Catshill", "phone": "01527 835845", "website": "https://spar.co.uk/store-locator/afb18543-spar-catshill", "brand": "Spar"}, "geometry": {"type": "Point", "coordinates": [-2.05684714591834, 52.3638959417789]}},
{"type": "Feature", "id": "fevEFZcoUuiPYwp1Q-U_uf8d3c8=", "properties": {"ref": "HAL43226", "@spider": "spar", "addr:full": "Millpool Service Station, 619 Alcaster Road South, B14 5EL", "name": "SPAR Millpool", "phone": "01214744508\t\t\t\t", "website": "https://spar.co.uk/store-locator/hal43226-spar-millpool", "brand": "Spar"}, "geometry": {"type": "Point", "coordinates": [-1.8850105, 52.4142487]}},
{"type": "Feature", "id": "3CR5C_3sUp5gTzk91q1a1GuOu_U=", "properties": {"ref": "AFB25528", "@spider": "spar", "addr:full": "35 Hobs Road, Wednesbury, West Midlands, WS10 9BD", "name": "SPAR - Wednesbury", "phone": "0121 556 0660", "website": "https://spar.co.uk/store-locator/afb25528-spar-wednesbury", "brand": "Spar"}, "geometry": {"type": "Point", "coordinates": [-2.01022317817496, 52.559872981242]}},
{"type": "Feature", "id": "NuajhAnJs7JoSirO1VhyvDYe4WU=", "properties": {"ref": "AFB20768", "@spider": "spar", "addr:full": "298 Birchfield Road, Worcestershire, B97 4LZ", "name": "SPAR - Birchfield Road", "phone": "01527 402 352", "website": "https://spar.co.uk/store-locator/afb20768-spar-birchfield-road", "brand": "Spar"}, "geometry": {"type": "Point", "coordinates": [-1.96202039020946, 52.2980056559004]}},
{"type": "Feature", "id": "xPFaL8H3NbO2-jCJwHE7okgBTT0=", "properties": {"ref": "AFB12281", "@spider": "spar", "addr:full": "5 Lindsworth Approach, Kings Norton, West Midlands, B30 3QH", "name": "SPAR - Kings Norton", "phone": "0121 451 3314", "website": "https://spar.co.uk/store-locator/afb12281-spar-kings-norton", "brand": "Spar"}, "geometry": {"type": "Point", "coordinates": [-1.91104421089885, 52.4106609555942]}},
{"type": "Feature", "id": "A9MtdbuQdRzaVWc5mP-SxujGzT8=", "properties": {"ref": "HAL25104", "@spider": "spar", "addr:full": "Solihull Service Station, High Street, WEST MIDLAND, B90 1JS", "name": "SPAR Euro Garage Solihull", "phone": "0121 4366 886", "website": "https://spar.co.uk/store-locator/hal25104-spar-euro-garage-solihull", "brand": "Spar"}, "geometry": {"type": "Point", "coordinates": [-1.86188457142298, 52.4057772014878]}},
{"type": "Feature", "id": "5w2rkkTLxPN0uxumzZBmwZ88DRo=", "properties": {"ref": "AFB34615", "@spider": "spar", "addr:full": "SPAR, 32 Watford Road, West Midlands, B30 1JA", "name": "SPAR Cotteridge", "phone": "0121 458 5111", "website": "https://spar.co.uk/store-locator/afb34615-spar-cotteridge", "brand": "Spar"}, "geometry": {"type": "Point", "coordinates": [-1.93017564570023, 52.4165532583049]}},
{"type": "Feature", "id": "Y-gSu7j72gVmxqxpXVZHsHKMJ0k=", "properties": {"ref": "AFB28647", "@spider": "spar", "addr:full": "Mill Service Station, Dudley Road, West Midlands, DY9 8EE", "name": "SPAR - Mill Service Station", "website": "https://spar.co.uk/store-locator/afb28647-spar-mill-service-station", "brand": "Spar"}, "geometry": {"type": "Point", "coordinates": [-2.1169799, 52.4596191]}},
{"type": "Feature", "id": "3iZPtwipq6fehK_10R4xvXwq7HQ=", "properties": {"ref": "AFB10600", "@spider": "spar", "addr:full": "First Floor, University Centre, Birmingham University, West Midlands, B15 2TT", "name": "SPAR Birmingham Uni", "phone": "0121 414 8562", "website": "https://spar.co.uk/store-locator/afb10600-spar-birmingham-uni", "brand": "Spar"}, "geometry": {"type": "Point", "coordinates": [-1.93086027513777, 52.4489717135951]}},
{"type": "Feature", "id": "2QjVlRZhV5teuFFmyk0jOTXccro=", "properties": {"ref": "AFB20842", "@spider": "spar", "addr:full": "Cranford Filling Station , Cranford Street , West Midlands, B66 2RX", "name": "SPAR - Smethwick", "phone": "0121 558 5937", "website": "https://spar.co.uk/store-locator/afb20842-spar-smethwick", "brand": "Spar"}, "geometry": {"type": "Point", "coordinates": [-1.95082126737719, 52.4938326219487]}},
{"type": "Feature", "id": "697HoNaV_uwReen9oYNdpYzqp1k=", "properties": {"ref": "HAL28794", "@spider": "spar", "addr:full": "Coventry Road , West Midlands , B92 0EH", "name": "SPAR Euro Garage Bickenhill", "phone": "01675442119", "website": "https://spar.co.uk/store-locator/hal28794-spar-euro-garage-bickenhill", "brand": "Spar"}, "geometry": {"type": "Point", "coordinates": [-1.72115285233068, 52.4453823367753]}},
{"type": "Feature", "id": "r7VepVs_Eidqm-MhE4I7RIg3Aoo=", "properties": {"ref": "AFB20097", "@spider": "spar", "addr:full": "SPAR, Northgate, West Midlands, WS9 8BD", "name": "SPAR Aldridge", "phone": "01922 452760", "website": "https://spar.co.uk/store-locator/afb20097-spar-aldridge", "brand": "Spar"}, "geometry": {"type": "Point", "coordinates": [-1.92029984395127, 52.6101267485731]}},
{"type": "Feature", "id": "fzwoahioJ2jYGNltkwFnEVLsUBo=", "properties": {"ref": "AFB28432", "@spider": "spar", "addr:full": "70, Willenhall Road, West Midlands, WV1 2HJ", "name": "SPAR - ESSAR WILENHALL ROAD", "website": "https://spar.co.uk/store-locator/afb28432-spar-essar-wilenhall-road", "brand": "Spar"}, "geometry": {"type": "Point", "coordinates": [-2.1048874, 52.5830687]}},
{"type": "Feature", "id": "LsGjeFIDD1uC5WG10o-WBeEQ034=", "properties": {"ref": "AFB58921", "@spider": "spar", "addr:full": "417 Rocky Lane, Birmingham, West Midlands, B42 1NL", "name": "SPAR - Hamstead", "phone": "0121 357 4309", "website": "https://spar.co.uk/store-locator/afb58921-spar-hamstead", "brand": "Spar"}, "geometry": {"type": "Point", "coordinates": [-1.928225124197, 52.5315517747412]}},
{"type": "Feature", "id": "OUYnZOxvjCNe_bFgNWk2pH9IriY=", "properties": {"ref": "AFB10306", "@spider": "spar", "addr:full": "Foster Street East , Stourbridge Bus Station, West Midlands, DY8 1LP", "name": "SPAR - Stourbridge Bus Station", "website": "https://spar.co.uk/store-locator/afb10306-spar-stourbridge-bus-station", "brand": "Spar"}, "geometry": {"type": "Point", "coordinates": [-2.14315768044256, 52.4557731798637]}},
{"type": "Feature", "id": "UHSTZMfeL8xTxjh5EuUo4j_6tY8=", "properties": {"ref": "AFB18749", "@spider": "spar", "addr:full": "Norton Canes Motorway Services, M6 Toll, Norton Canes, WS11 9UX", "name": "SPAR - Norton Canes", "phone": "01543 272540", "website": "https://spar.co.uk/store-locator/afb18749-spar-norton-canes", "brand": "Spar"}, "geometry": {"type": "Point", "coordinates": [-1.9676197658939, 52.6649413556191]}},
{"type": "Feature", "id": "YaI3w-H7syt-hryYXdWb1PzvW88=", "properties": {"ref": "AFB31744", "@spider": "spar", "addr:full": "SPAR, 98 Wardles Lane, Staffordshire, WS6 6DY", "name": "SPAR Great Wyrley", "phone": "01922 412648", "website": "https://spar.co.uk/store-locator/afb31744-spar-great-wyrley", "brand": "Spar"}, "geometry": {"type": "Point", "coordinates": [-2.01824472749692, 52.6580671560838]}},
{"type": "Feature", "id": "F_j5VM8QCiyiGwG_0v4eapde9RI=", "properties": {"ref": "HAL26958", "@spider": "spar", "addr:full": "30 Birmingham Road, B71 4JZ", "name": "SPAR Hawthornes", "phone": "01215241160", "website": "https://spar.co.uk/store-locator/hal26958-spar-hawthornes", "brand": "Spar"}, "geometry": {"type": "Point", "coordinates": [-1.96960378279191, 52.510407325874]}},
{"type": "Feature", "id": "T9MONPiGdes6jI6XyRPTn_rMKBY=", "properties": {"ref": "HAL28611", "@spider": "spar", "addr:full": "220-230 Coalway Road , West Midlands , WV3 7NN", "name": "SPAR Euro Garage Merryhill", "phone": "01902345124", "website": "https://spar.co.uk/store-locator/hal28611-spar-euro-garage-merryhill", "brand": "Spar"}, "geometry": {"type": "Point", "coordinates": [-2.16727174379572, 52.5705607052705]}},
{"type": "Feature", "id": "BMW1emZH38-GS0uupD9bYAL6zq4=", "properties": {"ref": "AFB13693", "@spider": "spar", "addr:full": "30/32 Windmill Bank, Wombourne, WV5 9JD", "name": "SPAR Wombourne", "phone": "01902 892848", "website": "https://spar.co.uk/store-locator/afb13693-spar-wombourne", "brand": "Spar"}, "geometry": {"type": "Point", "coordinates": [-2.18658709263377, 52.5362624642513]}},
{"type": "Feature", "id": "stlytjKGco4ciahytWs6aeNhAIA=", "properties": {"ref": "AFB20330", "@spider": "spar", "addr:full": "Shyam Group Ltd, 17-20 The Lanes Shopping Centre, West Midlands, B72 1YG", "name": "SPAR - Wylde Green ", "phone": "0121 439 1620", "website": "https://spar.co.uk/store-locator/afb20330-spar-wylde-green", "brand": "Spar"}, "geometry": {"type": "Point", "coordinates": [-1.82756359462082, 52.5372736102513]}},
{"type": "Feature", "id": "3WoL2_P91SsmlVxUAb72CqmvbuE=", "properties": {"ref": "AFB53310", "@spider": "spar", "addr:full": "Euro Garages, 40301 Millfields Road , West Midlands , WV14 0QJ", "name": "SPAR - Euro Garages - Millfields", "phone": "01902 498471", "website": "https://spar.co.uk/store-locator/afb53310-spar-euro-garages-millfields", "brand": "Spar"}, "geometry": {"type": "Point", "coordinates": [-2.08497341862276, 52.5638971813215]}},
{"type": "Feature", "id": "5fuD_4NfLcUYN8r7GcmlkGporm0=", "properties": {"ref": "AFB47264", "@spider": "spar", "addr:full": "SPAR, 69 Caledonian, Staffordshire, B77 2ED", "name": "SPAR Glascote Heath", "phone": "01827 284721", "website": "https://spar.co.uk/store-locator/afb47264-spar-glascote-heath", "brand": "Spar"}, "geometry": {"type": "Point", "coordinates": [-1.66381183288633, 52.6219661351076]}},
{"type": "Feature", "id": "KTWr99yUF7t2UhtYddtVmcAWoFg=", "properties": {"ref": "AFB11305", "@spider": "spar", "addr:full": "SPAR, 388-390 Redditch Road, B38 8NA", "name": "SPAR Redditch Road", "phone": "0121 458 3056", "website": "https://spar.co.uk/store-locator/afb11305-spar-redditch-road", "brand": "Spar"}, "geometry": {"type": "Point", "coordinates": [-1.94882719220716, 52.3966677321915]}},
{"type": "Feature", "id": "9Ttz_ljGt3xFXvHV5jBrWsAnj3c=", "properties": {"ref": "AFB11809", "@spider": "spar", "addr:full": "SPAR, Unit 1 Bannerbrook Park, West Midlands, CV4 9AE", "name": "SPAR Bannerbrook", "phone": "02476 695249", "website": "https://spar.co.uk/store-locator/afb11809-spar-bannerbrook", "brand": "Spar"}, "geometry": {"type": "Point", "coordinates": [-1.59809458831154, 52.4116122975231]}},
{"type": "Feature", "id": "xEEm7BsiHCFtffU6wLbT3rCANMo=", "properties": {"ref": "HAL25110", "@spider": "spar", "addr:full": "Hobs Moat Road, WEST MIDLANDS, B92 8JN", "name": "SPAR  Hobs Moat", "phone": "01217 222954.", "website": "https://spar.co.uk/store-locator/hal25110-spar-hobs-moat", "brand": "Spar"}, "geometry": {"type": "Point", "coordinates": [-1.78493394622017, 52.4449669739902]}},
{"type": "Feature", "id": "ww2Cyejb_U-Gmm-Glzl9uN1EiPA=", "properties": {"ref": "AFB19028", "@spider": "spar", "addr:full": "59-61 Birmingham New Road, Tividale, West Midlands, B69 2JS", "name": "SPAR - Bury Hill", "phone": "0121 544 0198", "website": "https://spar.co.uk/store-locator/afb19028-spar-bury-hill", "brand": "Spar"}, "geometry": {"type": "Point", "coordinates": [-2.03425325831342, 52.5047245011983]}},
{"type": "Feature", "id": "m8bfaUoj-ix4FPNM5GuHbI85XBM=", "properties": {"ref": "AFB16616", "@spider": "spar", "addr:full": "Canley Ford, Fletchamstead Highway, West Midlands, CV4 7BB", "name": "EURO GARAGES - SPAR - CANLEY FORD", "phone": "02476 711 404", "website": "https://spar.co.uk/store-locator/afb16616-euro-garages-spar-canley-ford", "brand": "Spar"}, "geometry": {"type": "Point", "coordinates": [-1.5418012, 52.3900388]}},
{"type": "Feature", "id": "UC-iBx1jxKudpjp8uj5PZb0S2-U=", "properties": {"ref": "AFB46011", "@spider": "spar", "addr:full": "SPAR Olton, Dovehouse Parade , West Midlands, B91 1BQ", "name": "SPAR Olton", "phone": "0121 706 1759", "website": "https://spar.co.uk/store-locator/afb46011-spar-olton", "brand": "Spar"}, "geometry": {"type": "Point", "coordinates": [-1.79783529603788, 52.4291942040755]}},
{"type": "Feature", "id": "ZdYiaVDJzvijchuv5LwRaTh0log=", "properties": {"ref": "AFB10911", "@spider": "spar", "addr:full": "102, Lawnswood Road, West Midlands, DY8 5NA", "name": "SPAR Lawnswood", "phone": "01384 287097", "website": "https://spar.co.uk/store-locator/afb10911-spar-lawnswood", "brand": "Spar"}, "geometry": {"type": "Point", "coordinates": [-2.17328451961689, 52.4827657001573]}},
{"type": "Feature", "id": "ps48b4q1bzOiLFxSMVb4-BjFF_E=", "properties": {"ref": "AFB45218", "@spider": "spar", "addr:full": "SPAR, 159-161 Bridgnorth Road, West Midlands, DY8 3NU", "name": "SPAR Wollaston", "phone": "01384 395091", "website": "https://spar.co.uk/store-locator/afb45218-spar-wollaston", "brand": "Spar"}, "geometry": {"type": "Point", "coordinates": [-2.16540844003991, 52.4597266795273]}},
{"type": "Feature", "id": "40Y1tuINCHqlHfGRkuGmx_QKP8A=", "properties": {"ref": "AFB14983", "@spider": "spar", "addr:full": "512 Queslett Road, Great Barr, West Midlands, B43 7EJ", "name": "SPAR - Queslett Road", "phone": "0121 360 8440", "website": "https://spar.co.uk/store-locator/afb14983-spar-queslett-road", "brand": "Spar"}, "geometry": {"type": "Point", "coordinates": [-1.9002812174559, 52.555138979444]}},
{"type": "Feature", "id": "teUfzG7eLJz2br6Ky-rb0y2MMxI=", "properties": {"ref": "AFB19019", "@spider": "spar", "addr:full": "617 Birmingham New Road, Coseley, West Midlands, WV14 9QE", "name": "SPAR - Roseville", "phone": "01902 884 371", "website": "https://spar.co.uk/store-locator/afb19019-spar-roseville", "brand": "Spar"}, "geometry": {"type": "Point", "coordinates": [-2.09115760343908, 52.5440609642053]}},
{"type": "Feature", "id": "aie_g32GlJQyi5BNSvGaozZ8ZMU=", "properties": {"ref": "AFB61141", "@spider": "spar", "addr:full": "4-6 Parkfield Drive, Castle Bromwich, West Midlands, B36 9EJ", "name": "SPAR - Castle Bromwich", "phone": "0121 7495057", "website": "https://spar.co.uk/store-locator/afb61141-spar-castle-bromwich", "brand": "Spar"}, "geometry": {"type": "Point", "coordinates": [-1.77582447589703, 52.5092643956469]}},
{"type": "Feature", "id": "2T6fvQCLKzQKEz7Ibb6etsMCpO4=", "properties": {"ref": "HAL28720", "@spider": "spar", "addr:full": "Junc M42/A5, Tamworth (107), Staffordshire , B77 5PS", "name": "SPAR Euro Garage Tamworth", "phone": "01827260572", "website": "https://spar.co.uk/store-locator/hal28720-spar-euro-garage-tamworth", "brand": "Spar"}, "geometry": {"type": "Point", "coordinates": [-1.64104334503276, 52.6081449995458]}},
{"type": "Feature", "id": "1Yl66WO577V66Bgfe1Iglx7HUQ4=", "properties": {"ref": "AFB15618", "@spider": "spar", "addr:full": "Unit 7, North Arran Way, Burtons Way, West Midlands, B36 0UG", "name": "SPAR - Smiths Wood", "phone": "0121 7883176", "website": "https://spar.co.uk/store-locator/afb15618-spar-smiths-wood", "brand": "Spar"}, "geometry": {"type": "Point", "coordinates": [-1.74872825142578, 52.5016045384487]}},
{"type": "Feature", "id": "C6eXSBoRb5Hm7zjWZrpQ5lwLbmU=", "properties": {"ref": "HAL28844", "@spider": "spar", "addr:full": "Watling Street , Staffordshire, B78 1SS", "name": "SPAR Euro Garage Centurion", "phone": "01827437728", "website": "https://spar.co.uk/store-locator/hal28844-spar-euro-garage-centurion", "brand": "Spar"}, "geometry": {"type": "Point", "coordinates": [-1.61137122784297, 52.5970209222236]}},
{"type": "Feature", "id": "t0eu_smp0lMouTB15Akn419CxPQ=", "properties": {"ref": "AFB12927", "@spider": "spar", "addr:full": "2 - 4 Bridge Street, Polesworth, West Midlands, B78 1DT", "name": "SPAR -  Whitmore-Polesworth", "phone": "01827 892383", "website": "https://spar.co.uk/store-locator/afb12927-spar-whitmore-polesworth", "brand": "Spar"}, "geometry": {"type": "Point", "coordinates": [-1.61491072703056, 52.6193451951316]}},
{"type": "Feature", "id": "HTQxs2lUKfwmffmnNJ1W449FVa4=", "properties": {"ref": "AFB19422", "@spider": "spar", "addr:full": "Paul & Sons Convenience Stores Ltd, 150-154 Masefield Drive, Tamworth, B79 8JA", "name": "SPAR - Masefield Drive Tamworth", "phone": "01827 62208", "website": "https://spar.co.uk/store-locator/afb19422-spar-masefield-drive-tamworth", "brand": "Spar"}, "geometry": {"type": "Point", "coordinates": [-1.7016880954262, 52.6434900633532]}},
{"type": "Feature", "id": "4HcDXlwxtCvabv8GdQZZDz-tLII=", "properties": {"ref": "AFB18544", "@spider": "spar", "addr:full": "8 Drakes Cross Parade, Hollywood, West Midlands, B47 5HD", "name": "SPAR Drakes Cross", "phone": "01564 824252", "website": "https://spar.co.uk/store-locator/afb18544-spar-drakes-cross", "brand": "Spar"}, "geometry": {"type": "Point", "coordinates": [-1.88369342107655, 52.3852852280542]}},
{"type": "Feature", "id": "Dw7-ZLjimKM18mB701WTZz8GwFw=", "properties": {"ref": "AFB29270", "@spider": "spar", "addr:full": "10-12 Brook Farm Walk, Chelmsley Wood, West Midlands, B37 6RX", "name": "SPAR - Singh Chelmsley Wood", "phone": "0121 788 8597", "website": "https://spar.co.uk/store-locator/afb29270-spar-singh-chelmsley-wood", "brand": "Spar"}, "geometry": {"type": "Point", "coordinates": [-1.72715990577774, 52.4828127471388]}},
{"type": "Feature", "id": "57NU9DBb9erPYRve3qf086AzaGc=", "properties": {"ref": "AFB59051", "@spider": "spar", "addr:full": "SPAR, Unit 33 New Arrivals, West Midlands, B26 3QJ", "name": "SPAR Birmingham Airport", "phone": "0121 782 4400", "website": "https://spar.co.uk/store-locator/afb59051-spar-birmingham-airport", "brand": "Spar"}, "geometry": {"type": "Point", "coordinates": [-1.73106265701026, 52.4512847432173]}},
{"type": "Feature", "id": "zaTxAzmE-XjrijmB9IdYXXRY7dI=", "properties": {"ref": "AFB27909", "@spider": "spar", "addr:full": "268 Newton Road, West Midlands, B43 6PT", "name": "SPAR - JEY'S CONVENIENCE & POST OFFICE", "website": "https://spar.co.uk/store-locator/afb27909-spar-jeys-convenience-post-office", "brand": "Spar"}, "geometry": {"type": "Point", "coordinates": [-1.955331, 52.5426201]}},
{"type": "Feature", "id": "gn-s3h-s5VT-doZqF_uyj8Vrkiw=", "properties": {"ref": "AFB22626", "@spider": "spar", "addr:full": "Euro Garages Ltd - Gateway, The Gateway Site, West Midlands, WV10 7ER", "name": "SPAR - Euro Garages - Gateway", "website": "https://spar.co.uk/store-locator/afb22626-spar-euro-garages-gateway", "brand": "Spar"}, "geometry": {"type": "Point", "coordinates": [-2.1274585, 52.6372949]}},
{"type": "Feature", "id": "VNh2kzYQmPSJ70vqkQfJQzeykXU=", "properties": {"ref": "HAL26964", "@spider": "spar", "addr:full": "Upper Gungate, Staffordshire, B79 7NU", "name": "SPAR Tamworth", "phone": "01827 318280", "website": "https://spar.co.uk/store-locator/hal26964-spar-tamworth", "brand": "Spar"}, "geometry": {"type": "Point", "coordinates": [-1.69425364758726, 52.6372142678863]}},
{"type": "Feature", "id": "bkbrAVcF5V0bHE7KI5pPatzOMRU=", "properties": {"ref": "AFB46194", "@spider": "spar", "addr:full": "SPAR, 81 Russells Hall Road, West Midlands, DY1 2NW", "name": "SPAR Russells Hall", "phone": "01384 256620", "website": "https://spar.co.uk/store-locator/afb46194-spar-russells-hall", "brand": "Spar"}, "geometry": {"type": "Point", "coordinates": [-2.11227325054075, 52.5094766450952]}},
{"type": "Feature", "id": "_cnbygls-eRAApC3XGNmdftPNms=", "properties": {"ref": "AFB12075", "@spider": "spar", "addr:full": "UNIT 1, MARLPOOL LANE, WORCS, DY11 5DA", "name": "SPAR Kidderminster", "phone": "01562 751571", "website": "https://spar.co.uk/store-locator/afb12075-spar-kidderminster", "brand": "Spar"}, "geometry": {"type": "Point", "coordinates": [-2.25984858451388, 52.3920683019833]}},
{"type": "Feature", "id": "8F605wGJ-ml64-5xcvi9zJQj-pw=", "properties": {"ref": "AFB47258", "@spider": "spar", "addr:full": "SPAR, 13 Abbey Road, West Midlands, DY3 2PQ", "name": "SPAR Gornal Wood", "phone": "01384 252 489", "website": "https://spar.co.uk/store-locator/afb47258-spar-gornal-wood", "brand": "Spar"}, "geometry": {"type": "Point", "coordinates": [-2.1306696279148, 52.5172609667647]}},
{"type": "Feature", "id": "cxPgzqB-IuiU5vBi2jzHsRIKW5c=", "properties": {"ref": "AFB38007", "@spider": "spar", "addr:full": "SPAR, 8 Blake Avenue, Worcestershire, WR9 8PQ", "name": "SPAR Droitwich", "phone": "01905 797121", "website": "https://spar.co.uk/store-locator/afb38007-spar-droitwich", "brand": "Spar"}, "geometry": {"type": "Point", "coordinates": [-2.16399879387575, 52.2586279318794]}},
{"type": "Feature", "id": "BYalSPo4OEVmli5_vcnKZ0kGjco=", "properties": {"ref": "AFB48465", "@spider": "spar", "addr:full": "SPAR, 28 - 30 Leicester Street, Warwickshire, CV12 9NG", "name": "SPAR Bulkington", "phone": "02476 312109", "website": "https://spar.co.uk/store-locator/afb48465-spar-bulkington", "brand": "Spar"}, "geometry": {"type": "Point", "coordinates": [-1.42470585519247, 52.4760026979428]}},
{"type": "Feature", "id": "WeDtJ2dF3y06fSjFpAi9aynEWvA=", "properties": {"ref": "AFB51310", "@spider": "spar", "addr:full": "Euro Garages, 156 Hagley Road , West Midlands , DY8 2JL", "name": "SPAR - Euro Garages - Stourbridge", "phone": "01384 375038", "website": "https://spar.co.uk/store-locator/afb51310-spar-euro-garages-stourbridge", "brand": "Spar"}, "geometry": {"type": "Point", "coordinates": [-2.14081840019965, 52.4467410341904]}},
{"type": "Feature", "id": "HvjuqUecjarfQGW8W7vCU4AQz2c=", "properties": {"ref": "AFB42261", "@spider": "spar", "addr:full": "Bridge End Service Station, Oversley Green, Warwickshire, B49 6PQ", "name": "SPAR - Oversley Green", "phone": "01789 400307", "website": "https://spar.co.uk/store-locator/afb42261-spar-oversley-green", "brand": "Spar"}, "geometry": {"type": "Point", "coordinates": [-1.87652680185003, 52.2044121956544]}},
{"type": "Feature", "id": "svSOQE_aHMAV0XvvCKVD5reFFlQ=", "properties": {"ref": "AFB27855", "@spider": "spar", "addr:full": "Shell Service Station, Warwick Road, Warwickshire, CV35 9LX", "name": "SPAR - Wellesbourne", "phone": "01789 470123", "website": "https://spar.co.uk/store-locator/afb27855-spar-wellesbourne", "brand": "Spar"}, "geometry": {"type": "Point", "coordinates": [-1.5945395698033, 52.1992497169398]}},
{"type": "Feature", "id": "SEvQ4hbtFGnHaOoVs75PU6TZRsE=", "properties": {"ref": "AFB11845", "@spider": "spar", "addr:full": "38-42, Broad Street, Worcestershire, B61 8LW", "name": "SPAR Bromsgrove", "phone": "01527 871644", "website": "https://spar.co.uk/store-locator/afb11845-spar-bromsgrove", "brand": "Spar"}, "geometry": {"type": "Point", "coordinates": [-2.06716380638543, 52.3398508303389]}},
{"type": "Feature", "id": "Fl5rZ85g-hwLIPS02Tr4eCr_bkM=", "properties": {"ref": "AFB11914", "@spider": "spar", "addr:full": "29 Banbury Road, Ettington, Warwickshire, CV37 7SN", "name": "SPAR - Ettington", "phone": "01789 748261", "website": "https://spar.co.uk/store-locator/afb11914-spar-ettington", "brand": "Spar"}, "geometry": {"type": "Point", "coordinates": [-1.60940851254298, 52.1386859800113]}},
{"type": "Feature", "id": "-t3DGaygBODxbl6iMRpbSbaTwn4=", "properties": {"ref": "AFB14104", "@spider": "spar", "addr:full": "195 Batchley Road, Batchley, Worcestershire, B97 6LB", "name": "SPAR Batchley", "phone": "01527 63132", "website": "https://spar.co.uk/store-locator/afb14104-spar-batchley", "brand": "Spar"}, "geometry": {"type": "Point", "coordinates": [-1.96774655677183, 52.3081752945457]}},
{"type": "Feature", "id": "4oewzVX4unuj3BVB9yqUPjuunt8=", "properties": {"ref": "AFB24452", "@spider": "spar", "addr:full": "Abbey Garage, Main Road, Worcestershire, GL54 5DT", "name": "SPAR - Oxring - Toddington", "phone": "01242 621224", "website": "https://spar.co.uk/store-locator/afb24452-spar-oxring-toddington", "brand": "Spar"}, "geometry": {"type": "Point", "coordinates": [-1.92987739664223, 51.9899593856635]}},
{"type": "Feature", "id": "GFPCJ1-MWLl6ov-xH-WvdjMPGI0=", "properties": {"ref": "AFB16600", "@spider": "spar", "addr:full": "Vale Road, Worcestershire, DY13 8YJ", "name": "EURO GARAGES - SPAR - STOURPORT", "phone": "01299 879865", "website": "https://spar.co.uk/store-locator/afb16600-euro-garages-spar-stourport", "brand": "Spar"}, "geometry": {"type": "Point", "coordinates": [-2.2763407, 52.341498]}},
{"type": "Feature", "id": "HYI7YMnmxkw5cuh8BmhUngzTAnI=", "properties": {"ref": "AFB15971", "@spider": "spar", "addr:full": "258 Birmingham Road, Worcestershire, B61 0HA", "name": "EURO GARAGES - SPAR - THE FOREST", "phone": "01527 833475", "website": "https://spar.co.uk/store-locator/afb15971-euro-garages-spar-the-forest", "brand": "Spar"}, "geometry": {"type": "Point", "coordinates": [-2.0469255, 52.3534456]}},
{"type": "Feature", "id": "OpMDjiOIma4oRhNFjNQPv6evBg8=", "properties": {"ref": "AFB25993", "@spider": "spar", "addr:full": "32 Bridgnorth Road, Compton, West Midlands, WV6 8AE", "name": "SPAR - Compton", "phone": "01902 751229", "website": "https://spar.co.uk/store-locator/afb25993-spar-compton", "brand": "Spar"}, "geometry": {"type": "Point", "coordinates": [-2.17750059741413, 52.5861521172135]}},
{"type": "Feature", "id": "bTGAt4ho3uWRNd5fpdhtPeMfOwM=", "properties": {"ref": "AFB16619", "@spider": "spar", "addr:full": "Wolverhampton Road, West Midlands, WV8 1PD", "name": "EURO GARAGES - SPAR - BIRCHES BRIDGE", "phone": "01902 845 188", "website": "https://spar.co.uk/store-locator/afb16619-euro-garages-spar-birches-bridge", "brand": "Spar"}, "geometry": {"type": "Point", "coordinates": [-2.194279, 52.6274989]}},
{"type": "Feature", "id": "OzRUdakqtk0_NNPxd9EwGkukQEg=", "properties": {"ref": "AFB24144", "@spider": "spar", "addr:full": "153-155 Cannock Road, Burntwood, Staffordshire, WS7 0BB", "name": "SPAR Burntwood", "phone": "01543 685494", "website": "https://spar.co.uk/store-locator/afb24144-spar-burntwood", "brand": "Spar"}, "geometry": {"type": "Point", "coordinates": [-1.92080550000003, 52.679669]}},
{"type": "Feature", "id": "v5jIM6ytwCUgWReo1UXCPq2qIa8=", "properties": {"ref": "AFB19269", "@spider": "spar", "addr:full": "Spar Stores, 117-119 Worcester Ln, Worcestershire, DY9 0NG", "name": "SPAR Hagley", "phone": "01562 229254", "website": "https://spar.co.uk/store-locator/afb19269-spar-hagley", "brand": "Spar"}, "geometry": {"type": "Point", "coordinates": [-2.14369721710682, 52.4199458314255]}},
{"type": "Feature", "id": "5qzCvip7ZL0B5DEy8e6Fbk1yX8M=", "properties": {"ref": "AFB35028", "@spider": "spar", "addr:full": "SPAR, 25 Ellerbeck, Staffordshire, B77 4JA", "name": "SPAR Stonydelph", "phone": "01827 896655", "website": "https://spar.co.uk/store-locator/afb35028-spar-stonydelph", "brand": "Spar"}, "geometry": {"type": "Point", "coordinates": [-1.65089202992169, 52.6175597610882]}},
{"type": "Feature", "id": "LzvICxd6RVLdqpZ6CBQ-qmU1jxY=", "properties": {"ref": "HAL25576", "@spider": "spar", "addr:full": "Javelin Service Station, Derby Road, Derbyshire, DE13 0DF", "name": "SPAR Euro Garage Burton Upon Trent", "phone": "01283 534389", "website": "https://spar.co.uk/store-locator/hal25576-spar-euro-garage-burton-upon-trent", "brand": "Spar"}, "geometry": {"type": "Point", "coordinates": [-1.61436949355603, 52.8320562118511]}},
{"type": "Feature", "id": "xgFj5Ao8lU9SOi8Us6qYyNdmqLQ=", "properties": {"ref": "AFB17872", "@spider": "spar", "addr:full": "Washford Drive , Redditch , Worcestershire, B98 0HX", "name": "SPAR - Washford Drive", "phone": "01527 510427", "website": "https://spar.co.uk/store-locator/afb17872-spar-washford-drive", "brand": "Spar"}, "geometry": {"type": "Point", "coordinates": [-1.90717772833222, 52.2841933589232]}},
{"type": "Feature", "id": "uLviWAiPMrYh0FsPyvxNXxBZ04o=", "properties": {"ref": "AFB23425", "@spider": "spar", "addr:full": "Main Street, Worcestershire, WR11 8TJ", "name": "SPAR - South Littleton", "phone": "01386 831449", "website": "https://spar.co.uk/store-locator/afb23425-spar-south-littleton", "brand": "Spar"}, "geometry": {"type": "Point", "coordinates": [-1.88967047127778, 52.114152044538]}},
{"type": "Feature", "id": "JifnH5Rc7AwVkAKnvFv5_L-bTrs=", "properties": {"ref": "AFB27759", "@spider": "spar", "addr:full": "54 Stratford Road, Warwickshire, CV34 6AT", "name": "EURO GARAGES - SPAR - STRATRODE", "phone": "01926 491 228", "website": "https://spar.co.uk/store-locator/afb27759-euro-garages-spar-stratrode", "brand": "Spar"}, "geometry": {"type": "Point", "coordinates": [-1.5962751, 52.2740406]}},
{"type": "Feature", "id": "IS53FwXk04DwOy0lYjNr5vsqthg=", "properties": {"ref": "AFB44642", "@spider": "spar", "addr:full": "35 Crown Way, Lillington, Warwickshire, CV32 7SF", "name": "SPAR - Crown Way", "phone": "01926 422894", "website": "https://spar.co.uk/store-locator/afb44642-spar-crown-way", "brand": "Spar"}, "geometry": {"type": "Point", "coordinates": [-1.52007512686551, 52.3030252774224]}},
{"type": "Feature", "id": "3H9EioO_6IBZ2JFXBUa94iD_lzo=", "properties": {"ref": "AFB23012", "@spider": "spar", "addr:full": "96 PERSHORE ROAD , Worcestershire, WR11 2PJ", "name": "SPAR - Evesham", "phone": "01386 442198", "website": "https://spar.co.uk/store-locator/afb23012-spar-evesham", "brand": "Spar"}, "geometry": {"type": "Point", "coordinates": [-1.96542346488226, 52.0875594518135]}},
{"type": "Feature", "id": "KhyQpZQeJPo6CxUs6efBA_rfTqM=", "properties": {"ref": "AFB53505", "@spider": "spar", "addr:full": "SPAR, 4 Cranham Drive, Worcestershire, WR4 9PA", "name": "SPAR Warndon", "phone": "01905 755021", "website": "https://spar.co.uk/store-locator/afb53505-spar-warndon", "brand": "Spar"}, "geometry": {"type": "Point", "coordinates": [-2.18664903116062, 52.2098845529436]}},
{"type": "Feature", "id": "GRgW9cQ-PIHTQgpB_AglqEfumhc=", "properties": {"ref": "AFB19662", "@spider": "spar", "addr:full": "Westlands Supermarket, 1 Farmer Way, Worcestershire, WR9 9EQ", "name": "SPAR - Droitwich", "phone": "01905 773724", "website": "https://spar.co.uk/store-locator/afb19662-spar-droitwich", "brand": "Spar"}, "geometry": {"type": "Point", "coordinates": [-2.16523269168994, 52.2752402712089]}},
{"type": "Feature", "id": "2RAG6msI9STXvguxY38-i0Izvok=", "properties": {"ref": "AWL27404", "@spider": "spar", "addr:full": "2 Battle Walk, Bath and North East Somerset, BA1 9AX", "name": "SPAR Battle Walk", "website": "https://spar.co.uk/store-locator/awl27404-spar-battle-walk", "brand": "Spar"}, "geometry": {"type": "Point", "coordinates": [-2.3756666, 51.4059322]}},
{"type": "Feature", "id": "Tq4UTgjRjWd7iA8r5D8DZiTSYNw=", "properties": {"ref": "AWL27860", "@spider": "spar", "addr:full": "280 High Street, Batheaston, BA1 7RA", "name": "SPAR Batheaston", "website": "https://spar.co.uk/store-locator/awl27860-spar-batheaston", "brand": "Spar"}, "geometry": {"type": "Point", "coordinates": [-2.3204914, 51.4055625]}},
{"type": "Feature", "id": "HH1SjSZ-76rT5mjf1ikqDcbkY3o=", "properties": {"ref": "AWL27672", "@spider": "spar", "addr:full": "154 - 156 Muller Road, Avon, BS7 9RE", "name": "SPAR Muller Way", "website": "https://spar.co.uk/store-locator/awl27672-spar-muller-way", "brand": "Spar"}, "geometry": {"type": "Point", "coordinates": [-2.5796852, 51.4835441]}},
{"type": "Feature", "id": "5Y4U0cACyV74M_5y7OUoautbHqo=", "properties": {"ref": "AWL27042", "@spider": "spar", "addr:full": "82-84 Bedminster Road, Bristol, BS3 5NP", "name": "SPAR Bedminster", "website": "https://spar.co.uk/store-locator/awl27042-spar-bedminster", "brand": "Spar"}, "geometry": {"type": "Point", "coordinates": [-2.60364, 51.43352]}},
{"type": "Feature", "id": "HFVwjmSAHNEI7YePEFibOUv1y7Q=", "properties": {"ref": "AWL26022", "@spider": "spar", "addr:full": "Church Lane, Somerset, BA3 2JL", "name": "SPAR Euro Garage Norton", "phone": "01761 412077", "website": "https://spar.co.uk/store-locator/awl26022-spar-euro-garage-norton", "brand": "Spar"}, "geometry": {"type": "Point", "coordinates": [-2.48586, 51.28569]}},
{"type": "Feature", "id": "0oTH6KwwpzL0g-6lhBKWZ-NaW-c=", "properties": {"ref": "AWL40065", "@spider": "spar", "addr:full": "Wick Road, BS39 5XQ", "name": "SPAR Wick Road", "phone": "01275 314532", "website": "https://spar.co.uk/store-locator/awl40065-spar-wick-road", "brand": "Spar"}, "geometry": {"type": "Point", "coordinates": [-2.5999966, 51.3313273]}},
{"type": "Feature", "id": "VeJWZqnbHxjjaCUbsFKyvoWoqSg=", "properties": {"ref": "AWL26833", "@spider": "spar", "addr:full": "SPAR, 4 Westerleigh Road, North Somerset, BS16 9RB", "name": "SPAR Pucklechurch", "phone": "01225 684208", "website": "https://spar.co.uk/store-locator/awl26833-spar-pucklechurch", "brand": "Spar"}, "geometry": {"type": "Point", "coordinates": [-2.4341, 51.48625]}},
{"type": "Feature", "id": "FlzRp_hAWJDoZxWYn_VpNVvBwsE=", "properties": {"ref": "AWL27700", "@spider": "spar", "addr:full": "240 - 246 Kingsway, Avon, BS5 8NS", "name": "SPAR Kingsway", "phone": "01174 038115", "website": "https://spar.co.uk/store-locator/awl27700-spar-kingsway", "brand": "Spar"}, "geometry": {"type": "Point", "coordinates": [-2.5256153, 51.4548165]}},
{"type": "Feature", "id": "ESMZ1xn9AFZHai3eK7IGFZEz7Mw=", "properties": {"ref": "AWL25610", "@spider": "spar", "addr:full": "1 Northcote Road, Mangotsfield, BS16 9HF", "name": "SPAR Kaur Mangotsfield", "phone": "01179 570498", "website": "https://spar.co.uk/store-locator/awl25610-spar-kaur-mangotsfield", "brand": "Spar"}, "geometry": {"type": "Point", "coordinates": [-2.48721, 51.48544]}},
{"type": "Feature", "id": "o_KDtnmYZrfBDLaqhn-Y8DfOdkg=", "properties": {"ref": "AWL27899", "@spider": "spar", "addr:full": "Warninster Service Area, Bath Road, Wiltshire, BA12 7RA", "name": "SPAR Euro Garage Bath Road", "website": "https://spar.co.uk/store-locator/awl27899-spar-euro-garage-bath-road", "brand": "Spar"}, "geometry": {"type": "Point", "coordinates": [-2.1999907, 51.2178683]}},
{"type": "Feature", "id": "zsVwO8BWlyyH_Y0UhUQuU20CPf4=", "properties": {"ref": "AWL24238", "@spider": "spar", "addr:full": "6 Chelsea Road, Lower weston, BA1 3DU", "name": "SPAR Goss Chelsea Road", "phone": "01225 427710", "website": "https://spar.co.uk/store-locator/awl24238-spar-goss-chelsea-road", "brand": "Spar"}, "geometry": {"type": "Point", "coordinates": [-2.38867, 51.38498]}},
{"type": "Feature", "id": "ndVGqYF6zqzrbZ8WCczVZpwAyKA=", "properties": {"ref": "AWL23854", "@spider": "spar", "addr:full": "Bill the Butcher, SPAR 11 High Street, Somerset, BA10 0AB", "name": "SPAR Bruton", "phone": "01749 812388", "website": "https://spar.co.uk/store-locator/awl23854-spar-bruton", "brand": "Spar"}, "geometry": {"type": "Point", "coordinates": [-2.45409, 51.11241]}},
{"type": "Feature", "id": "meXNoQ4v1v4s-JK9xLiMi4UACyw=", "properties": {"ref": "AWL40035", "@spider": "spar", "addr:full": "71 Queens Road, BS31 2NW", "name": "SPAR Queens Road", "phone": "01179 866160", "website": "https://spar.co.uk/store-locator/awl40035-spar-queens-road", "brand": "Spar"}, "geometry": {"type": "Point", "coordinates": [-2.5083313, 51.4089449]}},
{"type": "Feature", "id": "j89NDGHEXxBjg7JzzF10FDeyd6I=", "properties": {"ref": "AWL27853", "@spider": "spar", "addr:full": "2 Rivers Place, Somerset, BA1 2RS", "name": "SPAR Julian Road", "website": "https://spar.co.uk/store-locator/awl27853-spar-julian-road", "brand": "Spar"}, "geometry": {"type": "Point", "coordinates": [-2.3642434, 51.3878405]}},
{"type": "Feature", "id": "5OpaZ2GV2FBFPfU6nnkfw2F87J0=", "properties": {"ref": "AWL23910", "@spider": "spar", "addr:full": "SPAR, Warminster Road, Avon, BA2 7HY", "name": "SPAR Haring Monkton Combe", "phone": "01225 723627", "website": "https://spar.co.uk/store-locator/awl23910-spar-haring-monkton-combe", "brand": "Spar"}, "geometry": {"type": "Point", "coordinates": [-2.31346, 51.35988]}},
{"type": "Feature", "id": "qBZY2k4JENTRh6zvenYYrYEuW8Q=", "properties": {"ref": "AWL25757", "@spider": "spar", "addr:full": "SPAR, High Street, North Somerset, BS40 6EA", "name": "SPAR West Harptree", "phone": "01761 221338", "website": "https://spar.co.uk/store-locator/awl25757-spar-west-harptree", "brand": "Spar"}, "geometry": {"type": "Point", "coordinates": [-2.63033, 51.30891]}},
{"type": "Feature", "id": "lfFkkoaAf6vQAqOzBA5KrvEzwRU=", "properties": {"ref": "AWL27479", "@spider": "spar", "addr:full": "Windsor House, High Street, Bristol, BS39 6JD", "name": "SPAR High Littleton", "website": "https://spar.co.uk/store-locator/awl27479-spar-high-littleton", "brand": "Spar"}, "geometry": {"type": "Point", "coordinates": [-2.5104924, 51.3237235]}},
{"type": "Feature", "id": "RTPXhOowYsn17XAOFdXOAAEbF1w=", "properties": {"ref": "AWL40030", "@spider": "spar", "addr:full": "Rodden Road, BA11 2AE", "name": "SPAR Rodden Road", "phone": "01373 473050", "website": "https://spar.co.uk/store-locator/awl40030-spar-rodden-road", "brand": "Spar"}, "geometry": {"type": "Point", "coordinates": [-2.313127, 51.235043]}},
{"type": "Feature", "id": "D2I8_vUmmqRFrYsvBZm6Y9scaJk=", "properties": {"ref": "AWL27910", "@spider": "spar", "addr:full": "A303 -A37 Roundabout, Somerset, BA22 8JG", "name": "SPAR Euro Garage Podimore", "website": "https://spar.co.uk/store-locator/awl27910-spar-euro-garage-podimore", "brand": "Spar"}, "geometry": {"type": "Point", "coordinates": [-2.6597803, 51.0230491]}},
{"type": "Feature", "id": "YRhMUS5KOQBOnYd7ojhj821jnak=", "properties": {"ref": "AWL26016", "@spider": "spar", "addr:full": "SPAR, Chamberlain Street, Somerset, BA5 2PT", "name": "SPAR Euro Garage Wells", "phone": "01749 674820", "website": "https://spar.co.uk/store-locator/awl26016-spar-euro-garage-wells", "brand": "Spar"}, "geometry": {"type": "Point", "coordinates": [-2.65198, 51.20872]}},
{"type": "Feature", "id": "1BmMeRgE-gX1ih4Kw0pqhXt8U2Q=", "properties": {"ref": "AFB13560", "@spider": "spar", "addr:full": "19 - 21, Tucker Street, Somerset, BA5 2DZ", "name": "SPAR Wells", "phone": "01749 672014", "website": "https://spar.co.uk/store-locator/afb13560-spar-wells", "brand": "Spar"}, "geometry": {"type": "Point", "coordinates": [-2.65322007901516, 51.2075569323193]}},
{"type": "Feature", "id": "-wnRWAQA5SWhyoPDmhRS_-nhMSc=", "properties": {"ref": "AWL27275", "@spider": "spar", "addr:full": "7 Ashley Close, North Somerset, BS25 1DB", "name": "SPAR Winscombe", "phone": "01934 842927", "website": "https://spar.co.uk/store-locator/awl27275-spar-winscombe", "brand": "Spar"}, "geometry": {"type": "Point", "coordinates": [-2.8321, 51.31321]}},
{"type": "Feature", "id": "Qj6btPm0i2TIk5Yl6rNEUR0VpEI=", "properties": {"ref": "AWL22046", "@spider": "spar", "addr:full": "SPAR, Littleton Mills, Somerset, BS40 8HJ", "name": "SPAR Winford", "phone": "01275 332857", "website": "https://spar.co.uk/store-locator/awl22046-spar-winford", "brand": "Spar"}, "geometry": {"type": "Point", "coordinates": [-2.63618, 51.36964]}},
{"type": "Feature", "id": "qUdkRg-aWTeuUK5Z9MevJP-xKyE=", "properties": {"ref": "AWL25734", "@spider": "spar", "addr:full": "SPAR , Reckleford, Somerset, BA21 4EH", "name": "SPAR Yeovil Motors", "phone": "01395 410801", "website": "https://spar.co.uk/store-locator/awl25734-spar-yeovil-motors", "brand": "Spar"}, "geometry": {"type": "Point", "coordinates": [-2.62922, 50.94401]}},
{"type": "Feature", "id": "7YlkkPs4k5s7QGuNSMWkp3-9U7E=", "properties": {"ref": "AWL22749", "@spider": "spar", "addr:full": "Brent Knoll Garage, Bristol Road, Somerset, TA9 4HH", "name": "SPAR Brent Knoll Garage", "phone": "01278 760542", "website": "https://spar.co.uk/store-locator/awl22749-spar-brent-knoll-garage", "brand": "Spar"}, "geometry": {"type": "Point", "coordinates": [-2.9454, 51.24398]}},
{"type": "Feature", "id": "SPMDxL9Uhui7CeuIluL9N_LKfYU=", "properties": {"ref": "AWL40015", "@spider": "spar", "addr:full": "59 West Coker Road, Somerset, BA20 2LZ", "name": "SPAR West Coker Road", "phone": "01935 475793", "website": "https://spar.co.uk/store-locator/awl40015-spar-west-coker-road", "brand": "Spar"}, "geometry": {"type": "Point", "coordinates": [-2.6479728, 50.9300456]}},
{"type": "Feature", "id": "GkaPL35pyoFq9Z8cMkh-Xm80YVQ=", "properties": {"ref": "AWL26039", "@spider": "spar", "addr:full": "SPAR, Nunney Catch, Somerset, BA11 4NZ", "name": "SPAR Euro Garage Nunney Catch", "phone": "01373 836361", "website": "https://spar.co.uk/store-locator/awl26039-spar-euro-garage-nunney-catch", "brand": "Spar"}, "geometry": {"type": "Point", "coordinates": [-2.37676, 51.2012]}},
{"type": "Feature", "id": "etOtR3sBU-fApCEgWDIRdWDd0eM=", "properties": {"ref": "AWL11988", "@spider": "spar", "addr:full": "Market Place, Nunney, Somerset, BA11 4LY", "name": "SPAR Market Place, Nunney", "phone": "01373 836301", "website": "https://spar.co.uk/store-locator/awl11988-spar-market-place-nunney", "brand": "Spar"}, "geometry": {"type": "Point", "coordinates": [-2.379, 51.20919]}},
{"type": "Feature", "id": "s1kRoQDVaERzuOJ3h7wT8yEM0g0=", "properties": {"ref": "AWL27348", "@spider": "spar", "addr:full": "Unit 1, Mampitts Lane, Dorest, SP7 8GR", "name": "SPAR Latestop Shaftsbury", "phone": "01747 228514", "website": "https://spar.co.uk/store-locator/awl27348-spar-latestop-shaftsbury", "brand": "Spar"}, "geometry": {"type": "Point", "coordinates": [-2.17902609999999, 51.0061264]}},
{"type": "Feature", "id": "98_XcC-rqhvaSgfzHBj78cExJ58=", "properties": {"ref": "AWL26051", "@spider": "spar", "addr:full": "SPAR, West Knoyle, Wiltshire, BA12 6AQ", "name": "SPAR Euro Garage Willoughby Hedge", "phone": "01747 830458", "website": "https://spar.co.uk/store-locator/awl26051-spar-euro-garage-willoughby-hedge", "brand": "Spar"}, "geometry": {"type": "Point", "coordinates": [-2.18558, 51.10153]}},
{"type": "Feature", "id": "WL-gH6hvDMcYJF9jwC8vHl9_mNE=", "properties": {"ref": "AWL27876", "@spider": "spar", "addr:full": "The Cross Stores, Dorset, DT11 8ED", "name": "SPAR Child Okeford", "phone": "01258 861445", "website": "https://spar.co.uk/store-locator/awl27876-spar-child-okeford", "brand": "Spar"}, "geometry": {"type": "Point", "coordinates": [-2.2367396, 50.913859]}},
{"type": "Feature", "id": "Ec-t3EcdAIYOhMxKRw9f65-rOTk=", "properties": {"ref": "AWL26509", "@spider": "spar", "addr:full": "SPAR , The Causeway, Dorset, DT10 2BH", "name": "SPAR Red Barn", "phone": "01258 817491", "website": "https://spar.co.uk/store-locator/awl26509-spar-red-barn", "brand": "Spar"}, "geometry": {"type": "Point", "coordinates": [-2.3648, 50.88157]}},
{"type": "Feature", "id": "esoQMRbSFMP-KYEY58zz8d9pVVg=", "properties": {"ref": "AWL26045", "@spider": "spar", "addr:full": "East Street, Wiltshire, BA12 9BJ", "name": "SPAR Euro Garage Warminster East", "phone": "01985 218240", "website": "https://spar.co.uk/store-locator/awl26045-spar-euro-garage-warminster-east", "brand": "Spar"}, "geometry": {"type": "Point", "coordinates": [-2.17646, 51.20317]}},
{"type": "Feature", "id": "Tkx2b2CCv-pn-h1FyoIEPMZNDTk=", "properties": {"ref": "AWL24483", "@spider": "spar", "addr:full": "New Street, Dorset, DT10 1PX", "name": "SPAR Marnhull", "phone": "01258 820116", "website": "https://spar.co.uk/store-locator/awl24483-spar-marnhull", "brand": "Spar"}, "geometry": {"type": "Point", "coordinates": [-2.31974, 50.96538]}},
{"type": "Feature", "id": "gd0sdb7aUUtcxYZemEnBStz6t60=", "properties": {"ref": "AWL26068", "@spider": "spar", "addr:full": "Ivy Cross, Dorset, SP7 8DS", "name": "SPAR Euro Garage Ivy Cross", "phone": "01747 851768", "website": "https://spar.co.uk/store-locator/awl26068-spar-euro-garage-ivy-cross", "brand": "Spar"}, "geometry": {"type": "Point", "coordinates": [-2.19277, 51.01058]}},
{"type": "Feature", "id": "a03WVQU1OLej6lFYBfaVheKUVLk=", "properties": {"ref": "AWL28062", "@spider": "spar", "addr:full": "Forge Garage, Bourton, Dorset, SP8 5BD", "name": "SPAR Forge Grage, Bourton", "phone": "01747 840234", "website": "https://spar.co.uk/store-locator/awl28062-spar-forge-grage-bourton", "brand": "Spar"}, "geometry": {"type": "Point", "coordinates": [-2.3221653, 51.0753696]}},
{"type": "Feature", "id": "vGCLOG4p22_rHVDEc9gPkARxJrU=", "properties": {"ref": "AWL27847", "@spider": "spar", "addr:full": "Riverside Garage, Stapleford, Wiltshire, SP4 4LT", "name": "SPAR Stapleford", "phone": "01722 790858", "website": "https://spar.co.uk/store-locator/awl27847-spar-stapleford", "brand": "Spar"}, "geometry": {"type": "Point", "coordinates": [-1.9018591, 51.1315785]}},
{"type": "Feature", "id": "SCPTOAzUdEgPVtMn8fxNikLFhEs=", "properties": {"ref": "AWL12174", "@spider": "spar", "addr:full": "Bath Road, Wiltshire, SN10 1QG", "name": "SPAR Devizes", "phone": "01380 724483", "website": "https://spar.co.uk/store-locator/awl12174-spar-devizes", "brand": "Spar"}, "geometry": {"type": "Point", "coordinates": [-2.01482, 51.35179]}},
{"type": "Feature", "id": "kj_eKml7zZr0V-HN8RonIs1teUc=", "properties": {"ref": "AWL27491", "@spider": "spar", "addr:full": "21 - 23 Holcombe Road, Somerset, BA2 6UL", "name": "SPAR Bathampton", "website": "https://spar.co.uk/store-locator/awl27491-spar-bathampton", "brand": "Spar"}, "geometry": {"type": "Point", "coordinates": [-2.3214349, 51.3933211]}},
{"type": "Feature", "id": "9xwjy7F7fC3reCUmXjmM9mZoY1M=", "properties": {"ref": "AWL24800", "@spider": "spar", "addr:full": "Buncombes Garage, Huntspill, Somerset, TA9 3DE", "name": "SPAR Highbridge", "phone": "01278 781103", "website": "https://spar.co.uk/store-locator/awl24800-spar-highbridge", "brand": "Spar"}, "geometry": {"type": "Point", "coordinates": [-2.97905, 51.21829]}},
{"type": "Feature", "id": "sIAG9h_T3HPsxFKiZUNVD1Vazp8=", "properties": {"ref": "AWL26573", "@spider": "spar", "addr:full": "Sedgemoor Services, M5 South, Somerset, BS26 2UF", "name": "SPAR Roadchef Sedgemoor Services", "phone": "01934 750888", "website": "https://spar.co.uk/store-locator/awl26573-spar-roadchef-sedgemoor-services", "brand": "Spar"}, "geometry": {"type": "Point", "coordinates": [-2.91919, 51.26928]}},
{"type": "Feature", "id": "iUYOu08vW6vOPr-pY_9_Qhn5KKs=", "properties": {"ref": "AWL21010", "@spider": "spar", "addr:full": "Maiden Newton Filling Station, Dorchester Road, Dorset, DT2 0BA", "name": "SPAR Maiden Newton", "phone": "01300 320289", "website": "https://spar.co.uk/store-locator/awl21010-spar-maiden-newton", "brand": "Spar"}, "geometry": {"type": "Point", "coordinates": [-2.56976, 50.7763]}},
{"type": "Feature", "id": "5OnogVmoORv4R0lv5ZICm_04j2Y=", "properties": {"ref": "AWL14019", "@spider": "spar", "addr:full": "59 Station Road, Somerset, TA19 9BG", "name": "SPAR Ilminster", "phone": "01460 55528", "website": "https://spar.co.uk/store-locator/awl14019-spar-ilminster", "brand": "Spar"}, "geometry": {"type": "Point", "coordinates": [-2.92264, 50.92974]}},
{"type": "Feature", "id": "y7nJHLK1kQ3zNoXkUUDi8C1j6k0=", "properties": {"ref": "AWL28182", "@spider": "spar", "addr:full": "39-41 Clay Lane, Dorset, DT8 3BX", "name": "SPAR Beaminster", "phone": "01308 863353", "website": "https://spar.co.uk/store-locator/awl28182-spar-beaminster", "brand": "Spar"}, "geometry": {"type": "Point", "coordinates": [-2.74809, 50.81014]}},
{"type": "Feature", "id": "zU_Zy1XOPBJ7q2-2rPZXyVaH1xY=", "properties": {"ref": "AWL27281", "@spider": "spar", "addr:full": "Mosterton Village shop, Orchard Way, Dorset, DT8 3LT", "name": "SPAR Orchard Way", "phone": "01308 301296", "website": "https://spar.co.uk/store-locator/awl27281-spar-orchard-way", "brand": "Spar"}, "geometry": {"type": "Point", "coordinates": [-2.77215580000006, 50.8447622]}},
{"type": "Feature", "id": "Mp8v2vIKn_SWwOTG2EC3fV2k7_E=", "properties": {"ref": "AWL27903", "@spider": "spar", "addr:full": "Southfields Roundabout, Somerset, TA19 9FF", "name": "SPAR Euro Garage Illminster", "website": "https://spar.co.uk/store-locator/awl27903-spar-euro-garage-illminster", "brand": "Spar"}, "geometry": {"type": "Point", "coordinates": [-2.9368376, 50.9334652]}},
{"type": "Feature", "id": "c7gDFUCCYg2bSDcjpohPUhHCJew=", "properties": {"ref": "HAL29858", "@spider": "spar", "addr:full": "71 - 95 Whalley Range , Lancashire , BB1 6EE", "name": "SPAR Whalley Range KQF", "phone": "0125452527", "website": "https://spar.co.uk/store-locator/hal29858-spar-whalley-range-kqf", "brand": "Spar"}, "geometry": {"type": "Point", "coordinates": [-2.47727204092572, 53.7558695180629]}},
{"type": "Feature", "id": "8gtqoZCcdGOhlOnSBeBHoDGrGAI=", "properties": {"ref": "HAL31671", "@spider": "spar", "addr:full": "Junction 6, M65, Lancashire , BB1 3HR", "name": "SPAR Frontier Park", "phone": "01254 693150", "website": "https://spar.co.uk/store-locator/hal31671-spar-frontier-park", "brand": "Spar"}, "geometry": {"type": "Point", "coordinates": [-2.44540160447001, 53.7539519407825]}},
{"type": "Feature", "id": "7a6SDouoD_w5QudI6Wfl5f0EVlc=", "properties": {"ref": "HAL22380", "@spider": "spar", "addr:full": "223 Shadsworth Road, Blackburn, Lancashire, BB1 2HR", "name": "SPAR Store", "phone": "1254693484", "website": "https://spar.co.uk/store-locator/hal22380-spar-store", "brand": "Spar"}, "geometry": {"type": "Point", "coordinates": [-2.45253869999999, 53.7389082]}},
{"type": "Feature", "id": "X_mf1VPTlQrQHiqyOHv8VYSKuoY=", "properties": {"ref": "HAL26760", "@spider": "spar", "addr:full": "Grimshaw Park Service Station, Grimshaw Park, Lancashire, BB2 3AG", "name": "SPAR Grimshaw Park", "phone": "01254 676474", "website": "https://spar.co.uk/store-locator/hal26760-spar-grimshaw-park", "brand": "Spar"}, "geometry": {"type": "Point", "coordinates": [-2.47787267482777, 53.7393109977294]}},
{"type": "Feature", "id": "nxjlwf2kb9Cwe_WqXQ-n6mJgukw=", "properties": {"ref": "HAL25684", "@spider": "spar", "addr:full": "Whalley Banks, King Street, Lancashire, BB2 1NT", "name": "SPAR Whalley Banks", "phone": "01254 582278", "website": "https://spar.co.uk/store-locator/hal25684-spar-whalley-banks", "brand": "Spar"}, "geometry": {"type": "Point", "coordinates": [-2.49194604146084, 53.7435593470743]}},
{"type": "Feature", "id": "AjBxwKDMvTEJZCVBSGVAonAmkgg=", "properties": {"ref": "HAL11710", "@spider": "spar", "addr:full": "New Chapel Street, Mill Hill, Lancashire, BB2 4DT", "name": "SPAR Bridge Chapel Street", "phone": "01254 59257", "website": "https://spar.co.uk/store-locator/hal11710-spar-bridge-chapel-street", "brand": "Spar"}, "geometry": {"type": "Point", "coordinates": [-2.50284062481245, 53.7340765570154]}},
{"type": "Feature", "id": "jqNPiUBQh0VP7gwrmOW18x1Snz0=", "properties": {"ref": "HAL41015", "@spider": "spar", "addr:full": "654 Preston Old Road , LANCASHIRE, BB2 5EP", "name": "SPAR Three Arches", "phone": "01254 208379", "website": "https://spar.co.uk/store-locator/hal41015-spar-three-arches", "brand": "Spar"}, "geometry": {"type": "Point", "coordinates": [-2.53740610928518, 53.7271943261037]}},
{"type": "Feature", "id": "pnn5xYNZqTRWYbxSJBKyYdI4cpM=", "properties": {"ref": "HAL12486", "@spider": "spar", "addr:full": "1A, Portland Road, Lancashire, BB6 8EL", "name": "SPAR Portland Road", "phone": "01254 249231", "website": "https://spar.co.uk/store-locator/hal12486-spar-portland-road", "brand": "Spar"}, "geometry": {"type": "Point", "coordinates": [-2.4517938291972, 53.7998210962031]}},
{"type": "Feature", "id": "m_gIZlqIiV4ClNIs2xyI69WVcN0=", "properties": {"ref": "HAL20195", "@spider": "spar", "addr:full": "9 George Street, Whalley, Lancashire, BB7 9TH", "name": "SPAR Whalley", "phone": "01254 822466", "website": "https://spar.co.uk/store-locator/hal20195-spar-whalley", "brand": "Spar"}, "geometry": {"type": "Point", "coordinates": [-2.40763131738313, 53.8220899119992]}},
{"type": "Feature", "id": "3oFuoQiHT2qESFNFCQmi9v6tk_w=", "properties": {"ref": "HAL12405", "@spider": "spar", "addr:full": "133-135, Station Road, Lancashire, PR5 6QS", "name": "SPAR Station Road", "phone": "01772 335870", "website": "https://spar.co.uk/store-locator/hal12405-spar-station-road", "brand": "Spar"}, "geometry": {"type": "Point", "coordinates": [-2.66221516928159, 53.7326723606564]}},
{"type": "Feature", "id": "GgThhQRrF0qhn9-_LpLY9AXzz14=", "properties": {"ref": "HAL26891", "@spider": "spar", "addr:full": "3-5 Sandringham Road, Walton le Dale, Lancashire, PR5 4QN", "name": "SPAR Sandringham Road", "phone": "01772 335993", "website": "https://spar.co.uk/store-locator/hal26891-spar-sandringham-road", "brand": "Spar"}, "geometry": {"type": "Point", "coordinates": [-2.67236329681926, 53.7397614787567]}},
{"type": "Feature", "id": "-aJC3TzfJCQqwfx7sD_ETzg45Jg=", "properties": {"ref": "HAL27479", "@spider": "spar", "addr:full": "CLAYTON BRROK SERVICE STATION, PRESTON ROAD, LANCASHIRE, PR6 7EJ", "name": "SPAR Euro Garage Clayton Brook", "phone": "01772323521", "website": "https://spar.co.uk/store-locator/hal27479-spar-euro-garage-clayton-brook", "brand": "Spar"}, "geometry": {"type": "Point", "coordinates": [-2.64556833813064, 53.7136991725565]}},
{"type": "Feature", "id": "vH4gSMf1D7N3Z6eSQ-Sffqj0Ox4=", "properties": {"ref": "HAL26856", "@spider": "spar", "addr:full": "Bolton Rd Service Station, Bolton Road, Lancashire, BB3 2PS", "name": "SPAR Bolton Road", "phone": "01254 702170", "website": "https://spar.co.uk/store-locator/hal26856-spar-bolton-road", "brand": "Spar"}, "geometry": {"type": "Point", "coordinates": [-2.46253299641499, 53.6857477795407]}},
{"type": "Feature", "id": "rDNn20GiUusgHXbVOAnCcilaSqc=", "properties": {"ref": "HAL26810", "@spider": "spar", "addr:full": "Rossendale Rd Service Station, Rossendale Road, Lancashire, BB11 5DB", "name": "SPAR Rossendale Road", "phone": "01282 415073", "website": "https://spar.co.uk/store-locator/hal26810-spar-rossendale-road", "brand": "Spar"}, "geometry": {"type": "Point", "coordinates": [-2.27737392888562, 53.7809825487772]}},
{"type": "Feature", "id": "DS1lNRytRfV8kp3JWb1-V4yE4J8=", "properties": {"ref": "HAL25229", "@spider": "spar", "addr:full": "Motorway Filling Station, Rochdale Road, BL9 7BD", "name": "SPAR Euro Garage Bury", "phone": "01617644665", "website": "https://spar.co.uk/store-locator/hal25229-spar-euro-garage-bury", "brand": "Spar"}, "geometry": {"type": "Point", "coordinates": [-2.28373777143837, 53.5927286996853]}},
{"type": "Feature", "id": "weXLIgSMoqsZ_m-x_WLJkK8FAU8=", "properties": {"ref": "HAL22046", "@spider": "spar", "addr:full": "343, Leyland Lane, Lancashire, PR25 1UP", "name": "SPAR Leyland", "phone": "01772 421379", "website": "https://spar.co.uk/store-locator/hal22046-spar-leyland", "brand": "Spar"}, "geometry": {"type": "Point", "coordinates": [-2.71631311869868, 53.6897026456463]}},
{"type": "Feature", "id": "usSDdZNvgeQwmKZ8l1mhkPIK4lE=", "properties": {"ref": "HAL11227", "@spider": "spar", "addr:full": "419, Watling Street Road, Lancashire, PR2 6TY", "name": "SPAR Watling Street Road", "phone": "01772 702197", "website": "https://spar.co.uk/store-locator/hal11227-spar-watling-street-road", "brand": "Spar"}, "geometry": {"type": "Point", "coordinates": [-2.66997072734234, 53.7818576151414]}},
{"type": "Feature", "id": "IjinFhB4302roqggUxAghHY7C74=", "properties": {"ref": "HAL21997", "@spider": "spar", "addr:full": "Holmfield Garage Store, Burnley Road, Lancashire, BB4 8EW", "name": "SPAR Rawtenstall", "phone": "01706 214512", "website": "https://spar.co.uk/store-locator/hal21997-spar-rawtenstall", "brand": "Spar"}, "geometry": {"type": "Point", "coordinates": [-2.28698613076634, 53.7062690381369]}},
{"type": "Feature", "id": "stcfH9kuFiRYMnnqKIuIJxoh94o=", "properties": {"ref": "HAL30152", "@spider": "spar", "addr:full": "JUNCTION 13 SERVICES , WESTFEILD, LANCASHIRE, BB9 7YL", "name": "SPAR Westfield", "phone": "01282 695410", "website": "https://spar.co.uk/store-locator/hal30152-spar-westfield", "brand": "Spar"}, "geometry": {"type": "Point", "coordinates": [-2.2172010219119, 53.8423417020997]}},
{"type": "Feature", "id": "LjvJbbUufGZ4cOftkVubyODd6tI=", "properties": {"ref": "HAL24591", "@spider": "spar", "addr:full": "Greencroft Service Station, New Road, M26 1LS", "name": "SPAR Euro Garage Radcliffe", "phone": "0161 723 4465", "website": "https://spar.co.uk/store-locator/hal24591-spar-euro-garage-radcliffe", "brand": "Spar"}, "geometry": {"type": "Point", "coordinates": [-2.31998321876796, 53.5568815959993]}},
{"type": "Feature", "id": "mtI_6dBxbsVc5_8QCczvpXpUGK8=", "properties": {"ref": "HAL30747", "@spider": "spar", "addr:full": "21 Market Street, Little Lever, BL3 1HH", "name": "SPAR Little Lever ", "phone": "01204 864903", "website": "https://spar.co.uk/store-locator/hal30747-spar-little-lever", "brand": "Spar"}, "geometry": {"type": "Point", "coordinates": [-2.3715336305394, 53.561999656745]}},
{"type": "Feature", "id": "Lun5v2V6EfSh-p0ge2KlOeFmunc=", "properties": {"ref": "HAL30600", "@spider": "spar", "addr:full": "231 Hollins Lane, M24 5LU", "name": "SPAR Hollins Lane Middleton", "phone": "0161 655 4353", "website": "https://spar.co.uk/store-locator/hal30600-spar-hollins-lane-middleton", "brand": "Spar"}, "geometry": {"type": "Point", "coordinates": [-2.20492938477399, 53.5637676837442]}},
{"type": "Feature", "id": "j15gPqjNpXKD2jaRWMiD4pEq8BQ=", "properties": {"ref": "HAL22886", "@spider": "spar", "addr:full": "144-146, Burnley Road, Lancashire, BB5 6DW", "name": "SPAR Accrington", "phone": "01254 393503", "website": "https://spar.co.uk/store-locator/hal22886-spar-accrington", "brand": "Spar"}, "geometry": {"type": "Point", "coordinates": [-2.35869728268144, 53.7574786370459]}},
{"type": "Feature", "id": "Ob_Z94qvDeI8qDzusqAXwRkC5Jk=", "properties": {"ref": "HAL28056", "@spider": "spar", "addr:full": "FIVEBARRED GATE, PRESTON NEW ROAD, PRESTON, PR5 0UX", "name": "SPAR Euro Garage Fivebarred Gate", "phone": "01772 877401", "website": "https://spar.co.uk/store-locator/hal28056-spar-euro-garage-fivebarred-gate", "brand": "Spar"}, "geometry": {"type": "Point", "coordinates": [-2.59747815058393, 53.7640039669297]}},
{"type": "Feature", "id": "AKSvr2qOQxtmFIXaJvVX7IwhnVg=", "properties": {"ref": "HAL30044", "@spider": "spar", "addr:full": "1-3 BRIDGE RD, CHATBURN, BB7 4AW", "name": "SPAR Chatburn", "phone": "01200 442319", "website": "https://spar.co.uk/store-locator/hal30044-spar-chatburn", "brand": "Spar"}, "geometry": {"type": "Point", "coordinates": [-2.35379707214518, 53.8924744865984]}},
{"type": "Feature", "id": "bcZW-DgDVh9NE8QhTAI-GKMsd6Q=", "properties": {"ref": "HAL23428", "@spider": "spar", "addr:full": "Prospect Service Station, Brandlesholme Road, Lancashire, BL8 1AU", "name": "SPAR Euro Garage Brandlesholme", "phone": "01617621155", "website": "https://spar.co.uk/store-locator/hal23428-spar-euro-garage-brandlesholme", "brand": "Spar"}, "geometry": {"type": "Point", "coordinates": [-2.30954354976828, 53.6011316470738]}},
{"type": "Feature", "id": "3gLKTldDe7NyLMkYJ2oga4NFeE8=", "properties": {"ref": "HAL29018", "@spider": "spar", "addr:full": "Houghton Lane, LANCASHIRE, PR5 0JE", "name": "SPAR Houghton", "phone": "01254852412", "website": "https://spar.co.uk/store-locator/hal29018-spar-houghton", "brand": "Spar"}, "geometry": {"type": "Point", "coordinates": [-2.61638628590082, 53.7406378019781]}},
{"type": "Feature", "id": "ERqKHYrBJ7UMGJKhyG1LYjMxTy4=", "properties": {"ref": "HAL26783", "@spider": "spar", "addr:full": "Primrose Garage, Whalley Road, Lancashire, BB7 1HU", "name": "SPAR Primrose", "phone": "01200 429894", "website": "https://spar.co.uk/store-locator/hal26783-spar-primrose", "brand": "Spar"}, "geometry": {"type": "Point", "coordinates": [-2.39512524704541, 53.8635842176444]}},
{"type": "Feature", "id": "Qsqr1q5XMiiihKj1wpYupEaFvms=", "properties": {"ref": "HAL10531", "@spider": "spar", "addr:full": "Edisford Road, Lancashire, BB7 2LT", "name": "SPAR Edisford Road", "phone": "01200 426834", "website": "https://spar.co.uk/store-locator/hal10531-spar-edisford-road", "brand": "Spar"}, "geometry": {"type": "Point", "coordinates": [-2.40683459320275, 53.8699534592589]}},
{"type": "Feature", "id": "s2bpTqsXzy9gMpL7EZT4slQB4e4=", "properties": {"ref": "AFB24337", "@spider": "spar", "addr:full": "Market Street, Bacup , Greater Manchester, OL13 0AZ", "name": "SPAR - PLATINUM RETAIL - MARKET STREET SERVICE STATION LTD", "phone": "01706 879790", "website": "https://spar.co.uk/store-locator/afb24337-spar-platinum-retail-market-street-service-station-ltd", "brand": "Spar"}, "geometry": {"type": "Point", "coordinates": [-2.20086820000006, 53.6976336]}},
{"type": "Feature", "id": "rAjgLhHB3gDSIG8RaA8LSTXivC4=", "properties": {"ref": "HAL29190", "@spider": "spar", "addr:full": "42 Sackville Street, BD23 2PS", "name": "SPAR Skipton", "phone": "01756700036", "website": "https://spar.co.uk/store-locator/hal29190-spar-skipton", "brand": "Spar"}, "geometry": {"type": "Point", "coordinates": [-2.01593493073525, 53.9571680826765]}},
{"type": "Feature", "id": "JRs4gOdXMLPvn11nUkyNf4bO3KM=", "properties": {"ref": "HAL12139", "@spider": "spar", "addr:full": "97-103, Thwaites Road, Lancashire, BB5 4QG", "name": "SPAR Oswaldtwistle", "phone": "01254 381531", "website": "https://spar.co.uk/store-locator/hal12139-spar-oswaldtwistle", "brand": "Spar"}, "geometry": {"type": "Point", "coordinates": [-2.40638592121036, 53.7452014164785]}},
{"type": "Feature", "id": "FknhqAfaQuSHU1bcB8N5OirrHuA=", "properties": {"ref": "HAL19616", "@spider": "spar", "addr:full": "Station Road, West Yorkshire, BD22 8NJ", "name": "SPAR Haworth", "phone": "01535 647662", "website": "https://spar.co.uk/store-locator/hal19616-spar-haworth", "brand": "Spar"}, "geometry": {"type": "Point", "coordinates": [-1.94872969860627, 53.8312570905336]}},
{"type": "Feature", "id": "v_hPPd0p-xrhpiplWZXwLMpBhu0=", "properties": {"ref": "HAL12434", "@spider": "spar", "addr:full": "520 Brunshaw Rd, Worsthorne-with-Hurstwood, Lancashire, BB10 4HP", "name": "SPAR Brunshaw Road", "phone": "01282 455735", "website": "https://spar.co.uk/store-locator/hal12434-spar-brunshaw-road", "brand": "Spar"}, "geometry": {"type": "Point", "coordinates": [-2.21004170000003, 53.7867502]}},
{"type": "Feature", "id": "E5NeI6S6FPrm9Ay_aeJ5qtuzk6k=", "properties": {"ref": "HAL11892", "@spider": "spar", "addr:full": "146, Burnley Road, BB10 2HJ", "name": "SPAR Burnley Road", "phone": "01282 453794", "website": "https://spar.co.uk/store-locator/hal11892-spar-burnley-road", "brand": "Spar"}, "geometry": {"type": "Point", "coordinates": [-2.20639635362959, 53.8116760074976]}},
{"type": "Feature", "id": "EJu8ZaZTrnnEWklBD00gLxyQ2tk=", "properties": {"ref": "HAL12904", "@spider": "spar", "addr:full": "61-63, St Matthews Street, Lancashire, BB11 4LF", "name": "SPAR St Matthews Street", "phone": "01282 430401", "website": "https://spar.co.uk/store-locator/hal12904-spar-st-matthews-street", "brand": "Spar"}, "geometry": {"type": "Point", "coordinates": [-2.25724477200807, 53.7849282595642]}},
{"type": "Feature", "id": "WU2kbmFyuNShoXWwlyS4txWwOV4=", "properties": {"ref": "HAL29228", "@spider": "spar", "addr:full": "115 Todmorden Road , Lancashire, BB11 3EX", "name": "SPAR Todmorden Road", "phone": "01282 839249", "website": "https://spar.co.uk/store-locator/hal29228-spar-todmorden-road", "brand": "Spar"}, "geometry": {"type": "Point", "coordinates": [-2.23132096970723, 53.7819341942508]}},
{"type": "Feature", "id": "VB_ij4e55-OddQrhShRXbJEYSJ8=", "properties": {"ref": "HAL26833", "@spider": "spar", "addr:full": "Kitchens Service Station, Trafalgar Street, Lancashire, BB11 1TQ", "name": "SPAR Kitchens", "phone": "01282 454529", "website": "https://spar.co.uk/store-locator/hal26833-spar-kitchens", "brand": "Spar"}, "geometry": {"type": "Point", "coordinates": [-2.24943783900548, 53.7864907058446]}},
{"type": "Feature", "id": "X1H0RuKPxOezlmWlOa4RKnTP7OE=", "properties": {"ref": "HAL25652", "@spider": "spar", "addr:full": "Burnley Barracks, Barracks Rd, St Teresa, Lancashire, BB11 4SB", "name": "SPAR Barracks Road", "phone": "012820451279", "website": "https://spar.co.uk/store-locator/hal25652-spar-barracks-road", "brand": "Spar"}, "geometry": {"type": "Point", "coordinates": [-2.2614682, 53.7887994]}},
{"type": "Feature", "id": "0Ny8tcRcprWmFXqYa2rYbwxtA-8=", "properties": {"ref": "HAL20665", "@spider": "spar", "addr:full": "468 - 470, Padiham Road, Lancashire, BB12 6TD", "name": "SPAR Padiham Road", "phone": "01282 448357", "website": "https://spar.co.uk/store-locator/hal20665-spar-padiham-road", "brand": "Spar"},