{"type":"FeatureCollection","features":[{"type": "Feature", "id": "pW6pdz25Kk15XIa0h3t8cL3Hst4=", "properties": {"ref": "https://www.specsavers.co.uk/stores/amersham", "@spider": "specsavers", "addr:country": "GB", "name": "\nAmersham\n", "phone": "01494 418 752", "website": "https://www.specsavers.co.uk/stores/amersham"}, "geometry": {"type": "Point", "coordinates": [-0.60634164, 51.67799276]}},
{"type": "Feature", "id": "CfpKryTb3sYWar7QXeUpA-if5f0=", "properties": {"ref": "https://www.specsavers.co.uk/stores/ely", "@spider": "specsavers", "addr:country": "GB", "name": "\nEly\n", "phone": "01353 653 120", "website": "https://www.specsavers.co.uk/stores/ely"}, "geometry": {"type": "Point", "coordinates": [0.265002, 52.399282]}},
{"type": "Feature", "id": "hwzgZTcQ881tup7Trc99z6VRpPg=", "properties": {"ref": "https://www.specsavers.co.uk/stores/eastmaynesainsburys", "@spider": "specsavers", "addr:country": "GB", "name": "\nEast Mayne Sainsbury's\n", "phone": "01268 521956", "website": "https://www.specsavers.co.uk/stores/eastmaynesainsburys"}, "geometry": {"type": "Point", "coordinates": [0.501014, 51.590695]}},
{"type": "Feature", "id": "lk835DKLpfZFAwrcSg2cjMlSRbo=", "properties": {"ref": "https://www.specsavers.co.uk/stores/eastdereham", "@spider": "specsavers", "addr:country": "GB", "name": "\nEast Dereham\n", "phone": "01362 852 830", "website": "https://www.specsavers.co.uk/stores/eastdereham"}, "geometry": {"type": "Point", "coordinates": [0.940938, 52.681839]}},
{"type": "Feature", "id": "bHw-qmHud4b-6Ctuge-kczK0f48=", "properties": {"ref": "https://www.specsavers.co.uk/stores/dunstablesainsburys", "@spider": "specsavers", "addr:country": "GB", "name": "\nDunstable Sainsbury's\n", "phone": "01582 664 361", "website": "https://www.specsavers.co.uk/stores/dunstablesainsburys"}, "geometry": {"type": "Point", "coordinates": [-0.512044, 51.889003]}},
{"type": "Feature", "id": "ObTMmYjzLRt4qJRwxkZBLI_zI84=", "properties": {"ref": "https://www.specsavers.co.uk/stores/dunstable", "@spider": "specsavers", "addr:country": "GB", "name": "\nDunstable\n", "phone": "01582 475 404", "website": "https://www.specsavers.co.uk/stores/dunstable"}, "geometry": {"type": "Point", "coordinates": [-0.520429, 51.886607]}},
{"type": "Feature", "id": "HmXQjSUxTtgH0B4lfXE4KNgOc04=", "properties": {"ref": "https://www.specsavers.co.uk/stores/diss", "@spider": "specsavers", "addr:country": "GB", "name": "\nDiss\n", "phone": "01379 658 490", "website": "https://www.specsavers.co.uk/stores/diss"}, "geometry": {"type": "Point", "coordinates": [1.109042, 52.375083]}},
{"type": "Feature", "id": "k9ibwMLLm10DTKs3OmSkvL-R2c8=", "properties": {"ref": "https://www.specsavers.co.uk/stores/colwicksainsburys", "@spider": "specsavers", "addr:country": "GB", "name": "\nColwick Sainsbury's\n", "phone": "01156 975 899", "website": "https://www.specsavers.co.uk/stores/colwicksainsburys"}, "geometry": {"type": "Point", "coordinates": [-1.07500913, 52.95819559]}},
{"type": "Feature", "id": "O4-Vk8UmWYUU9P25gLa2KU5WM5c=", "properties": {"ref": "https://www.specsavers.co.uk/stores/colchester", "@spider": "specsavers", "addr:country": "GB", "name": "\nColchester\n", "phone": "01206 763 136", "website": "https://www.specsavers.co.uk/stores/colchester"}, "geometry": {"type": "Point", "coordinates": [0.90241581, 51.88826443]}},
{"type": "Feature", "id": "sRxSvnopKCyYVmqq2Sm74cAIx9Q=", "properties": {"ref": "https://www.specsavers.co.uk/stores/clactononsea", "@spider": "specsavers", "addr:country": "GB", "name": "\nClacton-on-Sea\n", "phone": "01255 225 000", "website": "https://www.specsavers.co.uk/stores/clactononsea"}, "geometry": {"type": "Point", "coordinates": [1.151701, 51.7898]}},
{"type": "Feature", "id": "8wsnZd_NAjxBIx2c_XZVmDtrOcs=", "properties": {"ref": "https://www.specsavers.co.uk/stores/chesham", "@spider": "specsavers", "addr:country": "GB", "name": "\nChesham\n", "phone": "01494 777 190", "website": "https://www.specsavers.co.uk/stores/chesham"}, "geometry": {"type": "Point", "coordinates": [-0.613582, 51.703902]}},
{"type": "Feature", "id": "6tgfXVPjN9bO5-gqGIDXBJTyujM=", "properties": {"ref": "https://www.specsavers.co.uk/stores/chelmsford", "@spider": "specsavers", "addr:country": "GB", "name": "\nChelmsford\n", "phone": "01245 600 000", "website": "https://www.specsavers.co.uk/stores/chelmsford"}, "geometry": {"type": "Point", "coordinates": [0.473072, 51.734118]}},
{"type": "Feature", "id": "e-aLnY71YBUd5LOGYGGzTsFmdEA=", "properties": {"ref": "https://www.specsavers.co.uk/stores/chaffordhundredsainsburys", "@spider": "specsavers", "addr:country": "GB", "name": "\nChafford Hundred Sainsbury's\n", "phone": "01375 808301", "website": "https://www.specsavers.co.uk/stores/chaffordhundredsainsburys"}, "geometry": {"type": "Point", "coordinates": [0.29446641, 51.49164132]}},
{"type": "Feature", "id": "uJr2_JhiLEQulIlcrSHCzlqG4eg=", "properties": {"ref": "https://www.specsavers.co.uk/stores/canveyisland", "@spider": "specsavers", "addr:country": "GB", "name": "\nCanvey Island\n", "phone": "01268 683600", "website": "https://www.specsavers.co.uk/stores/canveyisland"}, "geometry": {"type": "Point", "coordinates": [0.59241, 51.52237]}},
{"type": "Feature", "id": "QmndFtQ2lHTloh_uWSQcSAdVW3g=", "properties": {"ref": "https://www.specsavers.co.uk/stores/cambridge", "@spider": "specsavers", "addr:country": "GB", "name": "\nCambridge - Lion Yard Centre\n", "phone": "01223 366 805", "website": "https://www.specsavers.co.uk/stores/cambridge"}, "geometry": {"type": "Point", "coordinates": [0.120144, 52.205255]}},
{"type": "Feature", "id": "m9hRPMCZBE_ujOwlMZeLl04n1YE=", "properties": {"ref": "https://www.specsavers.co.uk/stores/cambridgefitzroystreet", "@spider": "specsavers", "addr:country": "GB", "name": "\nCambridge - Fitzroy Street\n", "phone": "01223 305 241", "website": "https://www.specsavers.co.uk/stores/cambridgefitzroystreet"}, "geometry": {"type": "Point", "coordinates": [0.130439, 52.206818]}},
{"type": "Feature", "id": "WAm-e89FcmM1KpbpqM1eUpQEAlM=", "properties": {"ref": "https://www.specsavers.co.uk/stores/yardley-hearing", "@spider": "specsavers", "addr:country": "GB", "name": "\nYardley\n", "phone": "0121 7655700", "website": "https://www.specsavers.co.uk/stores/yardley-hearing"}, "geometry": {"type": "Point", "coordinates": [-1.813066, 52.462331]}},
{"type": "Feature", "id": "wTu_GXFW1myUSfA-lldJUeRdQus=", "properties": {"ref": "https://www.specsavers.co.uk/stores/worcester-hearing", "@spider": "specsavers", "addr:country": "GB", "name": "\nWorcester\n", "phone": "01905 730 996", "website": "https://www.specsavers.co.uk/stores/worcester-hearing"}, "geometry": {"type": "Point", "coordinates": [-2.21985343, 52.19088207]}},
{"type": "Feature", "id": "-JhFxb0byS5MS27eFsQlxm5rl6E=", "properties": {"ref": "https://www.specsavers.co.uk/stores/wolverhampton-hearing", "@spider": "specsavers", "addr:country": "GB", "name": "\nWolverhampton\n", "phone": "01902 713 555", "website": "https://www.specsavers.co.uk/stores/wolverhampton-hearing"}, "geometry": {"type": "Point", "coordinates": [-2.126235, 52.583349]}},
{"type": "Feature", "id": "C0hpmnNPZyWGyCnvWUNoSaE4_vo=", "properties": {"ref": "https://www.specsavers.co.uk/stores/westbromwich-hearing", "@spider": "specsavers", "addr:country": "GB", "name": "\nWest Bromwich\n", "phone": "0121 553 0685", "website": "https://www.specsavers.co.uk/stores/westbromwich-hearing"}, "geometry": {"type": "Point", "coordinates": [-1.991379, 52.518271]}},
{"type": "Feature", "id": "D37quzq1JNMf4SNVZQ4g-xEd6Js=", "properties": {"ref": "https://www.specsavers.co.uk/stores/wellington-hearing", "@spider": "specsavers", "addr:country": "GB", "name": "\nWellington\n", "phone": "01952 245 577", "website": "https://www.specsavers.co.uk/stores/wellington-hearing"}, "geometry": {"type": "Point", "coordinates": [-2.516459, 52.700433]}},
{"type": "Feature", "id": "AtqlLj9PDTO-vuk7I-2YioU-l-Q=", "properties": {"ref": "https://www.specsavers.co.uk/stores/wednesfieldsainsburys-hearing", "@spider": "specsavers", "addr:country": "GB", "name": "\nWednesfield Sainsbury's\n", "phone": "01902 904 777", "website": "https://www.specsavers.co.uk/stores/wednesfieldsainsburys-hearing"}, "geometry": {"type": "Point", "coordinates": [-2.085951, 52.597587]}},
{"type": "Feature", "id": "zpa6_GbjCriYS4dFmNa4q2sh2Tk=", "properties": {"ref": "https://www.specsavers.co.uk/stores/warwick-hearing", "@spider": "specsavers", "addr:country": "GB", "name": "\nWarwick\n", "phone": "02476 238374", "website": "https://www.specsavers.co.uk/stores/warwick-hearing"}, "geometry": {"type": "Point", "coordinates": [-1.58879186, 52.28504976]}},
{"type": "Feature", "id": "_CGLSTYiy-Wkf33r88u5PQ0LUzg=", "properties": {"ref": "https://www.specsavers.co.uk/stores/walsall-hearing", "@spider": "specsavers", "addr:country": "GB", "name": "\nWalsall\n", "phone": "01922 633 390", "website": "https://www.specsavers.co.uk/stores/walsall-hearing"}, "geometry": {"type": "Point", "coordinates": [-1.982914, 52.58431]}},
{"type": "Feature", "id": "sTzR54UnFLVQJGUNf5sYcGKsbfs=", "properties": {"ref": "https://www.specsavers.co.uk/stores/uttoxeter-hearing", "@spider": "specsavers", "addr:country": "GB", "name": "\nUttoxeter\n", "phone": "01889 561 770", "website": "https://www.specsavers.co.uk/stores/uttoxeter-hearing"}, "geometry": {"type": "Point", "coordinates": [-1.865179, 52.898581]}},
{"type": "Feature", "id": "I9UlytPzTfrA_skMXPTZhGqjlO8=", "properties": {"ref": "https://www.specsavers.co.uk/stores/tunstallproductionhouse-hearing", "@spider": "specsavers", "addr:country": "GB", "name": "\nTunstall - Production House\n", "phone": "01782 206669", "website": "https://www.specsavers.co.uk/stores/tunstallproductionhouse-hearing"}, "geometry": {"type": "Point", "coordinates": [-2.20672277, 53.05885767]}},
{"type": "Feature", "id": "PA8ANpH_o5rZaq6TrEyaKwlsKiA=", "properties": {"ref": "https://www.specsavers.co.uk/stores/tewkesbury-hearing", "@spider": "specsavers", "addr:country": "GB", "name": "\nTewkesbury\n", "phone": "01684 273 027", "website": "https://www.specsavers.co.uk/stores/tewkesbury-hearing"}, "geometry": {"type": "Point", "coordinates": [-2.155461, 51.995553]}},
{"type": "Feature", "id": "DdGwsTWdS9QWfCIVX_j8Tgt0nwc=", "properties": {"ref": "https://www.specsavers.co.uk/stores/telford-hearing", "@spider": "specsavers", "addr:country": "GB", "name": "\nTelford\n", "phone": "01952 200 100", "website": "https://www.specsavers.co.uk/stores/telford-hearing"}, "geometry": {"type": "Point", "coordinates": [-2.447254, 52.675024]}},
{"type": "Feature", "id": "OSaZM_RcoFesQKHDOvjSahbClHM=", "properties": {"ref": "https://www.specsavers.co.uk/stores/tamworthsainsburys-hearing", "@spider": "specsavers", "addr:country": "GB", "name": "\nTamworth Sainsbury's\n", "phone": "01827 930135", "website": "https://www.specsavers.co.uk/stores/tamworthsainsburys-hearing"}, "geometry": {"type": "Point", "coordinates": [-1.70643061, 52.62743525]}},
{"type": "Feature", "id": "deX5h_NosrsaIK46REcbRk8swbU=", "properties": {"ref": "https://www.specsavers.co.uk/stores/tamworth-hearing", "@spider": "specsavers", "addr:country": "GB", "name": "\nTamworth\n", "phone": "01827 60622", "website": "https://www.specsavers.co.uk/stores/tamworth-hearing"}, "geometry": {"type": "Point", "coordinates": [-1.693386, 52.632669]}},
{"type": "Feature", "id": "VsvtmbjDORvJ7XLu6MG9-_2AUQE=", "properties": {"ref": "https://www.specsavers.co.uk/stores/swadlincote-hearing", "@spider": "specsavers", "addr:country": "GB", "name": "\nSwadlincote\n", "phone": "01283 55 22 11", "website": "https://www.specsavers.co.uk/stores/swadlincote-hearing"}, "geometry": {"type": "Point", "coordinates": [-1.556049, 52.773345]}},
{"type": "Feature", "id": "BEpbJno0ILtH4K5B7bqK7cXpE1E=", "properties": {"ref": "https://www.specsavers.co.uk/stores/suttoncoldfield-hearing", "@spider": "specsavers", "addr:country": "GB", "name": "\nSutton Coldfield\n", "phone": "0121 354 4143", "website": "https://www.specsavers.co.uk/stores/suttoncoldfield-hearing"}, "geometry": {"type": "Point", "coordinates": [-1.823411, 52.562395]}},
{"type": "Feature", "id": "aEXeOAvY0e7TYRN5stGCOFFIuPY=", "properties": {"ref": "https://www.specsavers.co.uk/stores/stratforduponavon-hearing", "@spider": "specsavers", "addr:country": "GB", "name": "\nStratford-upon-Avon\n", "phone": "01789 262 606", "website": "https://www.specsavers.co.uk/stores/stratforduponavon-hearing"}, "geometry": {"type": "Point", "coordinates": [-1.707741, 52.192648]}},
{"type": "Feature", "id": "V9RwBpJuIsb_Syzeyx3RqX81wdY=", "properties": {"ref": "https://www.specsavers.co.uk/stores/stourportonsevern-hearing", "@spider": "specsavers", "addr:country": "GB", "name": "\nStourport-on-Severn\n", "phone": "01299 877 999", "website": "https://www.specsavers.co.uk/stores/stourportonsevern-hearing"}, "geometry": {"type": "Point", "coordinates": [-2.278875, 52.340272]}},
{"type": "Feature", "id": "zaKRlVQtzBCDWpZ1L1urxiePGg0=", "properties": {"ref": "https://www.specsavers.co.uk/stores/stourbridge-hearing", "@spider": "specsavers", "addr:country": "GB", "name": "\nStourbridge\n", "phone": "01384 440 464", "website": "https://www.specsavers.co.uk/stores/stourbridge-hearing"}, "geometry": {"type": "Point", "coordinates": [-2.144716, 52.455902]}},
{"type": "Feature", "id": "z0pm2cl2M3qlf4Un3YNMP7f6WAw=", "properties": {"ref": "https://www.specsavers.co.uk/stores/stone-hearing", "@spider": "specsavers", "addr:country": "GB", "name": "\nStone\n", "phone": "01785 812308", "website": "https://www.specsavers.co.uk/stores/stone-hearing"}, "geometry": {"type": "Point", "coordinates": [-2.14568, 52.9017]}},
{"type": "Feature", "id": "vdZ3Q2u5cniBukmz28HAVJrQuuo=", "properties": {"ref": "https://www.specsavers.co.uk/stores/stafford-hearing", "@spider": "specsavers", "addr:country": "GB", "name": "\nStafford\n", "phone": "01785 255 210", "website": "https://www.specsavers.co.uk/stores/stafford-hearing"}, "geometry": {"type": "Point", "coordinates": [-2.11851237, 52.80701346]}},
{"type": "Feature", "id": "foiGUB5-9Szquf3xEVRZU9XDBjU=", "properties": {"ref": "https://www.specsavers.co.uk/stores/solihull-hearing", "@spider": "specsavers", "addr:country": "GB", "name": "\nSolihull\n", "phone": "0121 704 1125", "website": "https://www.specsavers.co.uk/stores/solihull-hearing"}, "geometry": {"type": "Point", "coordinates": [-1.776049, 52.412871]}},
{"type": "Feature", "id": "BQfy3OO40RG2cUH-ndBiWD-rjbg=", "properties": {"ref": "https://www.specsavers.co.uk/stores/shrewsbury-hearing", "@spider": "specsavers", "addr:country": "GB", "name": "\nShrewsbury\n", "phone": "01743 246360", "website": "https://www.specsavers.co.uk/stores/shrewsbury-hearing"}, "geometry": {"type": "Point", "coordinates": [-2.755677, 52.70805]}},
{"type": "Feature", "id": "7GmvuYt9KCi5mP9OQs2J-EbqOhE=", "properties": {"ref": "https://www.specsavers.co.uk/stores/parkgate-hearing", "@spider": "specsavers", "addr:country": "GB", "name": "\nShirley - Solihull\n", "phone": "0121 506 8650", "website": "https://www.specsavers.co.uk/stores/parkgate-hearing"}, "geometry": {"type": "Point", "coordinates": [-1.826928, 52.412341]}},
{"type": "Feature", "id": "P2JalQ9qsLw2kqkUsDovqEvRwqs=", "properties": {"ref": "https://www.specsavers.co.uk/stores/sellyoaksainsburys-hearing", "@spider": "specsavers", "addr:country": "GB", "name": "\nSelly Oak Sainsbury's\n", "phone": "01218 038306", "website": "https://www.specsavers.co.uk/stores/sellyoaksainsburys-hearing"}, "geometry": {"type": "Point", "coordinates": [-1.939013, 52.443315]}},
{"type": "Feature", "id": "Cb5cPRdL8jZzBBAQB_kv2U_wlqI=", "properties": {"ref": "https://www.specsavers.co.uk/stores/rugeley-hearing", "@spider": "specsavers", "addr:country": "GB", "name": "\nRugeley\n", "phone": "01889 576 060", "website": "https://www.specsavers.co.uk/stores/rugeley-hearing"}, "geometry": {"type": "Point", "coordinates": [-1.935965, 52.75885]}},
{"type": "Feature", "id": "be89lm6b4QcIYiz3kIiuWo9Apdo=", "properties": {"ref": "https://www.specsavers.co.uk/stores/rossonwye-hearing", "@spider": "specsavers", "addr:country": "GB", "name": "\nRoss On Wye\n", "phone": "01989 564 460", "website": "https://www.specsavers.co.uk/stores/rossonwye-hearing"}, "geometry": {"type": "Point", "coordinates": [-2.581897, 51.913779]}},
{"type": "Feature", "id": "VGsqBWd3XCoARCt58kEcS4_aJdc=", "properties": {"ref": "https://www.specsavers.co.uk/stores/redditch-hearing", "@spider": "specsavers", "addr:country": "GB", "name": "\nRedditch\n", "phone": "01527 595 558", "website": "https://www.specsavers.co.uk/stores/redditch-hearing"}, "geometry": {"type": "Point", "coordinates": [-1.941536, 52.305679]}},
{"type": "Feature", "id": "bC8h49FL58RrRS7tlCLCvIYSNYA=", "properties": {"ref": "https://www.specsavers.co.uk/stores/oswestry-hearing", "@spider": "specsavers", "addr:country": "GB", "name": "\nOswestry\n", "phone": "01691 684 820", "website": "https://www.specsavers.co.uk/stores/oswestry-hearing"}, "geometry": {"type": "Point", "coordinates": [-3.054663, 52.86008]}},
{"type": "Feature", "id": "R1aHa-Ew_wfDiHDPSK5ZHSHvMKw=", "properties": {"ref": "https://www.specsavers.co.uk/stores/nuneaton-hearing", "@spider": "specsavers", "addr:country": "GB", "name": "\nNuneaton\n", "phone": "024 7637 5927", "website": "https://www.specsavers.co.uk/stores/nuneaton-hearing"}, "geometry": {"type": "Point", "coordinates": [-1.46858, 52.52315]}},
{"type": "Feature", "id": "F02HvYKe7_Cjb5Rmf_tKlxSrj7M=", "properties": {"ref": "https://www.specsavers.co.uk/stores/newportshropshire-hearing", "@spider": "specsavers", "addr:country": "GB", "name": "\nNewport Shropshire\n", "phone": "01952 310 210", "website": "https://www.specsavers.co.uk/stores/newportshropshire-hearing"}, "geometry": {"type": "Point", "coordinates": [-2.37728672, 52.76732126]}},
{"type": "Feature", "id": "ZaSCg-FDV1MhiVkYx0OBkwUznWQ=", "properties": {"ref": "https://www.specsavers.co.uk/stores/newcastleunderlyme-hearing", "@spider": "specsavers", "addr:country": "GB", "name": "\nNewcastle-under-Lyme\n", "phone": "01782 661241", "website": "https://www.specsavers.co.uk/stores/newcastleunderlyme-hearing"}, "geometry": {"type": "Point", "coordinates": [-2.228125, 53.011809]}},
{"type": "Feature", "id": "vB2w6eSXveGyVL9DhisayUB0wWI=", "properties": {"ref": "https://www.specsavers.co.uk/stores/meregreen-hearing", "@spider": "specsavers", "addr:country": "GB", "name": "\nMere Green\n", "phone": "0121 323 4818", "website": "https://www.specsavers.co.uk/stores/meregreen-hearing"}, "geometry": {"type": "Point", "coordinates": [-1.829698, 52.587014]}},
{"type": "Feature", "id": "YC_xm6mSO1kOe9-g_yOVn_wDBGc=", "properties": {"ref": "https://www.specsavers.co.uk/stores/marketdrayton-hearing", "@spider": "specsavers", "addr:country": "GB", "name": "\nMarket Drayton\n", "phone": "01630 650 870", "website": "https://www.specsavers.co.uk/stores/marketdrayton-hearing"}, "geometry": {"type": "Point", "coordinates": [-2.485174, 52.904877]}},
{"type": "Feature", "id": "lX2MEtzzWgKayk2wwT8GK_svw_A=", "properties": {"ref": "https://www.specsavers.co.uk/stores/malvern-hearing", "@spider": "specsavers", "addr:country": "GB", "name": "\nMalvern\n", "phone": "01684 567465", "website": "https://www.specsavers.co.uk/stores/malvern-hearing"}, "geometry": {"type": "Point", "coordinates": [-2.303317, 52.130489]}},
{"type": "Feature", "id": "ys6oE4_hz2B6gKLbQIp6gOaUlVo=", "properties": {"ref": "https://www.specsavers.co.uk/stores/ludlow-hearing", "@spider": "specsavers", "addr:country": "GB", "name": "\nLudlow\n", "phone": "01584 871 210", "website": "https://www.specsavers.co.uk/stores/ludlow-hearing"}, "geometry": {"type": "Point", "coordinates": [-2.717571, 52.368656]}},
{"type": "Feature", "id": "2TS-fxWZ_b86yZe4eNHt0BIGiGU=", "properties": {"ref": "https://www.specsavers.co.uk/stores/longton-hearing", "@spider": "specsavers", "addr:country": "GB", "name": "\nLongton\n", "phone": "01782-337 830", "website": "https://www.specsavers.co.uk/stores/longton-hearing"}, "geometry": {"type": "Point", "coordinates": [-2.134008, 52.98865]}},
{"type": "Feature", "id": "pdk4oQXv7S2ZG6-OUHUUEzDf8dQ=", "properties": {"ref": "https://www.specsavers.co.uk/stores/longbridge-hearing", "@spider": "specsavers", "addr:country": "GB", "name": "\nLongbridge\n", "phone": "0121 475 3824", "website": "https://www.specsavers.co.uk/stores/longbridge-hearing"}, "geometry": {"type": "Point", "coordinates": [-1.98449, 52.39523]}},
{"type": "Feature", "id": "0Uxq8Jcv-uwwgi4Zwtq8yxt1HpA=", "properties": {"ref": "https://www.specsavers.co.uk/stores/lichfield-hearing", "@spider": "specsavers", "addr:country": "GB", "name": "\nLichfield\n", "phone": "01543 417 517", "website": "https://www.specsavers.co.uk/stores/lichfield-hearing"}, "geometry": {"type": "Point", "coordinates": [-1.827936, 52.683726]}},
{"type": "Feature", "id": "T1hjT4UiJ10z0qtpocJ9p8Wr0SE=", "properties": {"ref": "https://www.specsavers.co.uk/stores/leominster-hearing", "@spider": "specsavers", "addr:country": "GB", "name": "\nLeominster\n", "phone": "01568 619 340", "website": "https://www.specsavers.co.uk/stores/leominster-hearing"}, "geometry": {"type": "Point", "coordinates": [-2.740418, 52.226758]}},
{"type": "Feature", "id": "gx3v-HnvoFJzGvteVkgwBsNwhCY=", "properties": {"ref": "https://www.specsavers.co.uk/stores/leek-hearing", "@spider": "specsavers", "addr:country": "GB", "name": "\nLeek Medical Centre\n", "phone": "01782-206 669", "website": "https://www.specsavers.co.uk/stores/leek-hearing"}, "geometry": {"type": "Point", "coordinates": [-2.02030998, 53.1068582]}},
{"type": "Feature", "id": "4ggerRFOxKFDFXumlnMPZhRSmbU=", "properties": {"ref": "https://www.specsavers.co.uk/stores/ledbury-hearing", "@spider": "specsavers", "addr:country": "GB", "name": "\nLedbury\n", "phone": "01531 633384", "website": "https://www.specsavers.co.uk/stores/ledbury-hearing"}, "geometry": {"type": "Point", "coordinates": [-2.422881, 52.037241]}},
{"type": "Feature", "id": "tW5jMDOkPUBvqfBwxGiyz9lug9k=", "properties": {"ref": "https://www.specsavers.co.uk/stores/leamingtonspa-hearing", "@spider": "specsavers", "addr:country": "GB", "name": "\nLeamington Spa\n", "phone": "01926 427 822", "website": "https://www.specsavers.co.uk/stores/leamingtonspa-hearing"}, "geometry": {"type": "Point", "coordinates": [-1.535463, 52.290877]}},
{"type": "Feature", "id": "M9aS36CTBWU9mU50lSNo9f7b9y4=", "properties": {"ref": "https://www.specsavers.co.uk/stores/kingswinford-hearing", "@spider": "specsavers", "addr:country": "GB", "name": "\nKingswinford\n", "phone": "01384 402 886", "website": "https://www.specsavers.co.uk/stores/kingswinford-hearing"}, "geometry": {"type": "Point", "coordinates": [-2.16926, 52.49713]}},
{"type": "Feature", "id": "7Vp96r-hCC7DWodd0xFAQt1izsA=", "properties": {"ref": "https://www.specsavers.co.uk/stores/kidderminstersainsburys-hearing", "@spider": "specsavers", "addr:country": "GB", "name": "\nKidderminster Sainsbury's\n", "phone": "01562 754241", "website": "https://www.specsavers.co.uk/stores/kidderminstersainsburys-hearing"}, "geometry": {"type": "Point", "coordinates": [-2.254586, 52.391546]}},
{"type": "Feature", "id": "8jBw2vaqPqiBMpmTzQVZ8sh64hI=", "properties": {"ref": "https://www.specsavers.co.uk/stores/kidderminster-hearing", "@spider": "specsavers", "addr:country": "GB", "name": "\nKidderminster\n", "phone": "01562 823 552", "website": "https://www.specsavers.co.uk/stores/kidderminster-hearing"}, "geometry": {"type": "Point", "coordinates": [-2.247975, 52.388374]}},
{"type": "Feature", "id": "gtHj2Ug5pdXcGhKwsyJY_Hlg6T0=", "properties": {"ref": "https://www.specsavers.co.uk/stores/kenilworth-hearing", "@spider": "specsavers", "addr:country": "GB", "name": "\nKenilworth\n", "phone": "01926 865 030", "website": "https://www.specsavers.co.uk/stores/kenilworth-hearing"}, "geometry": {"type": "Point", "coordinates": [-1.579515, 52.343159]}},
{"type": "Feature", "id": "9GkAvGzvS5BpjxCgldiSkSZsvdg=", "properties": {"ref": "https://www.specsavers.co.uk/stores/hereford-hearing", "@spider": "specsavers", "addr:country": "GB", "name": "\nHereford\n", "phone": "01432 353 464", "website": "https://www.specsavers.co.uk/stores/hereford-hearing"}, "geometry": {"type": "Point", "coordinates": [-2.71553143, 52.05734971]}},
{"type": "Feature", "id": "Gg1IpRxDrHp1o87DZ0zNtwQtj3U=", "properties": {"ref": "https://www.specsavers.co.uk/stores/harborne-hearing", "@spider": "specsavers", "addr:country": "GB", "name": "\nHarborne\n", "phone": "0121 426 0810", "website": "https://www.specsavers.co.uk/stores/harborne-hearing"}, "geometry": {"type": "Point", "coordinates": [-1.947273, 52.459383]}},
{"type": "Feature", "id": "dkK7PM99qklCwB2bp0EUo1RFZT0=", "properties": {"ref": "https://www.specsavers.co.uk/stores/hanley-hearing", "@spider": "specsavers", "addr:country": "GB", "name": "\nHanley\n", "phone": "01782 206 669", "website": "https://www.specsavers.co.uk/stores/hanley-hearing"}, "geometry": {"type": "Point", "coordinates": [-2.175815, 53.02514]}},
{"type": "Feature", "id": "oR532P7BQdpegm8WUvhcO8DuvDk=", "properties": {"ref": "https://www.specsavers.co.uk/stores/halesowen-hearing", "@spider": "specsavers", "addr:country": "GB", "name": "\nHalesowen\n", "phone": "0121 504 4940", "website": "https://www.specsavers.co.uk/stores/halesowen-hearing"}, "geometry": {"type": "Point", "coordinates": [-2.051203, 52.448778]}},
{"type": "Feature", "id": "-WTflzIuQ-lrnvKiA2RgcRNNbs0=", "properties": {"ref": "https://www.specsavers.co.uk/stores/evesham-hearing", "@spider": "specsavers", "addr:country": "GB", "name": "\nEvesham\n", "phone": "01386 423 301", "website": "https://www.specsavers.co.uk/stores/evesham-hearing"}, "geometry": {"type": "Point", "coordinates": [-1.94641, 52.09233]}},
{"type": "Feature", "id": "x2dLznP6x6viaLBbOicQlJ4gc60=", "properties": {"ref": "https://www.specsavers.co.uk/stores/dudley-hearing", "@spider": "specsavers", "addr:country": "GB", "name": "\nDudley\n", "phone": "01384 214 851", "website": "https://www.specsavers.co.uk/stores/dudley-hearing"}, "geometry": {"type": "Point", "coordinates": [-2.081244, 52.511069]}},
{"type": "Feature", "id": "DrJwVpAmX78bKHIZ8hBkW-Kfqrk=", "properties": {"ref": "https://www.specsavers.co.uk/stores/droitwich-hearing", "@spider": "specsavers", "addr:country": "GB", "name": "\nDroitwich\n", "phone": "01905 790 660", "website": "https://www.specsavers.co.uk/stores/droitwich-hearing"}, "geometry": {"type": "Point", "coordinates": [-2.150019, 52.267877]}},
{"type": "Feature", "id": "tQ4crf_4Am5fMtROjzQHyR4kdMU=", "properties": {"ref": "https://www.specsavers.co.uk/stores/coventry-hearing", "@spider": "specsavers", "addr:country": "GB", "name": "\nCoventry\n", "phone": "02476 238 374", "website": "https://www.specsavers.co.uk/stores/coventry-hearing"}, "geometry": {"type": "Point", "coordinates": [-1.514429, 52.408238]}},
{"type": "Feature", "id": "r-OkYh0YvD9HsB_w9RLOmJMz7C8=", "properties": {"ref": "https://www.specsavers.co.uk/stores/castlevalesainsburys-hearing", "@spider": "specsavers", "addr:country": "GB", "name": "\nCastle Vale Sainsbury's\n", "phone": "0121 312 4946", "website": "https://www.specsavers.co.uk/stores/castlevalesainsburys-hearing"}, "geometry": {"type": "Point", "coordinates": [-1.79682, 52.517582]}},
{"type": "Feature", "id": "tfSzyQQwgu8qOmQ3NU56U0AzA7c=", "properties": {"ref": "https://www.specsavers.co.uk/stores/cannock-hearing", "@spider": "specsavers", "addr:country": "GB", "name": "\nCannock\n", "phone": "01543 462 232", "website": "https://www.specsavers.co.uk/stores/cannock-hearing"}, "geometry": {"type": "Point", "coordinates": [-2.030507, 52.690281]}},
{"type": "Feature", "id": "InS1iX306WnxI57gMjwjD4XSayk=", "properties": {"ref": "https://www.specsavers.co.uk/stores/burtonontrent-hearing", "@spider": "specsavers", "addr:country": "GB", "name": "\nBurton On Trent\n", "phone": "01283 500 117", "website": "https://www.specsavers.co.uk/stores/burtonontrent-hearing"}, "geometry": {"type": "Point", "coordinates": [-1.630617, 52.801706]}},
{"type": "Feature", "id": "a-W3mZ9WXifntP5BSqD34AxylKY=", "properties": {"ref": "https://www.specsavers.co.uk/stores/brownhills-hearing", "@spider": "specsavers", "addr:country": "GB", "name": "\nBrownhills\n", "phone": "01543 363 790", "website": "https://www.specsavers.co.uk/stores/brownhills-hearing"}, "geometry": {"type": "Point", "coordinates": [-1.933937, 52.647471]}},
{"type": "Feature", "id": "hgu0vYnJ7lbRjzX6BYao2H8m4aI=", "properties": {"ref": "https://www.specsavers.co.uk/stores/bromsgrove-hearing", "@spider": "specsavers", "addr:country": "GB", "name": "\nBromsgrove\n", "phone": "01527 579 815", "website": "https://www.specsavers.co.uk/stores/bromsgrove-hearing"}, "geometry": {"type": "Point", "coordinates": [-2.058397, 52.336591]}},
{"type": "Feature", "id": "PcAg-HUFTGVmO_owKTQxTJK1bbc=", "properties": {"ref": "https://www.specsavers.co.uk/stores/bridgnorth-hearing", "@spider": "specsavers", "addr:country": "GB", "name": "\nBridgnorth\n", "phone": "01746 713 950", "website": "https://www.specsavers.co.uk/stores/bridgnorth-hearing"}, "geometry": {"type": "Point", "coordinates": [-2.41976, 52.536025]}},
{"type": "Feature", "id": "jd4lUz4qEuKTiER_0SFwuvKqrrk=", "properties": {"ref": "https://www.specsavers.co.uk/stores/bloxwich-hearing", "@spider": "specsavers", "addr:country": "GB", "name": "\nBloxwich\n", "phone": "01922 400366", "website": "https://www.specsavers.co.uk/stores/bloxwich-hearing"}, "geometry": {"type": "Point", "coordinates": [-2.00449216, 52.61644663]}},
{"type": "Feature", "id": "Q4fKfQGphhR2LGQL3Z6MpZ6uIXo=", "properties": {"ref": "https://www.specsavers.co.uk/stores/blackheath-hearing", "@spider": "specsavers", "addr:country": "GB", "name": "\nBlackheath\n", "phone": "01215 595 816", "website": "https://www.specsavers.co.uk/stores/blackheath-hearing"}, "geometry": {"type": "Point", "coordinates": [-2.040477, 52.475629]}},
{"type": "Feature", "id": "KoPe4t966y61WirD13S2P6WRu80=", "properties": {"ref": "https://www.specsavers.co.uk/stores/northfield-hearing", "@spider": "specsavers", "addr:country": "GB", "name": "\nBirmingham - Northfield\n", "phone": "0121 476 4717", "website": "https://www.specsavers.co.uk/stores/northfield-hearing"}, "geometry": {"type": "Point", "coordinates": [-1.970917, 52.4149]}},
{"type": "Feature", "id": "SssaGN9YDNQLDmVNqUquU-hse08=", "properties": {"ref": "https://www.specsavers.co.uk/stores/birmingham-hearing", "@spider": "specsavers", "addr:country": "GB", "name": "\nBirmingham - New Street\n", "phone": "0121 616 2220", "website": "https://www.specsavers.co.uk/stores/birmingham-hearing"}, "geometry": {"type": "Point", "coordinates": [-1.895238, 52.478701]}},
{"type": "Feature", "id": "H-UNfe-UX7mAFq0uAETWOhuFiMc=", "properties": {"ref": "https://www.specsavers.co.uk/stores/kingsheath-hearing", "@spider": "specsavers", "addr:country": "GB", "name": "\nBirmingham - Kings Heath\n", "phone": "0121 441 1322", "website": "https://www.specsavers.co.uk/stores/kingsheath-hearing"}, "geometry": {"type": "Point", "coordinates": [-1.893243, 52.433442]}},
{"type": "Feature", "id": "fIPH8KV1ngJ0_rXkhuOAEzzbyRk=", "properties": {"ref": "https://www.specsavers.co.uk/stores/erdington-hearing", "@spider": "specsavers", "addr:country": "GB", "name": "\nBirmingham - Erdington\n", "phone": "0121 382 1477", "website": "https://www.specsavers.co.uk/stores/erdington-hearing"}, "geometry": {"type": "Point", "coordinates": [-1.838601, 52.52382]}},
{"type": "Feature", "id": "Qz7lnc9naM-nbgph28n_82ie2pE=", "properties": {"ref": "https://www.specsavers.co.uk/stores/chelmsleywood-hearing", "@spider": "specsavers", "addr:country": "GB", "name": "\nBirmingham - Chelmsley Wood\n", "phone": "0121 329 5510", "website": "https://www.specsavers.co.uk/stores/chelmsleywood-hearing"}, "geometry": {"type": "Point", "coordinates": [-1.739069, 52.480238]}},
{"type": "Feature", "id": "vyE8EPI0kr1Co6rA1glxX1WptSw=", "properties": {"ref": "https://www.specsavers.co.uk/stores/bilston-hearing", "@spider": "specsavers", "addr:country": "GB", "name": "\nBilston\n", "phone": "01902 407 940", "website": "https://www.specsavers.co.uk/stores/bilston-hearing"}, "geometry": {"type": "Point", "coordinates": [-2.076657, 52.56564]}},
{"type": "Feature", "id": "E35kILJudrhvrzK7_9dwIl0tS84=", "properties": {"ref": "https://www.specsavers.co.uk/stores/bedworth-hearing", "@spider": "specsavers", "addr:country": "GB", "name": "\nBedworth\n", "phone": "02476 499 100", "website": "https://www.specsavers.co.uk/stores/bedworth-hearing"}, "geometry": {"type": "Point", "coordinates": [-1.473042, 52.479671]}},
{"type": "Feature", "id": "5HlXybMAe_55H0UVVgOkOT5qdeA=", "properties": {"ref": "https://www.specsavers.co.uk/stores/bearwood-hearing", "@spider": "specsavers", "addr:country": "GB", "name": "\nBearwood\n", "phone": "0121 420 0340", "website": "https://www.specsavers.co.uk/stores/bearwood-hearing"}, "geometry": {"type": "Point", "coordinates": [-1.968859, 52.474161]}},
{"type": "Feature", "id": "-yRak7JTuUZKSnVXC7kPBK8YO_U=", "properties": {"ref": "https://www.specsavers.co.uk/stores/atherstone-hearing", "@spider": "specsavers", "addr:country": "GB", "name": "\nAtherstone\n", "phone": "01827 211444", "website": "https://www.specsavers.co.uk/stores/atherstone-hearing"}, "geometry": {"type": "Point", "coordinates": [-1.545984, 52.577099]}},
{"type": "Feature", "id": "zSCRoeH_83_f2WBtM5pJnG1-JF4=", "properties": {"ref": "https://www.specsavers.co.uk/stores/alcester-hearing", "@spider": "specsavers", "addr:country": "GB", "name": "\nAlcester\n", "phone": "01789 764 705", "website": "https://www.specsavers.co.uk/stores/alcester-hearing"}, "geometry": {"type": "Point", "coordinates": [-1.87045, 52.21408]}},
{"type": "Feature", "id": "V41AgO8x0oMZ3peSJV0huS9GI1Y=", "properties": {"ref": "https://www.specsavers.co.uk/stores/acocksgreen-hearing", "@spider": "specsavers", "addr:country": "GB", "name": "\nAcocks Green\n", "phone": "0121 707 4916", "website": "https://www.specsavers.co.uk/stores/acocksgreen-hearing"}, "geometry": {"type": "Point", "coordinates": [-1.8228, 52.44659]}},
{"type": "Feature", "id": "4SlU4UyfMK0HtPlieuJKQqF8ChI=", "properties": {"ref": "https://www.specsavers.co.uk/stores/wrexham-hearing", "@spider": "specsavers", "addr:country": "GB", "name": "\nWrexham\n", "phone": "01978 261485", "website": "https://www.specsavers.co.uk/stores/wrexham-hearing"}, "geometry": {"type": "Point", "coordinates": [-2.996103, 53.04658]}},
{"type": "Feature", "id": "TVYjyyjDAihbVtXxLpMe6lyz0jk=", "properties": {"ref": "https://www.specsavers.co.uk/stores/welshpool-hearing", "@spider": "specsavers", "addr:country": "GB", "name": "\nWelshpool\n", "phone": "01938 553901", "website": "https://www.specsavers.co.uk/stores/welshpool-hearing"}, "geometry": {"type": "Point", "coordinates": [-3.139629, 52.659545]}},
{"type": "Feature", "id": "PV4LXm9kQKao0tBt9Vr6cu1wcco=", "properties": {"ref": "https://www.specsavers.co.uk/stores/treorchy-hearing", "@spider": "specsavers", "addr:country": "GB", "name": "\nTreorchy\n", "phone": "01443 776415", "website": "https://www.specsavers.co.uk/stores/treorchy-hearing"}, "geometry": {"type": "Point", "coordinates": [-3.508578, 51.661012]}},
{"type": "Feature", "id": "abShresf0Dmsj_EwETwI7QNQXMM=", "properties": {"ref": "https://www.specsavers.co.uk/stores/talbotgreen-hearing", "@spider": "specsavers", "addr:country": "GB", "name": "\nTalbot Green\n", "phone": "01443 223 882", "website": "https://www.specsavers.co.uk/stores/talbotgreen-hearing"}, "geometry": {"type": "Point", "coordinates": [-3.381295, 51.536149]}},
{"type": "Feature", "id": "DSnjKhX34QW39oasJ7zb7mo-p2g=", "properties": {"ref": "https://www.specsavers.co.uk/stores/swansea-hearing", "@spider": "specsavers", "addr:country": "GB", "name": "\nSwansea\n", "phone": "01792 474 426", "website": "https://www.specsavers.co.uk/stores/swansea-hearing"}, "geometry": {"type": "Point", "coordinates": [-3.944618, 51.621357]}},
{"type": "Feature", "id": "PvTRRgOzZlIlIVkZxj0SelD_Qeg=", "properties": {"ref": "https://www.specsavers.co.uk/stores/rhyl-hearing", "@spider": "specsavers", "addr:country": "GB", "name": "\nRhyl\n", "phone": "01745 343 200", "website": "https://www.specsavers.co.uk/stores/rhyl-hearing"}, "geometry": {"type": "Point", "coordinates": [-3.48994, 53.321447]}},
{"type": "Feature", "id": "vq4jDAWd77SFcOQVmyOkXcn6m8Y=", "properties": {"ref": "https://www.specsavers.co.uk/stores/prestatyn-hearing", "@spider": "specsavers", "addr:country": "GB", "name": "\nPrestatyn\n", "phone": "01745 881 970", "website": "https://www.specsavers.co.uk/stores/prestatyn-hearing"}, "geometry": {"type": "Point", "coordinates": [-3.40382, 53.334153]}},
{"type": "Feature", "id": "rLR2hPXLHb1jtfjhNp-O0wEnLPM=", "properties": {"ref": "https://www.specsavers.co.uk/stores/porthcawl-hearing", "@spider": "specsavers", "addr:country": "GB", "name": "\nPorthcawl\n", "phone": "01656 782832", "website": "https://www.specsavers.co.uk/stores/porthcawl-hearing"}, "geometry": {"type": "Point", "coordinates": [-3.70318, 51.47915]}},
{"type": "Feature", "id": "x39DP_R5F7zms0JX9pfJ893g6E0=", "properties": {"ref": "https://www.specsavers.co.uk/stores/porttalbot-hearing", "@spider": "specsavers", "addr:country": "GB", "name": "\nPort Talbot\n", "phone": "01639 885 370", "website": "https://www.specsavers.co.uk/stores/porttalbot-hearing"}, "geometry": {"type": "Point", "coordinates": [-3.783985, 51.596068]}},
{"type": "Feature", "id": "nFUQQo_eWk4O9AC38tdvq6xh7qo=", "properties": {"ref": "https://www.specsavers.co.uk/stores/pontypridd-hearing", "@spider": "specsavers", "addr:country": "GB", "name": "\nPontypridd\n", "phone": "01443 480 244", "website": "https://www.specsavers.co.uk/stores/pontypridd-hearing"}, "geometry": {"type": "Point", "coordinates": [-3.34023, 51.603439]}},
{"type": "Feature", "id": "HDavmMWMdXWE6UQmalV4vhyDuuE=", "properties": {"ref": "https://www.specsavers.co.uk/stores/pontypool-hearing", "@spider": "specsavers", "addr:country": "GB", "name": "\nPontypool\n", "phone": "01495 760 536", "website": "https://www.specsavers.co.uk/stores/pontypool-hearing"}, "geometry": {"type": "Point", "coordinates": [-3.038321, 51.710119]}},
{"type": "Feature", "id": "E8Q4DGdRONT3lNqEp7ZW5BYHqCQ=", "properties": {"ref": "https://www.specsavers.co.uk/stores/penarth-hearing", "@spider": "specsavers", "addr:country": "GB", "name": "\nPenarth\n", "phone": "029 2071 3900", "website": "https://www.specsavers.co.uk/stores/penarth-hearing"}, "geometry": {"type": "Point", "coordinates": [-3.174604, 51.438873]}},
{"type": "Feature", "id": "zW4nToQN2KU2m9dwGVOdeQ_61-o=", "properties": {"ref": "https://www.specsavers.co.uk/stores/newtown-hearing", "@spider": "specsavers", "addr:country": "GB", "name": "\nNewtown\n", "phone": "01686 610 600", "website": "https://www.specsavers.co.uk/stores/newtown-hearing"}, "geometry": {"type": "Point", "coordinates": [-3.315243, 52.515581]}},
{"type": "Feature", "id": "NRlEcFJ2X_P8u-ogO4W75U9uIFg=", "properties": {"ref": "https://www.specsavers.co.uk/stores/newport-hearing", "@spider": "specsavers", "addr:country": "GB", "name": "\nNewport Gwent - Austin Friars\n", "phone": "01633 244 023", "website": "https://www.specsavers.co.uk/stores/newport-hearing"}, "geometry": {"type": "Point", "coordinates": [-2.996913, 51.588533]}},
{"type": "Feature", "id": "ApHcj06WovqXlOvRef7BtKJ5DpU=", "properties": {"ref": "https://www.specsavers.co.uk/stores/newportspyttyroad-hearing", "@spider": "specsavers", "addr:country": "GB", "name": "\nNewport - Spytty Road\n", "phone": "01633 284 000", "website": "https://www.specsavers.co.uk/stores/newportspyttyroad-hearing"}, "geometry": {"type": "Point", "coordinates": [-2.94560537, 51.57648176]}},
{"type": "Feature", "id": "cMm1V1p5vb1s9QU0ArH5LntT0Ig=", "properties": {"ref": "https://www.specsavers.co.uk/stores/neath-hearing", "@spider": "specsavers", "addr:country": "GB", "name": "\nNeath\n", "phone": "01639 641 133", "website": "https://www.specsavers.co.uk/stores/neath-hearing"}, "geometry": {"type": "Point", "coordinates": [-3.806119, 51.66268]}},
{"type": "Feature", "id": "N8rCNTZTIQWtqCkhSmllqrwukbM=", "properties": {"ref": "https://www.specsavers.co.uk/stores/morriston-hearing", "@spider": "specsavers", "addr:country": "GB", "name": "\nMorriston\n", "phone": "01792 315 970", "website": "https://www.specsavers.co.uk/stores/morriston-hearing"}, "geometry": {"type": "Point", "coordinates": [-3.925641, 51.664805]}},
{"type": "Feature", "id": "ZRn_G7Y4JDosUUvMC8H7dWuIGVg=", "properties": {"ref": "https://www.specsavers.co.uk/stores/monmouth-hearing", "@spider": "specsavers", "addr:country": "GB", "name": "\nMonmouth\n", "phone": "01600 772 828", "website": "https://www.specsavers.co.uk/stores/monmouth-hearing"}, "geometry": {"type": "Point", "coordinates": [-2.716879, 51.81142]}},
{"type": "Feature", "id": "mqtqe2ha9UCrLOpssgBHQlAeSlo=", "properties": {"ref": "https://www.specsavers.co.uk/stores/mold-hearing", "@spider": "specsavers", "addr:country": "GB", "name": "\nMold\n", "phone": "01352 705 090", "website": "https://www.specsavers.co.uk/stores/mold-hearing"}, "geometry": {"type": "Point", "coordinates": [-3.141543, 53.167099]}},
{"type": "Feature", "id": "oG4IsJm28mTCiec3gkdiO2FFPx0=", "properties": {"ref": "https://www.specsavers.co.uk/stores/merthyrtydfil-hearing", "@spider": "specsavers", "addr:country": "GB", "name": "\nMerthyr Tydfil\n", "phone": "01685 371 201", "website": "https://www.specsavers.co.uk/stores/merthyrtydfil-hearing"}, "geometry": {"type": "Point", "coordinates": [-3.37859903, 51.74547957]}},
{"type": "Feature", "id": "fRK13ImNKclNi6hg-f_TArDb60M=", "properties": {"ref": "https://www.specsavers.co.uk/stores/maesteg-hearing", "@spider": "specsavers", "addr:country": "GB", "name": "\nMaesteg\n", "phone": "01656 812 060", "website": "https://www.specsavers.co.uk/stores/maesteg-hearing"}, "geometry": {"type": "Point", "coordinates": [-3.660078, 51.608819]}},
{"type": "Feature", "id": "e-rSDTr2VWJmB89lapQB7W2w4R8=", "properties": {"ref": "https://www.specsavers.co.uk/stores/llanelli-hearing", "@spider": "specsavers", "addr:country": "GB", "name": "\nLlanelli\n", "phone": "01554 773 555", "website": "https://www.specsavers.co.uk/stores/llanelli-hearing"}, "geometry": {"type": "Point", "coordinates": [-4.161404, 51.681503]}},
{"type": "Feature", "id": "-R2GWs2Z7dDeu6395lopWYY4oto=", "properties": {"ref": "https://www.specsavers.co.uk/stores/llandudno-hearing", "@spider": "specsavers", "addr:country": "GB", "name": "\nLlandudno\n", "phone": "01492 877 077", "website": "https://www.specsavers.co.uk/stores/llandudno-hearing"}, "geometry": {"type": "Point", "coordinates": [-3.829154, 53.323555]}},
{"type": "Feature", "id": "2V4iW6SZMt3kDi6aCnFWkG4XZBw=", "properties": {"ref": "https://www.specsavers.co.uk/stores/haverfordwest-hearing", "@spider": "specsavers", "addr:country": "GB", "name": "\nHaverfordwest\n", "phone": "01437 767 788", "website": "https://www.specsavers.co.uk/stores/haverfordwest-hearing"}, "geometry": {"type": "Point", "coordinates": [-4.968932, 51.802943]}},
{"type": "Feature", "id": "E5N9p8IGnEEHznl9IXV1uQyTNeI=", "properties": {"ref": "https://www.specsavers.co.uk/stores/gorseinon-hearing", "@spider": "specsavers", "addr:country": "GB", "name": "\nGorseinon\n", "phone": "01792 896 555", "website": "https://www.specsavers.co.uk/stores/gorseinon-hearing"}, "geometry": {"type": "Point", "coordinates": [-4.039879, 51.669158]}},
{"type": "Feature", "id": "npE8Suwwj9ONWv-7X6ymX9o1gRo=", "properties": {"ref": "https://www.specsavers.co.uk/stores/flint-hearing", "@spider": "specsavers", "addr:country": "GB", "name": "\nFlint\n", "phone": "01352 792 710", "website": "https://www.specsavers.co.uk/stores/flint-hearing"}, "geometry": {"type": "Point", "coordinates": [-3.134926, 53.248909]}},
{"type": "Feature", "id": "CG1eJxnu3lYbf1ejR_XolTzLiX8=", "properties": {"ref": "https://www.specsavers.co.uk/stores/ebbwvale-hearing", "@spider": "specsavers", "addr:country": "GB", "name": "\nEbbw Vale\n", "phone": "01495 350 545", "website": "https://www.specsavers.co.uk/stores/ebbwvale-hearing"}, "geometry": {"type": "Point", "coordinates": [-3.207573, 51.778664]}},
{"type": "Feature", "id": "2eqWEOLW5pQs-GPAL8ktJc2cZx0=", "properties": {"ref": "https://www.specsavers.co.uk/stores/denbigh-hearing", "@spider": "specsavers", "addr:country": "GB", "name": "\nDenbigh\n", "phone": "01745 775 588", "website": "https://www.specsavers.co.uk/stores/denbigh-hearing"}, "geometry": {"type": "Point", "coordinates": [-3.4186977, 53.1839107]}},
{"type": "Feature", "id": "bVCtXoky3DYK0w2H7IA2HAJTaJ8=", "properties": {"ref": "https://www.specsavers.co.uk/stores/cwmbran-hearing", "@spider": "specsavers", "addr:country": "GB", "name": "\nCwmbran\n", "phone": "01633 877 006", "website": "https://www.specsavers.co.uk/stores/cwmbran-hearing"}, "geometry": {"type": "Point", "coordinates": [-3.023139, 51.652344]}},
{"type": "Feature", "id": "NncwCa70eWnhwQkMl4z-IUR0HlY=", "properties": {"ref": "https://www.specsavers.co.uk/stores/cowbridge-hearing", "@spider": "specsavers", "addr:country": "GB", "name": "\nCowbridge\n", "phone": "01446 775003", "website": "https://www.specsavers.co.uk/stores/cowbridge-hearing"}, "geometry": {"type": "Point", "coordinates": [-3.447757, 51.462054]}},
{"type": "Feature", "id": "zhCb-JzuUYYQGLkXP9rBXTJZx-Q=", "properties": {"ref": "https://www.specsavers.co.uk/stores/colwynbay-hearing", "@spider": "specsavers", "addr:country": "GB", "name": "\nColwyn Bay\n", "phone": "01492 523 810", "website": "https://www.specsavers.co.uk/stores/colwynbay-hearing"}, "geometry": {"type": "Point", "coordinates": [-3.723938, 53.295061]}},
{"type": "Feature", "id": "KDThx4ml1W_K5HsruVBuiUv32B0=", "properties": {"ref": "https://www.specsavers.co.uk/stores/carmarthen-hearing", "@spider": "specsavers", "addr:country": "GB", "name": "\nCarmarthen\n", "phone": "01267 235 080", "website": "https://www.specsavers.co.uk/stores/carmarthen-hearing"}, "geometry": {"type": "Point", "coordinates": [-4.309094, 51.855613]}},
{"type": "Feature", "id": "Gchmbk86l1MVhnPrqELL3zGMwug=", "properties": {"ref": "https://www.specsavers.co.uk/stores/cardigan-hearing", "@spider": "specsavers", "addr:country": "GB", "name": "\nCardigan\n", "phone": "01239 622800", "website": "https://www.specsavers.co.uk/stores/cardigan-hearing"}, "geometry": {"type": "Point", "coordinates": [-4.661164, 52.082605]}},
{"type": "Feature", "id": "FbCMZcohdDmpy4beYZtX142YAE4=", "properties": {"ref": "https://www.specsavers.co.uk/stores/cardiff-hearing", "@spider": "specsavers", "addr:country": "GB", "name": "\nCardiff - Queen Street\n", "phone": "02920 390 297", "website": "https://www.specsavers.co.uk/stores/cardiff-hearing"}, "geometry": {"type": "Point", "coordinates": [-3.174164, 51.482355]}},
{"type": "Feature", "id": "0shu03o6G-FMkT7aROY_EW0gQRQ=", "properties": {"ref": "https://www.specsavers.co.uk/stores/cardiffllanishen-hearing", "@spider": "specsavers", "addr:country": "GB", "name": "\nCardiff - Llanishen\n", "phone": "02920 763133", "website": "https://www.specsavers.co.uk/stores/cardiffllanishen-hearing"}, "geometry": {"type": "Point", "coordinates": [-3.19331, 51.52612]}},
{"type": "Feature", "id": "psp0K7dPKJZ8irjShayDjjc1rV4=", "properties": {"ref": "https://www.specsavers.co.uk/stores/cardiffleckwith-hearing", "@spider": "specsavers", "addr:country": "GB", "name": "\nCardiff - Leckwith\n", "phone": "02920 228893", "website": "https://www.specsavers.co.uk/stores/cardiffleckwith-hearing"}, "geometry": {"type": "Point", "coordinates": [-3.20473, 51.4716]}},
{"type": "Feature", "id": "aZSMrrTOx61FGANaY6xWRJRuSnk=", "properties": {"ref": "https://www.specsavers.co.uk/stores/cardiffalbanyroad-hearing", "@spider": "specsavers", "addr:country": "GB", "name": "\nCardiff - Albany Road\n", "phone": "029 2043 7220", "website": "https://www.specsavers.co.uk/stores/cardiffalbanyroad-hearing"}, "geometry": {"type": "Point", "coordinates": [-3.168738, 51.493468]}},
{"type": "Feature", "id": "4i0z1gP9kyfzeq7EChx8NsNtLBY=", "properties": {"ref": "https://www.specsavers.co.uk/stores/caerphilly-hearing", "@spider": "specsavers", "addr:country": "GB", "name": "\nCaerphilly\n", "phone": "02920 880066", "website": "https://www.specsavers.co.uk/stores/caerphilly-hearing"}, "geometry": {"type": "Point", "coordinates": [-3.22016, 51.57345]}},
{"type": "Feature", "id": "iqIYNk8MqFBx28wZR_JlijvdXrU=", "properties": {"ref": "https://www.specsavers.co.uk/stores/caernarfon-hearing", "@spider": "specsavers", "addr:country": "GB", "name": "\nCaernarfon\n", "phone": "01286 685 820", "website": "https://www.specsavers.co.uk/stores/caernarfon-hearing"}, "geometry": {"type": "Point", "coordinates": [-4.274218, 53.140206]}},
{"type": "Feature", "id": "AH9KCcza5TVhSzb86JcJMKwQgz8=", "properties": {"ref": "https://www.specsavers.co.uk/stores/bridgendderwensainsburys-hearing", "@spider": "specsavers", "addr:country": "GB", "name": "\nBridgend Derwen Sainsbury's\n", "phone": "01656 331 270", "website": "https://www.specsavers.co.uk/stores/bridgendderwensainsburys-hearing"}, "geometry": {"type": "Point", "coordinates": [-3.57436361, 51.53072367]}},
{"type": "Feature", "id": "CDpQfPdof3M-M_dz-acrE9-k7Po=", "properties": {"ref": "https://www.specsavers.co.uk/stores/bridgend-hearing", "@spider": "specsavers", "addr:country": "GB", "name": "\nBridgend\n", "phone": "01656 649 127", "website": "https://www.specsavers.co.uk/stores/bridgend-hearing"}, "geometry": {"type": "Point", "coordinates": [-3.577772, 51.507167]}},
{"type": "Feature", "id": "dkNq6NV32E7XPzZ3Ti7CWd69Wl4=", "properties": {"ref": "https://www.specsavers.co.uk/stores/brecon-hearing", "@spider": "specsavers", "addr:country": "GB", "name": "\nBrecon\n", "phone": "01874 614 000", "website": "https://www.specsavers.co.uk/stores/brecon-hearing"}, "geometry": {"type": "Point", "coordinates": [-3.391417, 51.948325]}},
{"type": "Feature", "id": "iQIMpYWBVoIjLTNGCL41Ub1uf1w=", "properties": {"ref": "https://www.specsavers.co.uk/stores/blackwood-hearing", "@spider": "specsavers", "addr:country": "GB", "name": "\nBlackwood\n", "phone": "01495 229 460", "website": "https://www.specsavers.co.uk/stores/blackwood-hearing"}, "geometry": {"type": "Point", "coordinates": [-3.194685, 51.665756]}},
{"type": "Feature", "id": "rfJ7VF4j0PtUPO5bTwjpQj6f6TY=", "properties": {"ref": "https://www.specsavers.co.uk/stores/barry-hearing", "@spider": "specsavers", "addr:country": "GB", "name": "\nBarry\n", "phone": "01446 704 910", "website": "https://www.specsavers.co.uk/stores/barry-hearing"}, "geometry": {"type": "Point", "coordinates": [-3.268079, 51.405803]}},
{"type": "Feature", "id": "lSCt7GP2v7xB6yZ5qnQ64wFXzqU=", "properties": {"ref": "https://www.specsavers.co.uk/stores/bangor-hearing", "@spider": "specsavers", "addr:country": "GB", "name": "\nBangor - Wales\n", "phone": "01248 371 000", "website": "https://www.specsavers.co.uk/stores/bangor-hearing"}, "geometry": {"type": "Point", "coordinates": [-4.125452, 53.227124]}},
{"type": "Feature", "id": "q0i7gvml65hEEWaECqiLC9cHCX4=", "properties": {"ref": "https://www.specsavers.co.uk/stores/ammanford-hearing", "@spider": "specsavers", "addr:country": "GB", "name": "\nAmmanford\n", "phone": "01269 590 190", "website": "https://www.specsavers.co.uk/stores/ammanford-hearing"}, "geometry": {"type": "Point", "coordinates": [-3.98735, 51.791875]}},
{"type": "Feature", "id": "n9l-M6z-pn9NBr7zbsk_4jskQ-U=", "properties": {"ref": "https://www.specsavers.co.uk/stores/aberystwyth-hearing", "@spider": "specsavers", "addr:country": "GB", "name": "\nAberystwyth\n", "phone": "01970 636170", "website": "https://www.specsavers.co.uk/stores/aberystwyth-hearing"}, "geometry": {"type": "Point", "coordinates": [-4.085015, 52.414409]}},
{"type": "Feature", "id": "2rgQIcCCWttVXNywqGSleh7E2Es=", "properties": {"ref": "https://www.specsavers.co.uk/stores/abergavenny-hearing", "@spider": "specsavers", "addr:country": "GB", "name": "\nAbergavenny\n", "phone": "01873 859 898", "website": "https://www.specsavers.co.uk/stores/abergavenny-hearing"}, "geometry": {"type": "Point", "coordinates": [-3.019475, 51.822971]}},
{"type": "Feature", "id": "TPfK05FbaErLSUCJEp2PZlhsmac=", "properties": {"ref": "https://www.specsavers.co.uk/stores/aberdare-hearing", "@spider": "specsavers", "addr:country": "GB", "name": "\nAberdare\n", "phone": "01685 875 050", "website": "https://www.specsavers.co.uk/stores/aberdare-hearing"}, "geometry": {"type": "Point", "coordinates": [-3.444541, 51.712967]}},
{"type": "Feature", "id": "9pD9f3oCyifKfC1Sr8VbeQQsPtY=", "properties": {"ref": "https://www.specsavers.co.uk/stores/yeovil-hearing", "@spider": "specsavers", "addr:country": "GB", "name": "\nYeovil\n", "phone": "01935 410 040", "website": "https://www.specsavers.co.uk/stores/yeovil-hearing"}, "geometry": {"type": "Point", "coordinates": [-2.628873, 50.941084]}},
{"type": "Feature", "id": "gu7v1YPaRdbjMD_AoDxC8a6qPbo=", "properties": {"ref": "https://www.specsavers.co.uk/stores/winton-hearing", "@spider": "specsavers", "addr:country": "GB", "name": "\nWinton\n", "phone": "01202 449871", "website": "https://www.specsavers.co.uk/stores/winton-hearing"}, "geometry": {"type": "Point", "coordinates": [-1.878471, 50.74273]}},
{"type": "Feature", "id": "J5WmCKbhkBw69WDusl4S4eUqCAU=", "properties": {"ref": "https://www.specsavers.co.uk/stores/winterstokeroadsainsburys-hearing", "@spider": "specsavers", "addr:country": "GB", "name": "\nWinterstoke Road Sainsbury's\n", "phone": "0117 944 9870", "website": "https://www.specsavers.co.uk/stores/winterstokeroadsainsburys-hearing"}, "geometry": {"type": "Point", "coordinates": [-2.62383, 51.43956]}},
{"type": "Feature", "id": "us9uWmiMjpiAl-HV32RaP9As1Ic=", "properties": {"ref": "https://www.specsavers.co.uk/stores/weymouth-hearing", "@spider": "specsavers", "addr:country": "GB", "name": "\nWeymouth\n", "phone": "01305 761385", "website": "https://www.specsavers.co.uk/stores/weymouth-hearing"}, "geometry": {"type": "Point", "coordinates": [-2.454637, 50.610539]}},
{"type": "Feature", "id": "3hQA2noPtzr9n-yrnuOMPwA-Sj4=", "properties": {"ref": "https://www.specsavers.co.uk/stores/westonsupermare-hearing", "@spider": "specsavers", "addr:country": "GB", "name": "\nWeston-Super-Mare\n", "phone": "01934 642 140", "website": "https://www.specsavers.co.uk/stores/westonsupermare-hearing"}, "geometry": {"type": "Point", "coordinates": [-2.97935, 51.34974]}},
{"type": "Feature", "id": "hNnIqsy2y7yiZLQ9YeAhKgVOT-E=", "properties": {"ref": "https://www.specsavers.co.uk/stores/wells-hearing", "@spider": "specsavers", "addr:country": "GB", "name": "\nWells\n", "phone": "01749 673 694", "website": "https://www.specsavers.co.uk/stores/wells-hearing"}, "geometry": {"type": "Point", "coordinates": [-2.648102, 51.208305]}},
{"type": "Feature", "id": "wzF6UWp9oZUQPrxX9wikKbp_1CI=", "properties": {"ref": "https://www.specsavers.co.uk/stores/truro-hearing", "@spider": "specsavers", "addr:country": "GB", "name": "\nTruro\n", "phone": "01872 223 818", "website": "https://www.specsavers.co.uk/stores/truro-hearing"}, "geometry": {"type": "Point", "coordinates": [-5.053539, 50.263479]}},
{"type": "Feature", "id": "0i1Yyuja7GOaOu2utOs4M8ec6IM=", "properties": {"ref": "https://www.specsavers.co.uk/stores/totnes-hearing", "@spider": "specsavers", "addr:country": "GB", "name": "\nTotnes\n", "phone": "01803 849315", "website": "https://www.specsavers.co.uk/stores/totnes-hearing"}, "geometry": {"type": "Point", "coordinates": [-3.684076, 50.431042]}},
{"type": "Feature", "id": "Ez8AC6lu1Wbz41la09HWBxuTsfo=", "properties": {"ref": "https://www.specsavers.co.uk/stores/torquaysainsburys-hearing", "@spider": "specsavers", "addr:country": "GB", "name": "\nTorquay Sainsbury's\n", "phone": "01803 614474", "website": "https://www.specsavers.co.uk/stores/torquaysainsburys-hearing"}, "geometry": {"type": "Point", "coordinates": [-3.554802, 50.487515]}},
{"type": "Feature", "id": "OW_MBwP55F-FBe_xRSNA9ErVEO8=", "properties": {"ref": "https://www.specsavers.co.uk/stores/torquay-hearing", "@spider": "specsavers", "addr:country": "GB", "name": "\nTorquay\n", "phone": "01803 213 833", "website": "https://www.specsavers.co.uk/stores/torquay-hearing"}, "geometry": {"type": "Point", "coordinates": [-3.531048, 50.467773]}},
{"type": "Feature", "id": "yMRomNOHxbPxlcqks9-3pob3XvI=", "properties": {"ref": "https://www.specsavers.co.uk/stores/tiverton-hearing", "@spider": "specsavers", "addr:country": "GB", "name": "\nTiverton\n", "phone": "01884 242 222", "website": "https://www.specsavers.co.uk/stores/tiverton-hearing"}, "geometry": {"type": "Point", "coordinates": [-3.484597, 50.903287]}},
{"type": "Feature", "id": "plWIkT3Zv6nhd7WIKB2P9NKEiKE=", "properties": {"ref": "https://www.specsavers.co.uk/stores/thornbury-hearing", "@spider": "specsavers", "addr:country": "GB", "name": "\nThornbury\n", "phone": "01454 414 341", "website": "https://www.specsavers.co.uk/stores/thornbury-hearing"}, "geometry": {"type": "Point", "coordinates": [-2.5253507, 51.6080706]}},
{"type": "Feature", "id": "YIdaskGaVorNuQWkGFSDHF3QYSE=", "properties": {"ref": "https://www.specsavers.co.uk/stores/teignmouth-hearing", "@spider": "specsavers", "addr:country": "GB", "name": "\nTeignmouth\n", "phone": "01626 870 513", "website": "https://www.specsavers.co.uk/stores/teignmouth-hearing"}, "geometry": {"type": "Point", "coordinates": [-3.496485, 50.545972]}},
{"type": "Feature", "id": "i-XcumSi12f0a40qBiOCfF6YS2s=", "properties": {"ref": "https://www.specsavers.co.uk/stores/tavistock-hearing", "@spider": "specsavers", "addr:country": "GB", "name": "\nTavistock\n", "phone": "01822 619 910", "website": "https://www.specsavers.co.uk/stores/tavistock-hearing"}, "geometry": {"type": "Point", "coordinates": [-4.145826, 50.549815]}},
{"type": "Feature", "id": "x-Uk8ZrPUj5qw9a5CUSQ3a_26NY=", "properties": {"ref": "https://www.specsavers.co.uk/stores/taunton-hearing", "@spider": "specsavers", "addr:country": "GB", "name": "\nTaunton\n", "phone": "01823 259 416", "website": "https://www.specsavers.co.uk/stores/taunton-hearing"}, "geometry": {"type": "Point", "coordinates": [-3.0996, 51.0147]}},
{"type": "Feature", "id": "HHroihnUTt3wh6kOkEnUzmSHNHc=", "properties": {"ref": "https://www.specsavers.co.uk/stores/street-hearing", "@spider": "specsavers", "addr:country": "GB", "name": "\nStreet\n", "phone": "01458 449 400", "website": "https://www.specsavers.co.uk/stores/street-hearing"}, "geometry": {"type": "Point", "coordinates": [-2.740904, 51.126093]}},
{"type": "Feature", "id": "GS3YepjG8t3v3GePHspuP-WGDbI=", "properties": {"ref": "https://www.specsavers.co.uk/stores/staustell-hearing", "@spider": "specsavers", "addr:country": "GB", "name": "\nSt Austell\n", "phone": "01726 69633", "website": "https://www.specsavers.co.uk/stores/staustell-hearing"}, "geometry": {"type": "Point", "coordinates": [-4.794848, 50.338247]}},
{"type": "Feature", "id": "UWGX_8m1djRCvHwVkqJT7occE5Q=", "properties": {"ref": "https://www.specsavers.co.uk/stores/saltash-hearing", "@spider": "specsavers", "addr:country": "GB", "name": "\nSaltash\n", "phone": "01752 850 120", "website": "https://www.specsavers.co.uk/stores/saltash-hearing"}, "geometry": {"type": "Point", "coordinates": [-4.210706, 50.408531]}},
{"type": "Feature", "id": "Mci_UhdvuEPeU67IlSVsmKrlMbM=", "properties": {"ref": "https://www.specsavers.co.uk/stores/ringwood-hearing", "@spider": "specsavers", "addr:country": "GB", "name": "\nRingwood\n", "phone": "01202 449871", "website": "https://www.specsavers.co.uk/stores/ringwood-hearing"}, "geometry": {"type": "Point", "coordinates": [-1.79336, 50.84726]}},
{"type": "Feature", "id": "3KMeINJLZfjWVWKKEEO_CBeWI70=", "properties": {"ref": "https://www.specsavers.co.uk/stores/redruth-hearing", "@spider": "specsavers", "addr:country": "GB", "name": "\nRedruth\n", "phone": "01209 310 740", "website": "https://www.specsavers.co.uk/stores/redruth-hearing"}, "geometry": {"type": "Point", "coordinates": [-5.228647, 50.233093]}},
{"type": "Feature", "id": "HXfTJP4LdMBa51KzLyHstjAqWQk=", "properties": {"ref": "https://www.specsavers.co.uk/stores/portishead-hearing", "@spider": "specsavers", "addr:country": "GB", "name": "\nPortishead\n", "phone": "01275 845 118", "website": "https://www.specsavers.co.uk/stores/portishead-hearing"}, "geometry": {"type": "Point", "coordinates": [-2.767981, 51.484466]}},
{"type": "Feature", "id": "T19GpGIyUR0XKykhp8pnTZ9WmP4=", "properties": {"ref": "https://www.specsavers.co.uk/stores/talbotheathsainsburys-hearing", "@spider": "specsavers", "addr:country": "GB", "name": "\nPoole Talbot Heath Sainsbury's\n", "phone": "01202 403273", "website": "https://www.specsavers.co.uk/stores/talbotheathsainsburys-hearing"}, "geometry": {"type": "Point", "coordinates": [-1.91145257, 50.7385178]}},
{"type": "Feature", "id": "oHLP9qDySAgwuyYNHVe6Wolqcg0=", "properties": {"ref": "https://www.specsavers.co.uk/stores/poole-hearing", "@spider": "specsavers", "addr:country": "GB", "name": "\nPoole\n", "phone": "01202 675 789", "website": "https://www.specsavers.co.uk/stores/poole-hearing"}, "geometry": {"type": "Point", "coordinates": [-1.980608, 50.718003]}},
{"type": "Feature", "id": "dHDuPkpQtuh4kwMzWq5zPgH611s=", "properties": {"ref": "https://www.specsavers.co.uk/stores/plymstock-hearing", "@spider": "specsavers", "addr:country": "GB", "name": "\nPlymouth - Plymstock\n", "phone": "01752 402 241", "website": "https://www.specsavers.co.uk/stores/plymstock-hearing"}, "geometry": {"type": "Point", "coordinates": [-4.091147, 50.360254]}},
{"type": "Feature", "id": "wXjn8YeD34fmmywc5__mtCB3a60=", "properties": {"ref": "https://www.specsavers.co.uk/stores/plymouth-marsh-mills-hearing", "@spider": "specsavers", "addr:country": "GB", "name": "\nPlymouth - Marsh Mills\n", "phone": "01752 227084", "website": "https://www.specsavers.co.uk/stores/plymouth-marsh-mills-hearing"}, "geometry": {"type": "Point", "coordinates": [-4.08691, 50.3895]}},
{"type": "Feature", "id": "puxduncKX6uI-LLiH-ibEam_-XM=", "properties": {"ref": "https://www.specsavers.co.uk/stores/plymouth-hearing", "@spider": "specsavers", "addr:country": "GB", "name": "\nPlymouth - Armada Way\n", "phone": "01752 253 434", "website": "https://www.specsavers.co.uk/stores/plymouth-hearing"}, "geometry": {"type": "Point", "coordinates": [-4.142066, 50.372555]}},
{"type": "Feature", "id": "MsL6NNIMcQvQ7ZblQHv7tt276pU=", "properties": {"ref": "https://www.specsavers.co.uk/stores/penzance-hearing", "@spider": "specsavers", "addr:country": "GB", "name": "\nPenzance\n", "phone": "01736 369 968", "website": "https://www.specsavers.co.uk/stores/penzance-hearing"}, "geometry": {"type": "Point", "coordinates": [-5.535629, 50.11914]}},
{"type": "Feature", "id": "FOJIoLinjv5fg4tiPTjbKBa2gvM=", "properties": {"ref": "https://www.specsavers.co.uk/stores/paignton-hearing", "@spider": "specsavers", "addr:country": "GB", "name": "\nPaignton\n", "phone": "01803 664 606", "website": "https://www.specsavers.co.uk/stores/paignton-hearing"}, "geometry": {"type": "Point", "coordinates": [-3.56586, 50.43564]}},
{"type": "Feature", "id": "KLQ_eVAtCyJNfy8ChyNsQfq_Syc=", "properties": {"ref": "https://www.specsavers.co.uk/stores/okehampton-hearing", "@spider": "specsavers", "addr:country": "GB", "name": "\nOkehampton\n", "phone": "01837 650 970", "website": "https://www.specsavers.co.uk/stores/okehampton-hearing"}, "geometry": {"type": "Point", "coordinates": [-4.002036, 50.73946]}},
{"type": "Feature", "id": "MuDIqTBQ-KwmAbllzO9HMaNM_h0=", "properties": {"ref": "https://www.specsavers.co.uk/stores/newtonabbot-hearing", "@spider": "specsavers", "addr:country": "GB", "name": "\nNewton Abbot\n", "phone": "01626 336 781", "website": "https://www.specsavers.co.uk/stores/newtonabbot-hearing"}, "geometry": {"type": "Point", "coordinates": [-3.609207, 50.530606]}},
{"type": "Feature", "id": "kWSII-KxIT_4dE01cGZYCB8aJTE=", "properties": {"ref": "https://www.specsavers.co.uk/stores/newquay-hearing", "@spider": "specsavers", "addr:country": "GB", "name": "\nNewquay\n", "phone": "01637 854 400", "website": "https://www.specsavers.co.uk/stores/newquay-hearing"}, "geometry": {"type": "Point", "coordinates": [-5.083872, 50.413702]}},
{"type": "Feature", "id": "dJgJukvpQmBXneNs8kZOCAWgeMM=", "properties": {"ref": "https://www.specsavers.co.uk/stores/nailsea-hearing", "@spider": "specsavers", "addr:country": "GB", "name": "\nNailsea\n", "phone": "01275 850 950", "website": "https://www.specsavers.co.uk/stores/nailsea-hearing"}, "geometry": {"type": "Point", "coordinates": [-2.75873, 51.433103]}},
{"type": "Feature", "id": "VL_J-oedP1IFURPnKcVM_sTeOfg=", "properties": {"ref": "https://www.specsavers.co.uk/stores/minehead-hearing", "@spider": "specsavers", "addr:country": "GB", "name": "\nMinehead\n", "phone": "01643 700 220", "website": "https://www.specsavers.co.uk/stores/minehead-hearing"}, "geometry": {"type": "Point", "coordinates": [-3.478353, 51.205539]}},
{"type": "Feature", "id": "D5d6exkhxEDBVolYGpaiFLfJixQ=", "properties": {"ref": "https://www.specsavers.co.uk/stores/midsomernorton-hearing", "@spider": "specsavers", "addr:country": "GB", "name": "\nMidsomer Norton\n", "phone": "01761 416466", "website": "https://www.specsavers.co.uk/stores/midsomernorton-hearing"}, "geometry": {"type": "Point", "coordinates": [-2.48194714, 51.28570292]}},
{"type": "Feature", "id": "363u3TWOpQN7lbEzcIOxsshKvpQ=", "properties": {"ref": "https://www.specsavers.co.uk/stores/launceston-hearing", "@spider": "specsavers", "addr:country": "GB", "name": "\nLaunceston\n ", "phone": "01566 774 354", "website": "https://www.specsavers.co.uk/stores/launceston-hearing"}, "geometry": {"type": "Point", "coordinates": [-4.360529, 50.636765]}},
{"type": "Feature", "id": "n6PmZtAFXjqNcgQnckpPl7A2zc4=", "properties": {"ref": "https://www.specsavers.co.uk/stores/honiton-hearing", "@spider": "specsavers", "addr:country": "GB", "name": "\nHoniton\n", "phone": "01404 540 060", "website": "https://www.specsavers.co.uk/stores/honiton-hearing"}, "geometry": {"type": "Point", "coordinates": [-3.189841, 50.799525]}},
{"type": "Feature", "id": "D3MjhthRKqGqtq0gZG6M9L79hhI=", "properties": {"ref": "https://www.specsavers.co.uk/stores/helston-hearing", "@spider": "specsavers", "addr:country": "GB", "name": "\nHelston\n", "phone": "01326 572573", "website": "https://www.specsavers.co.uk/stores/helston-hearing"}, "geometry": {"type": "Point", "coordinates": [-5.272986, 50.099913]}},
{"type": "Feature", "id": "7jFKtI1zSvFtA02sPIA9muFEM74=", "properties": {"ref": "https://www.specsavers.co.uk/stores/guernsey-hearing", "@spider": "specsavers", "addr:country": "GB", "name": "\nGuernsey\n", "phone": "01481 723 530", "website": "https://www.specsavers.co.uk/stores/guernsey-hearing"}, "geometry": {"type": "Point", "coordinates": [-2.537268, 49.454777]}},
{"type": "Feature", "id": "8Ee6cvx6lMqh-1yEw-3jHSqKI7k=", "properties": {"ref": "https://www.specsavers.co.uk/stores/frome-hearing", "@spider": "specsavers", "addr:country": "GB", "name": "\nFrome\n", "phone": "01373 451 180", "website": "https://www.specsavers.co.uk/stores/frome-hearing"}, "geometry": {"type": "Point", "coordinates": [-2.321334, 51.231954]}},
{"type": "Feature", "id": "ikClnIP-JGLw4bSBZTGlEcXrtNo=", "properties": {"ref": "https://www.specsavers.co.uk/stores/falmouth-hearing", "@spider": "specsavers", "addr:country": "GB", "name": "\nFalmouth\n", "phone": "01326 212 733", "website": "https://www.specsavers.co.uk/stores/falmouth-hearing"}, "geometry": {"type": "Point", "coordinates": [-5.06867, 50.155171]}},
{"type": "Feature", "id": "WzGAlaMfaQN4Pnq9ptQRR1rW-uk=", "properties": {"ref": "https://www.specsavers.co.uk/stores/exmouth-hearing", "@spider": "specsavers", "addr:country": "GB", "name": "\nExmouth\n", "phone": "01395 277 107", "website": "https://www.specsavers.co.uk/stores/exmouth-hearing"}, "geometry": {"type": "Point", "coordinates": [-3.411381, 50.621149]}},
{"type": "Feature", "id": "ijrBtggBtwl13qmHTdz4_jWfVqc=", "properties": {"ref": "https://www.specsavers.co.uk/stores/exeter-hearing", "@spider": "specsavers", "addr:country": "GB", "name": "\nExeter\n", "phone": "01392 210 604", "website": "https://www.specsavers.co.uk/stores/exeter-hearing"}, "geometry": {"type": "Point", "coordinates": [-3.528703, 50.72489]}},
{"type": "Feature", "id": "FGNz_B8jcE7IRQReBKR-vRofW8c=", "properties": {"ref": "https://www.specsavers.co.uk/stores/emersonsgreensainsburys-hearing", "@spider": "specsavers", "addr:country": "GB", "name": "\nEmersons Green Sainsbury's\n", "phone": "0117 9708266", "website": "https://www.specsavers.co.uk/stores/emersonsgreensainsburys-hearing"}, "geometry": {"type": "Point", "coordinates": [-2.473925, 51.492069]}},
{"type": "Feature", "id": "nDdA2wXs1p1RbnHz0tVgth3a8Vk=", "properties": {"ref": "https://www.specsavers.co.uk/stores/dorchester-hearing", "@spider": "specsavers", "addr:country": "GB", "name": "\nDorchester\n", "phone": "01202 449871", "website": "https://www.specsavers.co.uk/stores/dorchester-hearing"}, "geometry": {"type": "Point", "coordinates": [-2.437023, 50.713117]}},
{"type": "Feature", "id": "3z4jREleddCJus8tHoJ3gx_sNAQ=", "properties": {"ref": "https://www.specsavers.co.uk/stores/clevedon-hearing", "@spider": "specsavers", "addr:country": "GB", "name": "\nClevedon\n", "phone": "01275 335 970", "website": "https://www.specsavers.co.uk/stores/clevedon-hearing"}, "geometry": {"type": "Point", "coordinates": [-2.852127, 51.436494]}},
{"type": "Feature", "id": "0knOubi1Kj0dn3VXT2XIe0MMsng=", "properties": {"ref": "https://www.specsavers.co.uk/stores/christchurch-hearing", "@spider": "specsavers", "addr:country": "GB", "name": "\nChristchurch\n", "phone": "01202 480 707", "website": "https://www.specsavers.co.uk/stores/christchurch-hearing"}, "geometry": {"type": "Point", "coordinates": [-1.777371, 50.734741]}},
{"type": "Feature", "id": "gPZCjFjZcRlogfTXtYSYHudo6iI=", "properties": {"ref": "https://www.specsavers.co.uk/stores/chippenham-hearing", "@spider": "specsavers", "addr:country": "GB", "name": "\nChippenham\n", "phone": "01249 463 636", "website": "https://www.specsavers.co.uk/stores/chippenham-hearing"}, "geometry": {"type": "Point", "coordinates": [-2.116767, 51.458397]}},
{"type": "Feature", "id": "vaT8Z4SACK2J-fOHLzL-xXoi69s=", "properties": {"ref": "https://www.specsavers.co.uk/stores/chard-hearing", "@spider": "specsavers", "addr:country": "GB", "name": "\nChard\n", "phone": "01460 238 800", "website": "https://www.specsavers.co.uk/stores/chard-hearing"}, "geometry": {"type": "Point", "coordinates": [-2.96545565, 50.87260814]}},
{"type": "Feature", "id": "Ic_YjRkbq8wQ9LcvQdwFXuPdEw4=", "properties": {"ref": "https://www.specsavers.co.uk/stores/camborne-hearing", "@spider": "specsavers", "addr:country": "GB", "name": "\nCamborne\n", "phone": "01209 710 022", "website": "https://www.specsavers.co.uk/stores/camborne-hearing"}, "geometry": {"type": "Point", "coordinates": [-5.298629, 50.214081]}},
{"type": "Feature", "id": "kl5fsqhInuRkXAbSOQC5e2tSuVc=", "properties": {"ref": "https://www.specsavers.co.uk/stores/burnhamonsea-hearing", "@spider": "specsavers", "addr:country": "GB", "name": "\nBurnham-on-Sea\n", "phone": "01278 765 460", "website": "https://www.specsavers.co.uk/stores/burnhamonsea-hearing"}, "geometry": {"type": "Point", "coordinates": [-2.99747, 51.234557]}},
{"type": "Feature", "id": "65fLZG_WZP-_6OOonIX1qkG6YW4=", "properties": {"ref": "https://www.specsavers.co.uk/stores/brixham-hearing", "@spider": "specsavers", "addr:country": "GB", "name": "\nBrixham\n", "phone": "01803 852 402", "website": "https://www.specsavers.co.uk/stores/brixham-hearing"}, "geometry": {"type": "Point", "coordinates": [-3.5139, 50.3949]}},
{"type": "Feature", "id": "fae221h2y4zLytamaS0ak0p8bho=", "properties": {"ref": "https://www.specsavers.co.uk/stores/yate-hearing", "@spider": "specsavers", "addr:country": "GB", "name": "\nBristol - Yate\n", "phone": "01454 325 473", "website": "https://www.specsavers.co.uk/stores/yate-hearing"}, "geometry": {"type": "Point", "coordinates": [-2.413098, 51.54047]}},
{"type": "Feature", "id": "ufQopwrPxwDDdVRa3Dw3KYklbW8=", "properties": {"ref": "https://www.specsavers.co.uk/stores/knowle-hearing", "@spider": "specsavers", "addr:country": "GB", "name": "\nBristol - Knowle\n", "phone": "0117 977 2579", "website": "https://www.specsavers.co.uk/stores/knowle-hearing"}, "geometry": {"type": "Point", "coordinates": [-2.567679, 51.433971]}},
{"type": "Feature", "id": "O2nbGWYtA83GZUykkH6RxaqOX-0=", "properties": {"ref": "https://www.specsavers.co.uk/stores/kingswood-hearing", "@spider": "specsavers", "addr:country": "GB", "name": "\nBristol - Kingswood\n", "phone": "0117 947 8809", "website": "https://www.specsavers.co.uk/stores/kingswood-hearing"}, "geometry": {"type": "Point", "coordinates": [-2.508515, 51.462991]}},
{"type": "Feature", "id": "5zdXAZGorENKJmhljC4XjsRxQu0=", "properties": {"ref": "https://www.specsavers.co.uk/stores/keynsham-hearing", "@spider": "specsavers", "addr:country": "GB", "name": "\nBristol - Keynsham\n", "phone": "0117 986 6226", "website": "https://www.specsavers.co.uk/stores/keynsham-hearing"}, "geometry": {"type": "Point", "coordinates": [-2.49807, 51.414103]}},
{"type": "Feature", "id": "xU8_YvSixeqwILEjs9bKXSUPr4Y=", "properties": {"ref": "https://www.specsavers.co.uk/stores/bristolfishponds-hearing", "@spider": "specsavers", "addr:country": "GB", "name": "\nBristol - Fishponds\n", "phone": "0117 965 9241", "website": "https://www.specsavers.co.uk/stores/bristolfishponds-hearing"}, "geometry": {"type": "Point", "coordinates": [-2.528121, 51.481617]}},
{"type": "Feature", "id": "Q5Y-_7I5gsBMt6BZXbH2fIVMW5E=", "properties": {"ref": "https://www.specsavers.co.uk/stores/bristolfilton-hearing", "@spider": "specsavers", "addr:country": "GB", "name": "\nBristol - Filton\n", "phone": "0117 969 3513", "website": "https://www.specsavers.co.uk/stores/bristolfilton-hearing"}, "geometry": {"type": "Point", "coordinates": [-2.572415, 51.510148]}},
{"type": "Feature", "id": "160Wdp4mx8ZTheOKT1jbZspTVMc=", "properties": {"ref": "https://www.specsavers.co.uk/stores/cribbscauseway-hearing", "@spider": "specsavers", "addr:country": "GB", "name": "\nBristol - Cribbs Causeway\n", "phone": "0117 950 3779", "website": "https://www.specsavers.co.uk/stores/cribbscauseway-hearing"}, "geometry": {"type": "Point", "coordinates": [-2.594372, 51.524372]}},
{"type": "Feature", "id": "Jat5lwQ9d6fPvHmUhT9dFO_HPgY=", "properties": {"ref": "https://www.specsavers.co.uk/stores/bristolclifton-hearing", "@spider": "specsavers", "addr:country": "GB", "name": "\nBristol - Clifton\n", "phone": "0117 946 6994", "website": "https://www.specsavers.co.uk/stores/bristolclifton-hearing"}, "geometry": {"type": "Point", "coordinates": [-2.610776, 51.46389]}},
{"type": "Feature", "id": "Flb6gqYaJmFoZnaA1P9IYggAVyU=", "properties": {"ref": "https://www.specsavers.co.uk/stores/bristol-hearing", "@spider": "specsavers", "addr:country": "GB", "name": "\nBristol - City Centre\n", "phone": "0117 922 5288", "website": "https://www.specsavers.co.uk/stores/bristol-hearing"}, "geometry": {"type": "Point", "coordinates": [-2.588609, 51.457247]}},
{"type": "Feature", "id": "wR3lDFlqHSgaTCN260Y0nDORHsA=", "properties": {"ref": "https://www.specsavers.co.uk/stores/bradleystoke-hearing", "@spider": "specsavers", "addr:country": "GB", "name": "\nBristol - Bradley Stoke\n", "phone": "01454-275 020", "website": "https://www.specsavers.co.uk/stores/bradleystoke-hearing"}, "geometry": {"type": "Point", "coordinates": [-2.548099, 51.536499]}},
{"type": "Feature", "id": "gj8ZCBI77yCSxDhUCtwv45pflho=", "properties": {"ref": "https://www.specsavers.co.uk/stores/bedminsterlombard-hearing", "@spider": "specsavers", "addr:country": "GB", "name": "\nBristol - Bedminster\n", "phone": "0117 966 4000", "website": "https://www.specsavers.co.uk/stores/bedminsterlombard-hearing"}, "geometry": {"type": "Point", "coordinates": [-2.594976, 51.443125]}},
{"type": "Feature", "id": "EgVDgrZe2DgAn-iw1G8WZsbTWdM=", "properties": {"ref": "https://www.specsavers.co.uk/stores/bridport-hearing", "@spider": "specsavers", "addr:country": "GB", "name": "\nBridport\n", "phone": "01308 455 960", "website": "https://www.specsavers.co.uk/stores/bridport-hearing"}, "geometry": {"type": "Point", "coordinates": [-2.757102, 50.733325]}},
{"type": "Feature", "id": "cD7Tc8qxECA02Iry9bn6a_8skJI=", "properties": {"ref": "https://www.specsavers.co.uk/stores/bridgwater-hearing", "@spider": "specsavers", "addr:country": "GB", "name": "\nBridgwater\n", "phone": "01278 452 245", "website": "https://www.specsavers.co.uk/stores/bridgwater-hearing"}, "geometry": {"type": "Point", "coordinates": [-3.004289, 51.128643]}},
{"type": "Feature", "id": "SGHqss8nD6hPxAUnT3dJZ9UpgZU=", "properties": {"ref": "https://www.specsavers.co.uk/stores/bournemouth-hearing", "@spider": "specsavers", "addr:country": "GB", "name": "\nBournemouth - Old C'church Rd\n", "phone": "01202 449871", "website": "https://www.specsavers.co.uk/stores/bournemouth-hearing"}, "geometry": {"type": "Point", "coordinates": [-1.875921, 50.721516]}},
{"type": "Feature", "id": "0DWUt1RQUhETVfYeG7rzQ1jQqxc=", "properties": {"ref": "https://www.specsavers.co.uk/stores/boscombe-hearing", "@spider": "specsavers", "addr:country": "GB", "name": "\nBournemouth - Boscombe\n", "phone": "01202 303 307", "website": "https://www.specsavers.co.uk/stores/boscombe-hearing"}, "geometry": {"type": "Point", "coordinates": [-1.83983, 50.72667]}},
{"type": "Feature", "id": "qfxWo5txSbw5GVdNRhi14CV5f98=", "properties": {"ref": "https://www.specsavers.co.uk/stores/bodmin-hearing", "@spider": "specsavers", "addr:country": "GB", "name": "\nBodmin\n", "phone": "01208 72959", "website": "https://www.specsavers.co.uk/stores/bodmin-hearing"}, "geometry": {"type": "Point", "coordinates": [-4.721439, 50.471276]}},
{"type": "Feature", "id": "SU49qzbOth9U_K9Uyi6SgMj1Lxs=", "properties": {"ref": "https://www.specsavers.co.uk/stores/blandfordforum-hearing", "@spider": "specsavers", "addr:country": "GB", "name": "\nBlandford Forum\n", "phone": "01258 488633", "website": "https://www.specsavers.co.uk/stores/blandfordforum-hearing"}, "geometry": {"type": "Point", "coordinates": [-2.162923, 50.856243]}},
{"type": "Feature", "id": "LG4R74XA3CEiJeZmhCEvHI8vdPU=", "properties": {"ref": "https://www.specsavers.co.uk/stores/bideford-hearing", "@spider": "specsavers", "addr:country": "GB", "name": "\nBideford\n", "phone": "01237 420 042", "website": "https://www.specsavers.co.uk/stores/bideford-hearing"}, "geometry": {"type": "Point", "coordinates": [-4.205049, 51.017987]}},
{"type": "Feature", "id": "zCTrgqAiJ8jae5UNkym8vfFdUys=", "properties": {"ref": "https://www.specsavers.co.uk/stores/bath-hearing", "@spider": "specsavers", "addr:country": "GB", "name": "\nBath\n", "phone": "01225 463 489", "website": "https://www.specsavers.co.uk/stores/bath-hearing"}, "geometry": {"type": "Point", "coordinates": [-2.362004, 51.38129]}},
{"type": "Feature", "id": "TaDyD565jAaNBXu5an6WPPfXoUg=", "properties": {"ref": "https://www.specsavers.co.uk/stores/barnstaplesainsburys-hearing", "@spider": "specsavers", "addr:country": "GB", "name": "\nBarnstaple Sainsbury's\n", "phone": "01271 343664", "website": "https://www.specsavers.co.uk/stores/barnstaplesainsburys-hearing"}, "geometry": {"type": "Point", "coordinates": [-4.08331, 51.066881]}},
{"type": "Feature", "id": "dNlRcvwBCz2G9dodtTm0XLxXzjw=", "properties": {"ref": "https://www.specsavers.co.uk/stores/barnstaple-hearing", "@spider": "specsavers", "addr:country": "GB", "name": "\nBarnstaple\n", "phone": "01271 373233", "website": "https://www.specsavers.co.uk/stores/barnstaple-hearing"}, "geometry": {"type": "Point", "coordinates": [-4.061854, 51.081575]}},
{"type": "Feature", "id": "pgPFlczlBpORvjJKUa3V38Mu2E0=", "properties": {"ref": "https://www.specsavers.co.uk/stores/worthing-hearing", "@spider": "specsavers", "addr:country": "GB", "name": "\nWorthing\n", "phone": "01903 215 555", "website": "https://www.specsavers.co.uk/stores/worthing-hearing"}, "geometry": {"type": "Point", "coordinates": [-0.373428, 50.810043]}},
{"type": "Feature", "id": "H6LfKemj_s-vYbajzFBEh7yjLFs=", "properties": {"ref": "https://www.specsavers.co.uk/stores/woking-hearing", "@spider": "specsavers", "addr:country": "GB", "name": "\nWoking\n", "phone": "01483 767170", "website": "https://www.specsavers.co.uk/stores/woking-hearing"}, "geometry": {"type": "Point", "coordinates": [-0.559461, 51.319135]}},
{"type": "Feature", "id": "eoK-exesPD8Xq3j5N5qM2rWD9vw=", "properties": {"ref": "https://www.specsavers.co.uk/stores/whitstable-hearing", "@spider": "specsavers", "addr:country": "GB", "name": "\nWhitstable\n", "phone": "01227 773890", "website": "https://www.specsavers.co.uk/stores/whitstable-hearing"}, "geometry": {"type": "Point", "coordinates": [1.0241, 51.359757]}},
{"type": "Feature", "id": "tpelivwqYq-6ZKTJx5nJfp9KF2o=", "properties": {"ref": "https://www.specsavers.co.uk/stores/westwoodcrosssainsburys-hearing", "@spider": "specsavers", "addr:country": "GB", "name": "\nWestwood Cross Sainsbury's\n", "phone": "01843 231 232", "website": "https://www.specsavers.co.uk/stores/westwoodcrosssainsburys-hearing"}, "geometry": {"type": "Point", "coordinates": [1.39356194, 51.35580423]}},
{"type": "Feature", "id": "UV0oFAyjwiWfkdW2jJ0NujfqEPo=", "properties": {"ref": "https://www.specsavers.co.uk/stores/waltononthames-hearing", "@spider": "specsavers", "addr:country": "GB", "name": "\nWalton On Thames\n", "phone": "01932 251 960", "website": "https://www.specsavers.co.uk/stores/waltononthames-hearing"}, "geometry": {"type": "Point", "coordinates": [-0.419264, 51.385651]}},
{"type": "Feature", "id": "CEG3d_awBRkKVrRdMWkk9JeA_nY=", "properties": {"ref": "https://www.specsavers.co.uk/stores/uckfield-hearing", "@spider": "specsavers", "addr:country": "GB", "name": "\nUckfield\n", "phone": "01825 746 750", "website": "https://www.specsavers.co.uk/stores/uckfield-hearing"}, "geometry": {"type": "Point", "coordinates": [0.096323, 50.970275]}},
{"type": "Feature", "id": "4XVEd6xQqbh3LhRF0hraxhoHFd4=", "properties": {"ref": "https://www.specsavers.co.uk/stores/tunbridgewells-hearing", "@spider": "specsavers", "addr:country": "GB", "name": "\nTunbridge Wells\n", "phone": "01892 533550", "website": "https://www.specsavers.co.uk/stores/tunbridgewells-hearing"}, "geometry": {"type": "Point", "coordinates": [0.263608, 51.134198]}},
{"type": "Feature", "id": "afuA3-PZ37D1vP9yRhD7zEsNZa8=", "properties": {"ref": "https://www.specsavers.co.uk/stores/tonbridge-hearing", "@spider": "specsavers", "addr:country": "GB", "name": "\nTonbridge\n", "phone": "01732 370 480", "website": "https://www.specsavers.co.uk/stores/tonbridge-hearing"}, "geometry": {"type": "Point", "coordinates": [0.273553, 51.193778]}},
{"type": "Feature", "id": "FIkdori1y5PqRLtwfVCeAxcMjzk=", "properties": {"ref": "https://www.specsavers.co.uk/stores/swanley-hearing", "@spider": "specsavers", "addr:country": "GB", "name": "\nSwanley\n", "phone": "01322 616465", "website": "https://www.specsavers.co.uk/stores/swanley-hearing"}, "geometry": {"type": "Point", "coordinates": [0.173836, 51.396557]}},
{"type": "Feature", "id": "-LSuntRFynoWfm0Uo8bXEAuTebo=", "properties": {"ref": "https://www.specsavers.co.uk/stores/strood-hearing", "@spider": "specsavers", "addr:country": "GB", "name": "\nStrood\n", "phone": "01634 541341", "website": "https://www.specsavers.co.uk/stores/strood-hearing"}, "geometry": {"type": "Point", "coordinates": [0.49634, 51.395066]}},
{"type": "Feature", "id": "HyHYq75BFArleMzvy5a-dH-pXME=", "properties": {"ref": "https://www.specsavers.co.uk/stores/staines-hearing", "@spider": "specsavers", "addr:country": "GB", "name": "\nStaines\n", "phone": "01784 493 355", "website": "https://www.specsavers.co.uk/stores/staines-hearing"}, "geometry": {"type": "Point", "coordinates": [-0.510904, 51.4346]}},
{"type": "Feature", "id": "-5Wn54jCZqyTgga4Ylwz9hJkPQg=", "properties": {"ref": "https://www.specsavers.co.uk/stores/sittingbourne-hearing", "@spider": "specsavers", "addr:country": "GB", "name": "\nSittingbourne\n", "phone": "01795 436 100", "website": "https://www.specsavers.co.uk/stores/sittingbourne-hearing"}, "geometry": {"type": "Point", "coordinates": [0.735043, 51.340812]}},
{"type": "Feature", "id": "x1uj2Ecdbh0zyFQi2L9vtuWDM6w=", "properties": {"ref": "https://www.specsavers.co.uk/stores/sheerness-hearing", "@spider": "specsavers", "addr:country": "GB", "name": "\nSheerness\n", "phone": "01795 414000", "website": "https://www.specsavers.co.uk/stores/sheerness-hearing"}, "geometry": {"type": "Point", "coordinates": [0.76168, 51.4402]}},
{"type": "Feature", "id": "LYFvexeyn7qmGENbeuKf2Hj9FO0=", "properties": {"ref": "https://www.specsavers.co.uk/stores/sevenoaks-hearing", "@spider": "specsavers", "addr:country": "GB", "name": "\nSevenoaks\n", "phone": "01732 459 588", "website": "https://www.specsavers.co.uk/stores/sevenoaks-hearing"}, "geometry": {"type": "Point", "coordinates": [0.192706, 51.270417]}},
{"type": "Feature", "id": "BGrxU08-70POd9CVm6exkNxOoFg=", "properties": {"ref": "https://www.specsavers.co.uk/stores/seaford-hearing", "@spider": "specsavers", "addr:country": "GB", "name": "\nSeaford\n", "phone": "01323 493050", "website": "https://www.specsavers.co.uk/stores/seaford-hearing"}, "geometry": {"type": "Point", "coordinates": [0.102192, 50.773203]}},
{"type": "Feature", "id": "IfXgq-U_O7YdD8nEjI_R3Jog5Io=", "properties": {"ref": "https://www.specsavers.co.uk/stores/rustingtonsainsburys-hearing", "@spider": "specsavers", "addr:country": "GB", "name": "\nRustington Sainsbury's\n", "phone": "01903 788662", "website": "https://www.specsavers.co.uk/stores/rustingtonsainsburys-hearing"}, "geometry": {"type": "Point", "coordinates": [-0.49581, 50.817887]}},
{"type": "Feature", "id": "RVXZx53fKFJIvtKInEpY5WyQo_I=", "properties": {"ref": "https://www.specsavers.co.uk/stores/rustington-hearing", "@spider": "specsavers", "addr:country": "GB", "name": "\nRustington\n", "phone": "01903 788 667", "website": "https://www.specsavers.co.uk/stores/rustington-hearing"}, "geometry": {"type": "Point", "coordinates": [-0.506, 50.81054]}},
{"type": "Feature", "id": "u2wz367uRE_1bMBgXK3Gcmbz8gY=", "properties": {"ref": "https://www.specsavers.co.uk/stores/reigate-hearing", "@spider": "specsavers", "addr:country": "GB", "name": "\nReigate\n", "phone": "01737 227 920", "website": "https://www.specsavers.co.uk/stores/reigate-hearing"}, "geometry": {"type": "Point", "coordinates": [-0.208783, 51.237591]}},
{"type": "Feature", "id": "xsflI44Qc7CLbF6YBjbuCqNjBX4=", "properties": {"ref": "https://www.specsavers.co.uk/stores/redhill-hearing", "@spider": "specsavers", "addr:country": "GB", "name": "\nRedhill\n", "phone": "01737 772 990", "website": "https://www.specsavers.co.uk/stores/redhill-hearing"}, "geometry": {"type": "Point", "coordinates": [-0.168411, 51.240827]}},
{"type": "Feature", "id": "Ugl1RuN7IoUHJZDfZjUNEaboHkc=", "properties": {"ref": "https://www.specsavers.co.uk/stores/ramsgate-hearing", "@spider": "specsavers", "addr:country": "GB", "name": "\nRamsgate\n", "phone": "01843 853 856", "website": "https://www.specsavers.co.uk/stores/ramsgate-hearing"}, "geometry": {"type": "Point", "coordinates": [1.418266, 51.3345]}},
{"type": "Feature", "id": "M8CzgRVweBoAYY1a2P6dq-A84FA=", "properties": {"ref": "https://www.specsavers.co.uk/stores/portslade-hearing", "@spider": "specsavers", "addr:country": "GB", "name": "\nPortslade\n", "phone": "01273 424 860", "website": "https://www.specsavers.co.uk/stores/portslade-hearing"}, "geometry": {"type": "Point", "coordinates": [-0.206798, 50.833565]}},
{"type": "Feature", "id": "pdUBZIzmudLBeyU4TLdgsxvXGJI=", "properties": {"ref": "https://www.specsavers.co.uk/stores/parkfarmsainsburys-hearing", "@spider": "specsavers", "addr:country": "GB", "name": "\nPark Farm Sainsbury's\n", "phone": "01303 256 195", "website": "https://www.specsavers.co.uk/stores/parkfarmsainsburys-hearing"}, "geometry": {"type": "Point", "coordinates": [1.166083, 51.094492]}},
{"type": "Feature", "id": "S2hxe_D7mRXki5nq7zPRXo8HWOQ=", "properties": {"ref": "https://www.specsavers.co.uk/stores/oxted-hearing", "@spider": "specsavers", "addr:country": "GB", "name": "\nOxted\n", "phone": "01883 772288", "website": "https://www.specsavers.co.uk/stores/oxted-hearing"}, "geometry": {"type": "Point", "coordinates": [-0.00166, 51.2574]}},
{"type": "Feature", "id": "ZqUHapyrHznME7FVmMMfrZpVsxk=", "properties": {"ref": "https://www.specsavers.co.uk/stores/maidstone-hearing", "@spider": "specsavers", "addr:country": "GB", "name": "\nMaidstone\n", "phone": "01622 663 111", "website": "https://www.specsavers.co.uk/stores/maidstone-hearing"}, "geometry": {"type": "Point", "coordinates": [0.522229, 51.273575]}},
{"type": "Feature", "id": "w2I6f2HRI9q6GYbHnO00YzbbzBw=", "properties": {"ref": "https://www.specsavers.co.uk/stores/lewes-hearing", "@spider": "specsavers", "addr:country": "GB", "name": "\nLewes\n", "phone": "01273 407 690", "website": "https://www.specsavers.co.uk/stores/lewes-hearing"}, "geometry": {"type": "Point", "coordinates": [0.01494, 50.874197]}},
{"type": "Feature", "id": "W7Fqtg1k8UWdkwzVU7hl96BL3V0=", "properties": {"ref": "https://www.specsavers.co.uk/stores/leatherhead-hearing", "@spider": "specsavers", "addr:country": "GB", "name": "\nLeatherhead\n", "phone": "01372 227 740", "website": "https://www.specsavers.co.uk/stores/leatherhead-hearing"}, "geometry": {"type": "Point", "coordinates": [-0.327653, 51.295746]}},
{"type": "Feature", "id": "eKHj6Vpeo_Ag48oVDMe8uXejTIw=", "properties": {"ref": "https://www.specsavers.co.uk/stores/larkfieldsainsburys-hearing", "@spider": "specsavers", "addr:country": "GB", "name": "\nLarkfield Sainsbury's\n", "phone": "01622 797200", "website": "https://www.specsavers.co.uk/stores/larkfieldsainsburys-hearing"}, "geometry": {"type": "Point", "coordinates": [0.46928, 51.29007]}},
{"type": "Feature", "id": "o4nVmzVXOcYquwGm1rE2faL9Gtg=", "properties": {"ref": "https://www.specsavers.co.uk/stores/hove-hearing", "@spider": "specsavers", "addr:country": "GB", "name": "\nHove\n", "phone": "01273 746 200", "website": "https://www.specsavers.co.uk/stores/hove-hearing"}, "geometry": {"type": "Point", "coordinates": [-0.173776, 50.829541]}},
{"type": "Feature", "id": "p2Fdt6LehJ4wPxB5if7eF3unfII=", "properties": {"ref": "https://www.specsavers.co.uk/stores/horsham-hearing", "@spider": "specsavers", "addr:country": "GB", "name": "\nHorsham\n", "phone": "01403 275 115", "website": "https://www.specsavers.co.uk/stores/horsham-hearing"}, "geometry": {"type": "Point", "coordinates": [-0.329756, 51.062638]}},
{"type": "Feature", "id": "bf_n3W794iMvfZOZRGp3YSXyOxw=", "properties": {"ref": "https://www.specsavers.co.uk/stores/horley-hearing", "@spider": "specsavers", "addr:country": "GB", "name": "\nHorley\n", "phone": "01293783018", "website": "https://www.specsavers.co.uk/stores/horley-hearing"}, "geometry": {"type": "Point", "coordinates": [-0.16283, 51.170918]}},
{"type": "Feature", "id": "XZX9PLw6bXtEW9DQhYmqb7uXWXs=", "properties": {"ref": "https://www.specsavers.co.uk/stores/hernebaysainsburys-hearing", "@spider": "specsavers", "addr:country": "GB", "name": "\nHerne Bay Sainsbury's\n", "phone": "01227 372836", "website": "https://www.specsavers.co.uk/stores/hernebaysainsburys-hearing"}, "geometry": {"type": "Point", "coordinates": [1.14945, 51.36261]}},
{"type": "Feature", "id": "QUrWjXQ4jQkkCkgTwJnrQtQQD6g=", "properties": {"ref": "https://www.specsavers.co.uk/stores/haywardsheath-hearing", "@spider": "specsavers", "addr:country": "GB", "name": "\nHaywards Heath\n", "phone": "01444 255 990", "website": "https://www.specsavers.co.uk/stores/haywardsheath-hearing"}, "geometry": {"type": "Point", "coordinates": [-0.10275, 50.996897]}},
{"type": "Feature", "id": "67LCYF7oGW32L-ecuLFA8uULZ8A=", "properties": {"ref": "https://www.specsavers.co.uk/stores/hastingssainsburys-hearing", "@spider": "specsavers", "addr:country": "GB", "name": "\nHastings Sainsbury's\n", "phone": "01424 619730", "website": "https://www.specsavers.co.uk/stores/hastingssainsburys-hearing"}, "geometry": {"type": "Point", "coordinates": [0.55085039, 50.88819324]}},
{"type": "Feature", "id": "EHwYDpDQzSKpYQwlLGMELVCTTkI=", "properties": {"ref": "https://www.specsavers.co.uk/stores/hastings-hearing", "@spider": "specsavers", "addr:country": "GB", "name": "\nHastings\n", "phone": "01424 717 900", "website": "https://www.specsavers.co.uk/stores/hastings-hearing"}, "geometry": {"type": "Point", "coordinates": [0.580591, 50.857018]}},
{"type": "Feature", "id": "kOvO57cDfwulPwRNSSdDTdAaYIc=", "properties": {"ref": "https://www.specsavers.co.uk/stores/hailsham-hearing", "@spider": "specsavers", "addr:country": "GB", "name": "\nHailsham\n", "phone": "01323 840526", "website": "https://www.specsavers.co.uk/stores/hailsham-hearing"}, "geometry": {"type": "Point", "coordinates": [0.258291, 50.863477]}},
{"type": "Feature", "id": "B6ueoPN4XQOz_vpwmcHERIjDENM=", "properties": {"ref": "https://www.specsavers.co.uk/stores/guildford-hearing", "@spider": "specsavers", "addr:country": "GB", "name": "\nGuildford\n", "phone": "01483 452225", "website": "https://www.specsavers.co.uk/stores/guildford-hearing"}, "geometry": {"type": "Point", "coordinates": [-0.576294, 51.235539]}},
{"type": "Feature", "id": "0Syxsa8EX5TIkAtaoTzd64NP_zI=", "properties": {"ref": "https://www.specsavers.co.uk/stores/gravesend-hearing", "@spider": "specsavers", "addr:country": "GB", "name": "\nGravesend\n", "phone": "01474 537 878", "website": "https://www.specsavers.co.uk/stores/gravesend-hearing"}, "geometry": {"type": "Point", "coordinates": [0.36823, 51.442132]}},
{"type": "Feature", "id": "OMq4MqruRxeTbLy1OObuajmx1qI=", "properties": {"ref": "https://www.specsavers.co.uk/stores/godalming-hearing", "@spider": "specsavers", "addr:country": "GB", "name": "\nGodalming\n", "phone": "01483 423946", "website": "https://www.specsavers.co.uk/stores/godalming-hearing"}, "geometry": {"type": "Point", "coordinates": [-0.613265, 51.185496]}},
{"type": "Feature", "id": "t9blvRJ3fF3w1VlqVd-MVX-2gsU=", "properties": {"ref": "https://www.specsavers.co.uk/stores/gillingham-hearing", "@spider": "specsavers", "addr:country": "GB", "name": "\nGillingham\n", "phone": "01634 583 350", "website": "https://www.specsavers.co.uk/stores/gillingham-hearing"}, "geometry": {"type": "Point", "coordinates": [0.548281, 51.386704]}},
{"type": "Feature", "id": "_324dGLF6lFwx3LeBw21A0RflT8=", "properties": {"ref": "https://www.specsavers.co.uk/stores/folkestone-hearing", "@spider": "specsavers", "addr:country": "GB", "name": "\nFolkestone\n", "phone": "01303 212 010", "website": "https://www.specsavers.co.uk/stores/folkestone-hearing"}, "geometry": {"type": "Point", "coordinates": [1.178619, 51.079624]}},
{"type": "Feature", "id": "imFdHUD7fty2swHExYQEdhe84U8=", "properties": {"ref": "https://www.specsavers.co.uk/stores/faversham-hearing", "@spider": "specsavers", "addr:country": "GB", "name": "\nFaversham\n", "phone": "01795 538319", "website": "https://www.specsavers.co.uk/stores/faversham-hearing"}, "geometry": {"type": "Point", "coordinates": [0.891883, 51.315155]}},
{"type": "Feature", "id": "nSEH8NKEY24MTspr1MITaIUZ2Vc=", "properties": {"ref": "https://www.specsavers.co.uk/stores/kilnlanesainsburys-hearing", "@spider": "specsavers", "addr:country": "GB", "name": "\nEpsom Kiln Lane Sainsbury's\n", "phone": "01372 677928", "website": "https://www.specsavers.co.uk/stores/kilnlanesainsburys-hearing"}, "geometry": {"type": "Point", "coordinates": [-0.25754631, 51.34146732]}},
{"type": "Feature", "id": "lOU2-q6T-_XP9e80OLUf0l8RUfQ=", "properties": {"ref": "https://www.specsavers.co.uk/stores/epsom-hearing", "@spider": "specsavers", "addr:country": "GB", "name": "\nEpsom\n", "phone": "01372 744250", "website": "https://www.specsavers.co.uk/stores/epsom-hearing"}, "geometry": {"type": "Point", "coordinates": [-0.264769, 51.334153]}},
{"type": "Feature", "id": "vbwV7zW8GD22mrK3ldjdHds_Pms=", "properties": {"ref": "https://www.specsavers.co.uk/stores/eastbourne-hearing", "@spider": "specsavers", "addr:country": "GB", "name": "\nEastbourne\n", "phone": "01323 649 767", "website": "https://www.specsavers.co.uk/stores/eastbourne-hearing"}, "geometry": {"type": "Point", "coordinates": [0.2833856, 50.76881136]}},
{"type": "Feature", "id": "nvUORNt72DSDKDt0bozBBqAUCdU=", "properties": {"ref": "https://www.specsavers.co.uk/stores/eastgrinstead-hearing", "@spider": "specsavers", "addr:country": "GB", "name": "\nEast Grinstead\n", "phone": "01342 335 360", "website": "https://www.specsavers.co.uk/stores/eastgrinstead-hearing"}, "geometry": {"type": "Point", "coordinates": [-0.009254, 51.125694]}},
{"type": "Feature", "id": "rbsB47GXUvTu3w1uc1Lug3KsxLs=", "properties": {"ref": "https://www.specsavers.co.uk/stores/dover-hearing", "@spider": "specsavers", "addr:country": "GB", "name": "\nDover\n", "phone": "01304 242 020", "website": "https://www.specsavers.co.uk/stores/dover-hearing"}, "geometry": {"type": "Point", "coordinates": [1.310248, 51.1273]}},
{"type": "Feature", "id": "rSV-9eImWBz2lrc1qL5KPTXl4x0=", "properties": {"ref": "https://www.specsavers.co.uk/stores/dorking-hearing", "@spider": "specsavers", "addr:country": "GB", "name": "\nDorking\n", "phone": "01306 745 350", "website": "https://www.specsavers.co.uk/stores/dorking-hearing"}, "geometry": {"type": "Point", "coordinates": [-0.33106, 51.232108]}},
{"type": "Feature", "id": "iq4uXSkv5TO8iYwCZq4pj7wzg0s=", "properties": {"ref": "https://www.specsavers.co.uk/stores/deal-hearing", "@spider": "specsavers", "addr:country": "GB", "name": "\nDeal\n", "phone": "01304 382 420", "website": "https://www.specsavers.co.uk/stores/deal-hearing"}, "geometry": {"type": "Point", "coordinates": [1.402621, 51.222709]}},
{"type": "Feature", "id": "zg88WORLTbxlr5TSP3njzKmGvMo=", "properties": {"ref": "https://www.specsavers.co.uk/stores/dartford-hearing", "@spider": "specsavers", "addr:country": "GB", "name": "\nDartford\n", "phone": "01322 294 040", "website": "https://www.specsavers.co.uk/stores/dartford-hearing"}, "geometry": {"type": "Point", "coordinates": [0.219115, 51.444185]}},
{"type": "Feature", "id": "o6n6u4vjx46rUJIQ9bTEonzYkiE=", "properties": {"ref": "https://www.specsavers.co.uk/stores/crawley-hearing", "@spider": "specsavers", "addr:country": "GB", "name": "\nCrawley\n", "phone": "01293 560 646", "website": "https://www.specsavers.co.uk/stores/crawley-hearing"}, "geometry": {"type": "Point", "coordinates": [-0.18672269, 51.11439738]}},
{"type": "Feature", "id": "dwm-eX2TJTJ7MvXbDqNN-R1M1pk=", "properties": {"ref": "https://www.specsavers.co.uk/stores/cranleigh-hearing", "@spider": "specsavers", "addr:country": "GB", "name": "\nCranleigh\n", "phone": "01483 278 200", "website": "https://www.specsavers.co.uk/stores/cranleigh-hearing"}, "geometry": {"type": "Point", "coordinates": [-0.489848, 51.141124]}},
{"type": "Feature", "id": "5RuCZRA95JZo5yIub_-A3uVxTss=", "properties": {"ref": "https://www.specsavers.co.uk/stores/cobhamsainsburys-hearing", "@spider": "specsavers", "addr:country": "GB", "name": "\nCobham Sainsbury's\n", "phone": "01932 588 899", "website": "https://www.specsavers.co.uk/stores/cobhamsainsburys-hearing"}, "geometry": {"type": "Point", "coordinates": [-0.4214, 51.33587]}},
{"type": "Feature", "id": "zwAa6PzwFrVX0NY8XJoQ9obR0bQ=", "properties": {"ref": "https://www.specsavers.co.uk/stores/chichestersainsburys-hearing", "@spider": "specsavers", "addr:country": "GB", "name": "\nChichester Sainsbury's\n", "phone": "01243 781691", "website": "https://www.specsavers.co.uk/stores/chichestersainsburys-hearing"}, "geometry": {"type": "Point", "coordinates": [-0.76081, 50.84228]}},