{"type":"FeatureCollection","features":[{"type": "Feature", "id": "kqg-H-ptTn8_XwFCWrwjWM1vFNw=", "properties": {"ref": "0511", "@spider": "stop_and_shop", "addr:full": "8101 Jericho Turnpike", "addr:city": "Woodbury", "addr:state": "NY", "addr:postcode": "11797", "addr:country": "US", "name": "Super Stop & Shop", "brand": "Stop and Shop"}, "geometry": {"type": "Point", "coordinates": [-73.4723, 40.8163]}},
{"type": "Feature", "id": "HAtbTocxw1BKD9xlDt2HGIT-w18=", "properties": {"ref": "0402", "@spider": "stop_and_shop", "addr:full": "160 Summer Street", "addr:city": "Kingston", "addr:state": "MA", "addr:postcode": "02364", "addr:country": "US", "name": "Super Stop & Shop", "brand": "Stop and Shop"}, "geometry": {"type": "Point", "coordinates": [-70.731, 42.0081]}},
{"type": "Feature", "id": "BvubcdIFlGnpjO-oe_bXpAnuUs0=", "properties": {"ref": "0061", "@spider": "stop_and_shop", "addr:full": "470 North Main Street", "addr:city": "East Longmeadow", "addr:state": "MA", "addr:postcode": "01028", "addr:country": "US", "name": "Super Stop & Shop", "brand": "Stop and Shop"}, "geometry": {"type": "Point", "coordinates": [-72.5293, 42.0789]}},
{"type": "Feature", "id": "mpit9fpMWSOXUi9M7sN4iN-vdYA=", "properties": {"ref": "0689", "@spider": "stop_and_shop", "addr:full": "318 West Middle Turnpike", "addr:city": "Manchester", "addr:state": "CT", "addr:postcode": "06040", "addr:country": "US", "name": "Super Stop & Shop", "brand": "Stop and Shop"}, "geometry": {"type": "Point", "coordinates": [-72.5378, 41.7811]}},
{"type": "Feature", "id": "FAaz6HrHDPL3YB_WE_KR9B44r1Q=", "properties": {"ref": "0784", "@spider": "stop_and_shop", "addr:full": "876 State Road", "addr:city": "North Adams", "addr:state": "MA", "addr:postcode": "01247", "addr:country": "US", "name": "Super Stop & Shop", "brand": "Stop and Shop"}, "geometry": {"type": "Point", "coordinates": [-73.1649, 42.7002]}},
{"type": "Feature", "id": "lSxKWJFHKwbyrKZc_jzG3lmduy4=", "properties": {"ref": "0810", "@spider": "stop_and_shop", "addr:full": "1600 Perrineville Road", "addr:city": "Monroe Township", "addr:state": "NJ", "addr:postcode": "08831", "addr:country": "US", "name": "Super Stop & Shop", "brand": "Stop and Shop"}, "geometry": {"type": "Point", "coordinates": [-74.4375, 40.305]}},
{"type": "Feature", "id": "xEEZBpjrh19Z8x3ZF4gFODU6ziE=", "properties": {"ref": "0030", "@spider": "stop_and_shop", "addr:full": "2265 Northampton Street", "addr:city": "Holyoke", "addr:state": "MA", "addr:postcode": "01040", "addr:country": "US", "name": "Super Stop & Shop", "brand": "Stop and Shop"}, "geometry": {"type": "Point", "coordinates": [-72.6314, 42.1834]}},
{"type": "Feature", "id": "77lbeb7-hXv-mAhqoWBU4TavE0k=", "properties": {"ref": "2579", "@spider": "stop_and_shop", "addr:full": "112-15 Beach Channel Drive", "addr:city": "Rockaway Park", "addr:state": "NY", "addr:postcode": "11694", "addr:country": "US", "name": "Stop & Shop", "brand": "Stop and Shop"}, "geometry": {"type": "Point", "coordinates": [-73.8354, 40.5824]}},
{"type": "Feature", "id": "Umjnlnv-vkFlsSeBsklzaYkeGTE=", "properties": {"ref": "2551", "@spider": "stop_and_shop", "addr:full": "194 West Montauk Highway", "addr:city": "Hampton Bays", "addr:state": "NY", "addr:postcode": "11946", "addr:country": "US", "name": "Stop & Shop", "brand": "Stop and Shop"}, "geometry": {"type": "Point", "coordinates": [-72.5395, 40.8745]}},
{"type": "Feature", "id": "SUxRAMUrgxcp64A8QfVYKZx4lFE=", "properties": {"ref": "0720", "@spider": "stop_and_shop", "addr:full": "900 Tiogue Avenue", "addr:city": "Coventry", "addr:state": "RI", "addr:postcode": "02816", "addr:country": "US", "name": "Super Stop & Shop", "brand": "Stop and Shop"}, "geometry": {"type": "Point", "coordinates": [-71.5701, 41.6789]}},
{"type": "Feature", "id": "_EuCvc3rxl8KK2RO3FqhXS04kwE=", "properties": {"ref": "0829", "@spider": "stop_and_shop", "addr:full": "816 Franklin Avenue", "addr:city": "Franklin Lakes", "addr:state": "NJ", "addr:postcode": "07417", "addr:country": "US", "name": "Super Stop & Shop", "brand": "Stop and Shop"}, "geometry": {"type": "Point", "coordinates": [-74.2095, 41.024]}},
{"type": "Feature", "id": "8dpNkF-RvPi5bVmzh1vg5U-szcs=", "properties": {"ref": "0709", "@spider": "stop_and_shop", "addr:full": "300 Quaker Lane", "addr:city": "Warwick", "addr:state": "RI", "addr:postcode": "02888", "addr:country": "US", "name": "Super Stop & Shop", "brand": "Stop and Shop"}, "geometry": {"type": "Point", "coordinates": [-71.498, 41.6896]}},
{"type": "Feature", "id": "tKHigJPsntGFakAWAiMV7p8FbQo=", "properties": {"ref": "0054", "@spider": "stop_and_shop", "addr:full": "375 Centre AvenueRoute 123", "addr:city": "Abington", "addr:state": "MA", "addr:postcode": "02351", "addr:country": "US", "name": "Super Stop & Shop", "brand": "Stop and Shop"}, "geometry": {"type": "Point", "coordinates": [-70.9558, 42.1033]}},
{"type": "Feature", "id": "tiifCRJwaDO79Kh_DtjO0879Jzc=", "properties": {"ref": "0461", "@spider": "stop_and_shop", "addr:full": "500 Route 134Patriot Square Mall", "addr:city": "South Dennis", "addr:state": "MA", "addr:postcode": "02660", "addr:country": "US", "name": "Super Stop & Shop", "brand": "Stop and Shop"}, "geometry": {"type": "Point", "coordinates": [-70.1529, 41.6937]}},
{"type": "Feature", "id": "qJtL7-Xewwxjlzs2PtqvrUQrnuo=", "properties": {"ref": "0053", "@spider": "stop_and_shop", "addr:full": "713 East Broadway", "addr:city": "South Boston", "addr:state": "MA", "addr:postcode": "02127", "addr:country": "US", "name": "Stop & Shop", "brand": "Stop and Shop"}, "geometry": {"type": "Point", "coordinates": [-71.0367, 42.3353]}},
{"type": "Feature", "id": "qZ719AKvNkoAt1gakz5EX7g_KMk=", "properties": {"ref": "0547", "@spider": "stop_and_shop", "addr:full": "2450 Jerusalem Avenue", "addr:city": "North Bellmore", "addr:state": "NY", "addr:postcode": "11710", "addr:country": "US", "name": "Super Stop & Shop", "brand": "Stop and Shop"}, "geometry": {"type": "Point", "coordinates": [-73.5418, 40.6907]}},
{"type": "Feature", "id": "9MQ5NK2KhcW_396-KziQv-h877A=", "properties": {"ref": "0508", "@spider": "stop_and_shop", "addr:full": "64-66 Myrtle Avenue", "addr:city": "Glendale", "addr:state": "NY", "addr:postcode": "11385", "addr:country": "US", "name": "Stop & Shop", "brand": "Stop and Shop"}, "geometry": {"type": "Point", "coordinates": [-73.8912, 40.7011]}},
{"type": "Feature", "id": "LXiucbFIGPIF4f12vMO0Vo7fa4c=", "properties": {"ref": "0803", "@spider": "stop_and_shop", "addr:full": "1049 US Highway 1 South", "addr:city": "Edison", "addr:state": "NJ", "addr:postcode": "08820", "addr:country": "US", "name": "Super Stop & Shop", "brand": "Stop and Shop"}, "geometry": {"type": "Point", "coordinates": [-74.3697, 40.5386]}},
{"type": "Feature", "id": "yzTPlexACGyxOfMm0uE94rY4SRg=", "properties": {"ref": "2512", "@spider": "stop_and_shop", "addr:full": "1441 Richmond Ave ", "addr:city": "Staten Island", "addr:state": "NY", "addr:postcode": "10314", "addr:country": "US", "name": "Stop & Shop", "brand": "Stop and Shop"}, "geometry": {"type": "Point", "coordinates": [-74.158, 40.6135]}},
{"type": "Feature", "id": "SlryMuksHIuh3kyVSxZCC4DffZs=", "properties": {"ref": "0557", "@spider": "stop_and_shop", "addr:full": "421 Commack Road", "addr:city": "Deer Park", "addr:state": "NY", "addr:postcode": "11729", "addr:country": "US", "name": "Super Stop & Shop", "brand": "Stop and Shop"}, "geometry": {"type": "Point", "coordinates": [-73.3125, 40.7624]}},
{"type": "Feature", "id": "N9M8HsWGEH9G4_7SunwzGSqMVY0=", "properties": {"ref": "0079", "@spider": "stop_and_shop", "addr:full": "949 Grafton Street", "addr:city": "Worcester", "addr:state": "MA", "addr:postcode": "01613", "addr:country": "US", "name": "Super Stop & Shop", "brand": "Stop and Shop"}, "geometry": {"type": "Point", "coordinates": [-71.7595, 42.2459]}},
{"type": "Feature", "id": "yGgw1JpO6X1I5Lh5NzDAbjh9r3U=", "properties": {"ref": "0033", "@spider": "stop_and_shop", "addr:full": "278 Washington Street", "addr:city": "Stoughton", "addr:state": "MA", "addr:postcode": "02072", "addr:country": "US", "name": "Super Stop & Shop", "brand": "Stop and Shop"}, "geometry": {"type": "Point", "coordinates": [-71.1005, 42.1381]}},
{"type": "Feature", "id": "YWB7Neku5x6z0dk5JJjjzn2M4NA=", "properties": {"ref": "0682", "@spider": "stop_and_shop", "addr:full": "220 Route 12", "addr:city": "Groton", "addr:state": "CT", "addr:postcode": "06340", "addr:country": "US", "name": "Super Stop & Shop", "brand": "Stop and Shop"}, "geometry": {"type": "Point", "coordinates": [-72.0667, 41.3688]}},
{"type": "Feature", "id": "OKf4UZoVI5ez49j0Wx3zjb1G4WQ=", "properties": {"ref": "0729", "@spider": "stop_and_shop", "addr:full": "3 Stilson RoadRoute 138", "addr:city": "Richmond", "addr:state": "RI", "addr:postcode": "02898", "addr:country": "US", "name": "Super Stop & Shop", "brand": "Stop and Shop"}, "geometry": {"type": "Point", "coordinates": [-71.6792, 41.5072]}},
{"type": "Feature", "id": "wTMiAzP147J3km1BVj3BHvrfg7k=", "properties": {"ref": "0044", "@spider": "stop_and_shop", "addr:full": "565 Main Street", "addr:city": "Walpole", "addr:state": "MA", "addr:postcode": "02081", "addr:country": "US", "name": "Super Stop & Shop", "brand": "Stop and Shop"}, "geometry": {"type": "Point", "coordinates": [-71.2425, 42.1583]}},
{"type": "Feature", "id": "E9ZZWNRKZF7k_1nEHTcYCCWmXyc=", "properties": {"ref": "0563", "@spider": "stop_and_shop", "addr:full": "57-01 Sunrise Highway", "addr:city": "Holbrook", "addr:state": "NY", "addr:postcode": "11741", "addr:country": "US", "name": "Super Stop & Shop", "brand": "Stop and Shop"}, "geometry": {"type": "Point", "coordinates": [-73.0626, 40.7693]}},
{"type": "Feature", "id": "lgrAbCwHbDKEVZrDqdWpEC2PAzQ=", "properties": {"ref": "0610", "@spider": "stop_and_shop", "addr:full": "1380 Berlin TurnpikeJordan Lane Shopping Center", "addr:city": "Wethersfield", "addr:state": "CT", "addr:postcode": "06109", "addr:country": "US", "name": "Super Stop & Shop", "brand": "Stop and Shop"}, "geometry": {"type": "Point", "coordinates": [-72.6948, 41.7166]}},
{"type": "Feature", "id": "62_hPsmVTtbKuJtx5Vr2n6BJAr8=", "properties": {"ref": "0014", "@spider": "stop_and_shop", "addr:full": "North River PlazaRoute 139", "addr:city": "Pembroke", "addr:state": "MA", "addr:postcode": "02359", "addr:country": "US", "name": "Super Stop & Shop", "brand": "Stop and Shop"}, "geometry": {"type": "Point", "coordinates": [-70.7834, 42.1046]}},
{"type": "Feature", "id": "4ckSEH5qvpu-gmqMOO3LD_e5T0s=", "properties": {"ref": "0551", "@spider": "stop_and_shop", "addr:full": "533 Montauk HwyRte. 27A", "addr:city": "Bayshore", "addr:state": "NY", "addr:postcode": "11706", "addr:country": "US", "name": "Super Stop & Shop", "brand": "Stop and Shop"}, "geometry": {"type": "Point", "coordinates": [-73.2304, 40.7275]}},
{"type": "Feature", "id": "HsFfsY7BoS2AFbMA-E3WED5Ohr8=", "properties": {"ref": "0787", "@spider": "stop_and_shop", "addr:full": "228 King Street", "addr:city": "Northampton", "addr:state": "MA", "addr:postcode": "01060", "addr:country": "US", "name": "Super Stop & Shop", "brand": "Stop and Shop"}, "geometry": {"type": "Point", "coordinates": [-72.6336, 42.3287]}},
{"type": "Feature", "id": "Ov_PKX-F1b20UexVIcz-ltB4c7k=", "properties": {"ref": "2810", "@spider": "stop_and_shop", "addr:full": "505 Richmond Avenue", "addr:city": "Point Pleasant Beach", "addr:state": "NJ", "addr:postcode": "08742", "addr:country": "US", "name": "Super Stop & Shop", "brand": "Stop and Shop"}, "geometry": {"type": "Point", "coordinates": [-74.0496, 40.0918]}},
{"type": "Feature", "id": "VvmLAx7jj2vDS-9E4D_kK61s8n4=", "properties": {"ref": "0658", "@spider": "stop_and_shop", "addr:full": "5 River RoadWilton Campus", "addr:city": "Wilton", "addr:state": "CT", "addr:postcode": "06897", "addr:country": "US", "name": "Super Stop & Shop", "brand": "Stop and Shop"}, "geometry": {"type": "Point", "coordinates": [-73.4309, 41.191]}},
{"type": "Feature", "id": "yVbcCWIVSz3idjF8UBu8ww5kvWw=", "properties": {"ref": "0032", "@spider": "stop_and_shop", "addr:full": "37 Enon Street", "addr:city": "Beverly", "addr:state": "MA", "addr:postcode": "01915", "addr:country": "US", "name": "Super Stop & Shop", "brand": "Stop and Shop"}, "geometry": {"type": "Point", "coordinates": [-70.8852, 42.5865]}},
{"type": "Feature", "id": "DYTUSXcpBhdYtQ_s8cF2_R_JaIc=", "properties": {"ref": "0406", "@spider": "stop_and_shop", "addr:full": "425 Attucks Lane", "addr:city": "Hyannis", "addr:state": "MA", "addr:postcode": "02601", "addr:country": "US", "name": "Stop & Shop", "brand": "Stop and Shop"}, "geometry": {"type": "Point", "coordinates": [-70.3072, 41.677]}},
{"type": "Feature", "id": "0jjabtSqv_nnasrRgHZacrPy2Hs=", "properties": {"ref": "0512", "@spider": "stop_and_shop", "addr:full": "2795 Richmond Avenue", "addr:city": "Staten Island", "addr:state": "NY", "addr:postcode": "10314", "addr:country": "US", "name": "Super Stop & Shop", "brand": "Stop and Shop"}, "geometry": {"type": "Point", "coordinates": [-74.1672, 40.577]}},
{"type": "Feature", "id": "KqeeKLjmgyISpkTiRe9YZHz_ilk=", "properties": {"ref": "0683", "@spider": "stop_and_shop", "addr:full": "180 Danbury Road", "addr:city": "New Milford", "addr:state": "CT", "addr:postcode": "06776", "addr:country": "US", "name": "Super Stop & Shop", "brand": "Stop and Shop"}, "geometry": {"type": "Point", "coordinates": [-73.4192, 41.5486]}},
{"type": "Feature", "id": "-_aDAU5O6WgF61JSDV-8AKie-wE=", "properties": {"ref": "0651", "@spider": "stop_and_shop", "addr:full": "313 Cottage Grove Rd.", "addr:city": "Bloomfield", "addr:state": "CT", "addr:postcode": "06002", "addr:country": "US", "name": "Super Stop & Shop", "brand": "Stop and Shop"}, "geometry": {"type": "Point", "coordinates": [-72.709, 41.815]}},
{"type": "Feature", "id": "zWbUModqpJjpGHJcRPWnL5_n5JA=", "properties": {"ref": "2414", "@spider": "stop_and_shop", "addr:full": "24 Mattakeesett Street", "addr:city": "Pembroke", "addr:state": "MA", "addr:postcode": "02359", "addr:country": "US", "name": "Stop & Shop", "brand": "Stop and Shop"}, "geometry": {"type": "Point", "coordinates": [-70.8126, 42.0677]}},
{"type": "Feature", "id": "08O0jByFYD3EtsSyS-7H-nGoycA=", "properties": {"ref": "0471", "@spider": "stop_and_shop", "addr:full": "209 North Main Street", "addr:city": "Andover", "addr:state": "MA", "addr:postcode": "01810", "addr:country": "US", "name": "Stop & Shop", "brand": "Stop and Shop"}, "geometry": {"type": "Point", "coordinates": [-71.1576, 42.6519]}},
{"type": "Feature", "id": "Sp4Y2lQnNYS_c9g4Yeed9ZbdrAc=", "properties": {"ref": "0722", "@spider": "stop_and_shop", "addr:full": "850 Manton Avenue", "addr:city": "Providence", "addr:state": "RI", "addr:postcode": "02909", "addr:country": "US", "name": "Super Stop & Shop", "brand": "Stop and Shop"}, "geometry": {"type": "Point", "coordinates": [-71.4669, 41.8324]}},
{"type": "Feature", "id": "XixSVFc8QrzMEAtD15jYKpTrUjI=", "properties": {"ref": "0523", "@spider": "stop_and_shop", "addr:full": "475 State Route 17M", "addr:city": "Monroe", "addr:state": "NY", "addr:postcode": "10950", "addr:country": "US", "name": "Super Stop & Shop", "brand": "Stop and Shop"}, "geometry": {"type": "Point", "coordinates": [-74.1758, 41.3187]}},
{"type": "Feature", "id": "6yvymwJlutNUc44LsrLjESgh5lg=", "properties": {"ref": "0726", "@spider": "stop_and_shop", "addr:full": "2470 Warwick Avenue", "addr:city": "Warwick", "addr:state": "RI", "addr:postcode": "02889", "addr:country": "US", "name": "Super Stop & Shop", "brand": "Stop and Shop"}, "geometry": {"type": "Point", "coordinates": [-71.3973, 41.71]}},
{"type": "Feature", "id": "fpGit4xCs8TSDN-qNNBwwTSKxYI=", "properties": {"ref": "0482", "@spider": "stop_and_shop", "addr:full": "400 Chief Justice Cushing Highway", "addr:city": "Cohasset", "addr:state": "MA", "addr:postcode": "02025", "addr:country": "US", "name": "Super Stop & Shop", "brand": "Stop and Shop"}, "geometry": {"type": "Point", "coordinates": [-70.8206, 42.233]}},
{"type": "Feature", "id": "oS2cCH6wcWsfhze6OlSmWU9E458=", "properties": {"ref": "0834", "@spider": "stop_and_shop", "addr:full": "404 Springfield Avenue", "addr:city": "Berkeley Heights", "addr:state": "NJ", "addr:postcode": "07922", "addr:country": "US", "name": "Super Stop & Shop", "brand": "Stop and Shop"}, "geometry": {"type": "Point", "coordinates": [-74.438, 40.6861]}},
{"type": "Feature", "id": "SkxjOiC3Xog_uNgPWnYLvcNtvrc=", "properties": {"ref": "2422", "@spider": "stop_and_shop", "addr:full": "474 Station Avenue", "addr:city": "South Yarmouth", "addr:state": "MA", "addr:postcode": "02664", "addr:country": "US", "name": "Stop & Shop", "brand": "Stop and Shop"}, "geometry": {"type": "Point", "coordinates": [-70.2133, 41.6891]}},
{"type": "Feature", "id": "pIP0T3Xg6a18RES_F5fT_cVOAUs=", "properties": {"ref": "0499", "@spider": "stop_and_shop", "addr:full": "100 Macy Street", "addr:city": "Amesbury", "addr:state": "MA", "addr:postcode": "01913", "addr:country": "US", "name": "Super Stop & Shop", "brand": "Stop and Shop"}, "geometry": {"type": "Point", "coordinates": [-70.9073, 42.8463]}},
{"type": "Feature", "id": "QlcluenYEU6F8h5SlsIHs-kKjyQ=", "properties": {"ref": "2576", "@spider": "stop_and_shop", "addr:full": "167 Main Street", "addr:city": "Southampton", "addr:state": "NY", "addr:postcode": "11968", "addr:country": "US", "name": "Stop & Shop", "brand": "Stop and Shop"}, "geometry": {"type": "Point", "coordinates": [-72.3911, 40.8887]}},
{"type": "Feature", "id": "5cgtamPMT2cI17ss45V5X9UaDzE=", "properties": {"ref": "0544", "@spider": "stop_and_shop", "addr:full": "425 Portion Road", "addr:city": "Lake Ronkonkoma", "addr:state": "NY", "addr:postcode": "11779", "addr:country": "US", "name": "Super Stop & Shop", "brand": "Stop and Shop"}, "geometry": {"type": "Point", "coordinates": [-73.0903, 40.8309]}},
{"type": "Feature", "id": "QmSyQForwZX3IfOFfVB2eor_RsE=", "properties": {"ref": "0606", "@spider": "stop_and_shop", "addr:full": "195 West Street", "addr:city": "Cromwell", "addr:state": "CT", "addr:postcode": "06416", "addr:country": "US", "name": "Super Stop & Shop", "brand": "Stop and Shop"}, "geometry": {"type": "Point", "coordinates": [-72.6803, 41.6024]}},
{"type": "Feature", "id": "l3T-kxn3RaMni2kCH6403OqZI1s=", "properties": {"ref": "0005", "@spider": "stop_and_shop", "addr:full": "19 Howley Street", "addr:city": "Peabody", "addr:state": "MA", "addr:postcode": "01960", "addr:country": "US", "name": "Super Stop & Shop", "brand": "Stop and Shop"}, "geometry": {"type": "Point", "coordinates": [-70.9185, 42.5239]}},
{"type": "Feature", "id": "cjKbx2us0usiqtp0IiEb7nxrsYs=", "properties": {"ref": "0674", "@spider": "stop_and_shop", "addr:full": "1391 Main Street", "addr:city": "Willimantic", "addr:state": "CT", "addr:postcode": "06226", "addr:country": "US", "name": "Super Stop & Shop", "brand": "Stop and Shop"}, "geometry": {"type": "Point", "coordinates": [-72.2308, 41.7168]}},
{"type": "Feature", "id": "wODlWWA8x37VPMWsJ51zMJIiSe0=", "properties": {"ref": "0562", "@spider": "stop_and_shop", "addr:full": "2350 North Ocean Avenue", "addr:city": "Farmingville", "addr:state": "NY", "addr:postcode": "11738", "addr:country": "US", "name": "Super Stop & Shop", "brand": "Stop and Shop"}, "geometry": {"type": "Point", "coordinates": [-73.0211, 40.829]}},
{"type": "Feature", "id": "97Wdm34fRtf1eqH0X2DaHb3r4pQ=", "properties": {"ref": "2807", "@spider": "stop_and_shop", "addr:full": "875 Bloomfield Avenue West", "addr:city": "West Caldwell", "addr:state": "NJ", "addr:postcode": "07006", "addr:country": "US", "name": "Stop & Shop", "brand": "Stop and Shop"}, "geometry": {"type": "Point", "coordinates": [-74.2993, 40.8516]}},
{"type": "Feature", "id": "Glvr4P_hFA8j-PavilR6z2_fW34=", "properties": {"ref": "2413", "@spider": "stop_and_shop", "addr:full": "9  Salem Street", "addr:city": "Nantucket", "addr:state": "MA", "addr:postcode": "02554", "addr:country": "US", "name": "Stop & Shop", "brand": "Stop and Shop"}, "geometry": {"type": "Point", "coordinates": [-70.0967, 41.2833]}},
{"type": "Feature", "id": "UDCTo1dYaiNRqLrEPzjY8lFJD-o=", "properties": {"ref": "2605", "@spider": "stop_and_shop", "addr:full": "54 Hazard Avenue", "addr:city": "Enfield", "addr:state": "CT", "addr:postcode": "06082", "addr:country": "US", "name": "Super Stop & Shop", "brand": "Stop and Shop"}, "geometry": {"type": "Point", "coordinates": [-72.5772, 41.9896]}},
{"type": "Feature", "id": "Ivldtfv8g9GCGn0r3_Yj2dkM5Z8=", "properties": {"ref": "0433", "@spider": "stop_and_shop", "addr:full": "760 Fellsway", "addr:city": "Medford", "addr:state": "MA", "addr:postcode": "02155", "addr:country": "US", "name": "Super Stop & Shop", "brand": "Stop and Shop"}, "geometry": {"type": "Point", "coordinates": [-71.0845, 42.4097]}},
{"type": "Feature", "id": "y2uXPGzlCq_e4yQGYOs8fctLntY=", "properties": {"ref": "0600", "@spider": "stop_and_shop", "addr:full": "2335 Dixwell Avenue", "addr:city": "Hamden", "addr:state": "CT", "addr:postcode": "06514", "addr:country": "US", "name": "Super Stop & Shop", "brand": "Stop and Shop"}, "geometry": {"type": "Point", "coordinates": [-72.916, 41.3727]}},
{"type": "Feature", "id": "brIiZm5Wk8pjwyb1hxbJrSnZs2M=", "properties": {"ref": "0696", "@spider": "stop_and_shop", "addr:full": "460 Elm Street", "addr:city": "West Haven", "addr:state": "CT", "addr:postcode": "06516", "addr:country": "US", "name": "Super Stop & Shop", "brand": "Stop and Shop"}, "geometry": {"type": "Point", "coordinates": [-72.9577, 41.2724]}},
{"type": "Feature", "id": "A7v3c-6rrAP911szA1OAR8pVsmQ=", "properties": {"ref": "0577", "@spider": "stop_and_shop", "addr:full": "3577 Long Beach Road", "addr:city": "Oceanside", "addr:state": "NY", "addr:postcode": "11572", "addr:country": "US", "name": "Super Stop & Shop", "brand": "Stop and Shop"}, "geometry": {"type": "Point", "coordinates": [-73.6396, 40.6243]}},
{"type": "Feature", "id": "9Nls_ND8PuhsMEzAnI-y1TmXpbA=", "properties": {"ref": "0446", "@spider": "stop_and_shop", "addr:full": "171 Watertown Street", "addr:city": "Watertown", "addr:state": "MA", "addr:postcode": "02472", "addr:country": "US", "name": "Super Stop & Shop", "brand": "Stop and Shop"}, "geometry": {"type": "Point", "coordinates": [-71.1938, 42.3633]}},
{"type": "Feature", "id": "2J6bDL7xrojmQehJbOWF1kyZbMQ=", "properties": {"ref": "0089", "@spider": "stop_and_shop", "addr:full": "60 Everett Street", "addr:city": "Allston", "addr:state": "MA", "addr:postcode": "02134", "addr:country": "US", "name": "Super Stop & Shop", "brand": "Stop and Shop"}, "geometry": {"type": "Point", "coordinates": [-71.1397, 42.3566]}},
{"type": "Feature", "id": "p3BeVEkQQfizmicIp4mprXUgsR0=", "properties": {"ref": "0569", "@spider": "stop_and_shop", "addr:full": "295 Pine Hollow Road", "addr:city": "Oyster Bay", "addr:state": "NY", "addr:postcode": "11771", "addr:country": "US", "name": "Stop & Shop", "brand": "Stop and Shop"}, "geometry": {"type": "Point", "coordinates": [-73.5352, 40.8584]}},
{"type": "Feature", "id": "c1_liA10mPr4iYm6jDV5ImEkl5I=", "properties": {"ref": "0893", "@spider": "stop_and_shop", "addr:full": "245 Littleton Road", "addr:city": "Morris Plains", "addr:state": "NJ", "addr:postcode": "07950", "addr:country": "US", "name": "Super Stop & Shop", "brand": "Stop and Shop"}, "geometry": {"type": "Point", "coordinates": [-74.4636, 40.8424]}},
{"type": "Feature", "id": "Qfuxgae8X2LXMhBk4hX066mxF5A=", "properties": {"ref": "0817", "@spider": "stop_and_shop", "addr:full": "380 W. Pleasantview Avenue", "addr:city": "Hackensack", "addr:state": "NJ", "addr:postcode": "07601", "addr:country": "US", "name": "Super Stop & Shop", "brand": "Stop and Shop"}, "geometry": {"type": "Point", "coordinates": [-74.0669, 40.8762]}},
{"type": "Feature", "id": "yx8qJ4y2VC4PgaAuIUMHzG59sbQ=", "properties": {"ref": "2815", "@spider": "stop_and_shop", "addr:full": "500 Rte 23 North & Jackson Ave", "addr:city": "Pompton Plains", "addr:state": "NJ", "addr:postcode": "07444", "addr:country": "US", "name": "Stop & Shop", "brand": "Stop and Shop"}, "geometry": {"type": "Point", "coordinates": [-74.286, 40.9691]}},
{"type": "Feature", "id": "2ULrLPyo1kLklQf4AzrLsBVKf4k=", "properties": {"ref": "0701", "@spider": "stop_and_shop", "addr:full": "250 Bellevue Avenue", "addr:city": "Newport", "addr:state": "RI", "addr:postcode": "02840", "addr:country": "US", "name": "Stop & Shop", "brand": "Stop and Shop"}, "geometry": {"type": "Point", "coordinates": [-71.3085, 41.481]}},
{"type": "Feature", "id": "5Fm8-2ieFBaq4jHEmov0A1Akm9s=", "properties": {"ref": "0675", "@spider": "stop_and_shop", "addr:full": "920 Wolcott Street", "addr:city": "Waterbury", "addr:state": "CT", "addr:postcode": "06705", "addr:country": "US", "name": "Super Stop & Shop", "brand": "Stop and Shop"}, "geometry": {"type": "Point", "coordinates": [-72.9825, 41.6107]}},
{"type": "Feature", "id": "Byfb6cfXKYRLJyCDik4uU82sJhY=", "properties": {"ref": "0809", "@spider": "stop_and_shop", "addr:full": "940 Easton Avenue", "addr:city": "Somerset", "addr:state": "NJ", "addr:postcode": "08873", "addr:country": "US", "name": "Super Stop & Shop", "brand": "Stop and Shop"}, "geometry": {"type": "Point", "coordinates": [-74.4875, 40.512]}},
{"type": "Feature", "id": "MfBr4oySCF5UORs_Yoblk_Vw8lo=", "properties": {"ref": "2552", "@spider": "stop_and_shop", "addr:full": "50 Cherry Valley Avenue", "addr:city": "West Hempstead", "addr:state": "NY", "addr:postcode": "11552", "addr:country": "US", "name": "Super Stop & Shop", "brand": "Stop and Shop"}, "geometry": {"type": "Point", "coordinates": [-73.6558, 40.7072]}},
{"type": "Feature", "id": "lnRUqKSbwQXxNMErXwa6pd3uEoE=", "properties": {"ref": "0693", "@spider": "stop_and_shop", "addr:full": "940 Silver LaneCharter Oak Mall", "addr:city": "East Hartford", "addr:state": "CT", "addr:postcode": "06118", "addr:country": "US", "name": "Super Stop & Shop", "brand": "Stop and Shop"}, "geometry": {"type": "Point", "coordinates": [-72.6031, 41.7653]}},
{"type": "Feature", "id": "HjHruwc7ehqX8jo84kxLsOe0dlc=", "properties": {"ref": "0684", "@spider": "stop_and_shop", "addr:full": "505 North Main Street", "addr:city": "Southington", "addr:state": "CT", "addr:postcode": "06489", "addr:country": "US", "name": "Super Stop & Shop", "brand": "Stop and Shop"}, "geometry": {"type": "Point", "coordinates": [-72.8724, 41.6139]}},
{"type": "Feature", "id": "xP8ukpE3ecI4XaYRlGIlIY9WeSE=", "properties": {"ref": "0579", "@spider": "stop_and_shop", "addr:full": "294 Middle Country Road", "addr:city": "Coram", "addr:state": "NY", "addr:postcode": "11727", "addr:country": "US", "name": "Super Stop & Shop", "brand": "Stop and Shop"}, "geometry": {"type": "Point", "coordinates": [-72.9985, 40.8703]}},
{"type": "Feature", "id": "vu-P-FlPOLVGfs7XKmZ7eHq3sYw=", "properties": {"ref": "0018", "@spider": "stop_and_shop", "addr:full": "545 Freeport Street", "addr:city": "Dorchester", "addr:state": "MA", "addr:postcode": "02122", "addr:country": "US", "name": "Super Stop & Shop", "brand": "Stop and Shop"}, "geometry": {"type": "Point", "coordinates": [-71.048, 42.2922]}},
{"type": "Feature", "id": "nruva3MrK4dTtOlYxK7_ZqYL5Bc=", "properties": {"ref": "0681", "@spider": "stop_and_shop", "addr:full": "1235 Farmington Avenue", "addr:city": "West Hartford", "addr:state": "CT", "addr:postcode": "06107", "addr:country": "US", "name": "Stop & Shop", "brand": "Stop and Shop"}, "geometry": {"type": "Point", "coordinates": [-72.7654, 41.7543]}},
{"type": "Feature", "id": "uQLC8LveyIivF6sqSuPJGPL_8IA=", "properties": {"ref": "0692", "@spider": "stop_and_shop", "addr:full": "370 Hemingway AvenueTrolley Square", "addr:city": "East Haven", "addr:state": "CT", "addr:postcode": "06512", "addr:country": "US", "name": "Super Stop & Shop", "brand": "Stop and Shop"}, "geometry": {"type": "Point", "coordinates": [-72.8674, 41.2782]}},
{"type": "Feature", "id": "t_iRoKMAzuH8hV-ezQywd60lDnQ=", "properties": {"ref": "0567", "@spider": "stop_and_shop", "addr:full": "3999 Albany Post Road", "addr:city": "Hyde Park", "addr:state": "NY", "addr:postcode": "12538", "addr:country": "US", "name": "Stop & Shop", "brand": "Stop and Shop"}, "geometry": {"type": "Point", "coordinates": [-73.9319, 41.7632]}},
{"type": "Feature", "id": "3eRTQZMjgEmNaucHAbN6CucVXto=", "properties": {"ref": "0435", "@spider": "stop_and_shop", "addr:full": "40 George Hannum Street", "addr:city": "Belchertown", "addr:state": "MA", "addr:postcode": "01007", "addr:country": "US", "name": "Super Stop & Shop", "brand": "Stop and Shop"}, "geometry": {"type": "Point", "coordinates": [-72.4113, 42.2892]}},
{"type": "Feature", "id": "_uJ_bRMVARItGIjV_yKqBIq-y_o=", "properties": {"ref": "0648", "@spider": "stop_and_shop", "addr:full": "112 Amity Road", "addr:city": "New Haven", "addr:state": "CT", "addr:postcode": "06515", "addr:country": "US", "name": "Super Stop & Shop", "brand": "Stop and Shop"}, "geometry": {"type": "Point", "coordinates": [-72.9796, 41.3376]}},
{"type": "Feature", "id": "WB4hKClNHlXO2viJrWujYMEx1HE=", "properties": {"ref": "0093", "@spider": "stop_and_shop", "addr:full": "301 Newbury Street", "addr:city": "Danvers", "addr:state": "MA", "addr:postcode": "01923", "addr:country": "US", "name": "Super Stop & Shop", "brand": "Stop and Shop"}, "geometry": {"type": "Point", "coordinates": [-70.968, 42.5836]}},
{"type": "Feature", "id": "UrHz2yXUP1-z3qdJr3ApbqRD3Sk=", "properties": {"ref": "0095", "@spider": "stop_and_shop", "addr:full": "440 Russell Street", "addr:city": "Hadley", "addr:state": "MA", "addr:postcode": "01035", "addr:country": "US", "name": "Super Stop & Shop", "brand": "Stop and Shop"}, "geometry": {"type": "Point", "coordinates": [-72.5377, 42.3645]}},
{"type": "Feature", "id": "4vDjHFou6mxIUW5UwFfHkR2cTBg=", "properties": {"ref": "0478", "@spider": "stop_and_shop", "addr:full": "316 Grove Street", "addr:city": "Braintree", "addr:state": "MA", "addr:postcode": "02184", "addr:country": "US", "name": "Super Stop & Shop", "brand": "Stop and Shop"}, "geometry": {"type": "Point", "coordinates": [-70.986, 42.1891]}},
{"type": "Feature", "id": "RjLpyzggBbMkRS93uMGkVsgTEcM=", "properties": {"ref": "0621", "@spider": "stop_and_shop", "addr:full": "100 Main Street North", "addr:city": "Southbury", "addr:state": "CT", "addr:postcode": "06488", "addr:country": "US", "name": "Stop & Shop", "brand": "Stop and Shop"}, "geometry": {"type": "Point", "coordinates": [-73.2123, 41.4788]}},
{"type": "Feature", "id": "M-xvr-OhcGpbelA5YNhSHE-XBsA=", "properties": {"ref": "2702", "@spider": "stop_and_shop", "addr:full": "275 Warwick Avenue", "addr:city": "Cranston", "addr:state": "RI", "addr:postcode": "02905", "addr:country": "US", "name": "Stop & Shop", "brand": "Stop and Shop"}, "geometry": {"type": "Point", "coordinates": [-71.4056, 41.7692]}},
{"type": "Feature", "id": "z_cHMqKI0Ss-M8NKsESz1uRmD_E=", "properties": {"ref": "0659", "@spider": "stop_and_shop", "addr:full": "72 Newtown RoadNutmeg Square", "addr:city": "Danbury", "addr:state": "CT", "addr:postcode": "06810", "addr:country": "US", "name": "Super Stop & Shop", "brand": "Stop and Shop"}, "geometry": {"type": "Point", "coordinates": [-73.4169, 41.4071]}},
{"type": "Feature", "id": "_qQ-9rOKq1AwKyN8-bC_4KY02tU=", "properties": {"ref": "0614", "@spider": "stop_and_shop", "addr:full": "1135 Farmington Avenue", "addr:city": "Berlin", "addr:state": "CT", "addr:postcode": "06037", "addr:country": "US", "name": "Super Stop & Shop", "brand": "Stop and Shop"}, "geometry": {"type": "Point", "coordinates": [-72.7569, 41.629]}},
{"type": "Feature", "id": "COTXMfq_PXpdM4loivGVEFyD3bs=", "properties": {"ref": "0522", "@spider": "stop_and_shop", "addr:full": "111 Vredenburgh Avenue", "addr:city": "Yonkers", "addr:state": "NY", "addr:postcode": "10704", "addr:country": "US", "name": "Super Stop & Shop", "brand": "Stop and Shop"}, "geometry": {"type": "Point", "coordinates": [-73.8534, 40.9246]}},
{"type": "Feature", "id": "Ryf2pNNG7guk6k8blDgC7Z1bAIg=", "properties": {"ref": "2581", "@spider": "stop_and_shop", "addr:full": "156-01 Cross Bay Blvd", "addr:city": "Howard Beach", "addr:state": "NY", "addr:postcode": "11414", "addr:country": "US", "name": "Stop & Shop", "brand": "Stop and Shop"}, "geometry": {"type": "Point", "coordinates": [-73.8404, 40.6639]}},
{"type": "Feature", "id": "hejl-Q6aCoWKIHQY4OfZ30E6rww=", "properties": {"ref": "0075", "@spider": "stop_and_shop", "addr:full": "301 Centre Street", "addr:city": "Jamaica Plain", "addr:state": "MA", "addr:postcode": "02130", "addr:country": "US", "name": "Super Stop & Shop", "brand": "Stop and Shop"}, "geometry": {"type": "Point", "coordinates": [-71.103, 42.3229]}},
{"type": "Feature", "id": "wYIkwmef0yVLNsMjuBFLvrK_tls=", "properties": {"ref": "0808", "@spider": "stop_and_shop", "addr:full": "2360 Lakewood RoadTri City Plaza #808", "addr:city": "Toms River", "addr:state": "NJ", "addr:postcode": "08755", "addr:country": "US", "name": "Super Stop & Shop", "brand": "Stop and Shop"}, "geometry": {"type": "Point", "coordinates": [-74.2246, 40.0456]}},
{"type": "Feature", "id": "5ibDo6rx57BNu790lSxDnCVYON8=", "properties": {"ref": "2584", "@spider": "stop_and_shop", "addr:full": "130 Wheatley Plaza", "addr:city": "Greenvale", "addr:state": "NY", "addr:postcode": "11548", "addr:country": "US", "name": "Stop & Shop", "brand": "Stop and Shop"}, "geometry": {"type": "Point", "coordinates": [-73.6274, 40.8092]}},
{"type": "Feature", "id": "96mH3JssrLPFi6CPQv4bu_WWRbU=", "properties": {"ref": "0017", "@spider": "stop_and_shop", "addr:full": "495 Southern Artery", "addr:city": "Quincy", "addr:state": "MA", "addr:postcode": "02169", "addr:country": "US", "name": "Super Stop & Shop", "brand": "Stop and Shop"}, "geometry": {"type": "Point", "coordinates": [-70.9965, 42.2547]}},
{"type": "Feature", "id": "-48kfUNhACB66_LsHo8Tb-klD-M=", "properties": {"ref": "2633", "@spider": "stop_and_shop", "addr:full": "150 Whalley Avenue", "addr:city": "New Haven", "addr:state": "CT", "addr:postcode": "06515", "addr:country": "US", "name": "Super Stop & Shop", "brand": "Stop and Shop"}, "geometry": {"type": "Point", "coordinates": [-72.9383, 41.3143]}},
{"type": "Feature", "id": "-Uk8IqXQFtQw6m3M0XAatx6xRcA=", "properties": {"ref": "2418", "@spider": "stop_and_shop", "addr:full": "126 Medway RoadSuite 2", "addr:city": "Milford", "addr:state": "MA", "addr:postcode": "01757", "addr:country": "US", "name": "Stop & Shop", "brand": "Stop and Shop"}, "geometry": {"type": "Point", "coordinates": [-71.4889, 42.1483]}},
{"type": "Feature", "id": "F1-qeL-V9ORYNbNMXcgwRfUGOBA=", "properties": {"ref": "0725", "@spider": "stop_and_shop", "addr:full": "333 West River Street", "addr:city": "Providence", "addr:state": "RI", "addr:postcode": "02909", "addr:country": "US", "name": "Super Stop & Shop", "brand": "Stop and Shop"}, "geometry": {"type": "Point", "coordinates": [-71.4135, 41.8452]}},
{"type": "Feature", "id": "oLlr7Za25eMuPmpYVlNB-_O1y-A=", "properties": {"ref": "0509", "@spider": "stop_and_shop", "addr:full": "74-17 Grand Avenue", "addr:city": "Maspeth", "addr:state": "NY", "addr:postcode": "11378", "addr:country": "US", "name": "Super Stop & Shop", "brand": "Stop and Shop"}, "geometry": {"type": "Point", "coordinates": [-73.888, 40.7301]}},
{"type": "Feature", "id": "kQRkHV1G1kwCwjXI59JZsZ6OdJQ=", "properties": {"ref": "0098", "@spider": "stop_and_shop", "addr:full": "438 Dartmouth Street", "addr:city": "New Bedford", "addr:state": "MA", "addr:postcode": "02742", "addr:country": "US", "name": "Super Stop & Shop", "brand": "Stop and Shop"}, "geometry": {"type": "Point", "coordinates": [-70.9356, 41.6162]}},
{"type": "Feature", "id": "9rQGPrZI9_DXk6IZXfkJskROLF0=", "properties": {"ref": "0878", "@spider": "stop_and_shop", "addr:full": "859 South State Route 17", "addr:city": "Paramus", "addr:state": "NJ", "addr:postcode": "07652", "addr:country": "US", "name": "Stop & Shop", "brand": "Stop and Shop"}, "geometry": {"type": "Point", "coordinates": [-74.0828, 40.9778]}},
{"type": "Feature", "id": "yRUmbQSZprk1ScfD5yu0-x6a4Bw=", "properties": {"ref": "0049", "@spider": "stop_and_shop", "addr:full": "700 Pleasant Street", "addr:city": "Watertown", "addr:state": "MA", "addr:postcode": "02472", "addr:country": "US", "name": "Super Stop & Shop", "brand": "Stop and Shop"}, "geometry": {"type": "Point", "coordinates": [-71.2163, 42.3669]}},
{"type": "Feature", "id": "62bU5Zpn0r3TbEZPfzCGW2RPMWc=", "properties": {"ref": "0638", "@spider": "stop_and_shop", "addr:full": "930 North Colony Road", "addr:city": "Wallingford", "addr:state": "CT", "addr:postcode": "06492", "addr:country": "US", "name": "Super Stop & Shop", "brand": "Stop and Shop"}, "geometry": {"type": "Point", "coordinates": [-72.8072, 41.4845]}},
{"type": "Feature", "id": "3l4ypWFBd2n2nd_yYqpFNblGLvc=", "properties": {"ref": "0782", "@spider": "stop_and_shop", "addr:full": "1282 Springfield Street", "addr:city": "Feeding Hills", "addr:state": "MA", "addr:postcode": "01030", "addr:country": "US", "name": "Super Stop & Shop", "brand": "Stop and Shop"}, "geometry": {"type": "Point", "coordinates": [-72.6732, 42.0677]}},
{"type": "Feature", "id": "kTmhx_fMXlOJDCttLxND1-9LRks=", "properties": {"ref": "0492", "@spider": "stop_and_shop", "addr:full": "1690 Revere Beach Parkway", "addr:city": "Everett", "addr:state": "MA", "addr:postcode": "02149", "addr:country": "US", "name": "Super Stop & Shop", "brand": "Stop and Shop"}, "geometry": {"type": "Point", "coordinates": [-71.0427, 42.4018]}},
{"type": "Feature", "id": "s946a_zTykuhUwjMap6dpMsGFz4=", "properties": {"ref": "0608", "@spider": "stop_and_shop", "addr:full": "99 Linwood Avenue", "addr:city": "Colchester", "addr:state": "CT", "addr:postcode": "06415", "addr:country": "US", "name": "Super Stop & Shop", "brand": "Stop and Shop"}, "geometry": {"type": "Point", "coordinates": [-72.3273, 41.5685]}},
{"type": "Feature", "id": "vks4Xs3YUou2GVqQHMDRtGf_DVE=", "properties": {"ref": "0630", "@spider": "stop_and_shop", "addr:full": "44 Fenn Road", "addr:city": "Newington", "addr:state": "CT", "addr:postcode": "06111", "addr:country": "US", "name": "Super Stop & Shop", "brand": "Stop and Shop"}, "geometry": {"type": "Point", "coordinates": [-72.7564, 41.6981]}},
{"type": "Feature", "id": "YKuMhzTkjhWZUATubXVXV8WoShM=", "properties": {"ref": "0857", "@spider": "stop_and_shop", "addr:full": "219 Elm Street", "addr:city": "Westfield", "addr:state": "NJ", "addr:postcode": "07090", "addr:country": "US", "name": "Stop & Shop", "brand": "Stop and Shop"}, "geometry": {"type": "Point", "coordinates": [-74.3518, 40.6532]}},
{"type": "Feature", "id": "Eq5ME9-5xV9JFeaQqPoCFgVXnNM=", "properties": {"ref": "0843", "@spider": "stop_and_shop", "addr:full": "232 Central Avenue", "addr:city": "Jersey City", "addr:state": "NJ", "addr:postcode": "07306", "addr:country": "US", "name": "Stop & Shop", "brand": "Stop and Shop"}, "geometry": {"type": "Point", "coordinates": [-74.0511, 40.7428]}},
{"type": "Feature", "id": "cH79YeTLH70KzjNDjTufrFwpOmw=", "properties": {"ref": "0694", "@spider": "stop_and_shop", "addr:full": "79 Washington Avenue", "addr:city": "North Haven", "addr:state": "CT", "addr:postcode": "06473", "addr:country": "US", "name": "Super Stop & Shop", "brand": "Stop and Shop"}, "geometry": {"type": "Point", "coordinates": [-72.8582, 41.3932]}},
{"type": "Feature", "id": "SEouph9sGLOeuAImNtEdepN1rWA=", "properties": {"ref": "2814", "@spider": "stop_and_shop", "addr:full": "116 Route 35", "addr:city": "Neptune City", "addr:state": "NJ", "addr:postcode": "07753", "addr:country": "US", "name": "Super Stop & Shop", "brand": "Stop and Shop"}, "geometry": {"type": "Point", "coordinates": [-74.0269, 40.2091]}},
{"type": "Feature", "id": "ai3x0k6-xwAbori0FBBYgyHEFN4=", "properties": {"ref": "0731", "@spider": "stop_and_shop", "addr:full": "199 Connell Highway", "addr:city": "Newport", "addr:state": "RI", "addr:postcode": "02840", "addr:country": "US", "name": "Super Stop & Shop", "brand": "Stop and Shop"}, "geometry": {"type": "Point", "coordinates": [-71.3171, 41.5095]}},
{"type": "Feature", "id": "_DeilnViChx7FKJYCRYnyDMcYoY=", "properties": {"ref": "2701", "@spider": "stop_and_shop", "addr:full": "1925 Pawtucket Avenue", "addr:city": "East Providence", "addr:state": "RI", "addr:postcode": "02914", "addr:country": "US", "name": "Stop & Shop", "brand": "Stop and Shop"}, "geometry": {"type": "Point", "coordinates": [-71.3562, 41.8225]}},
{"type": "Feature", "id": "HtXjMYHHZIC_DE6SUArLjnYId_k=", "properties": {"ref": "0062", "@spider": "stop_and_shop", "addr:full": "99 Charles Street", "addr:city": "Malden", "addr:state": "MA", "addr:postcode": "02148", "addr:country": "US", "name": "Super Stop & Shop", "brand": "Stop and Shop"}, "geometry": {"type": "Point", "coordinates": [-71.0707, 42.4245]}},
{"type": "Feature", "id": "57uUsN_gLzwwXxazsc_Bcp30U0w=", "properties": {"ref": "2590", "@spider": "stop_and_shop", "addr:full": "460 Franklin Ave", "addr:city": "Franklin Square", "addr:state": "NY", "addr:postcode": "11010", "addr:country": "US", "name": "Stop & Shop", "brand": "Stop and Shop"}, "geometry": {"type": "Point", "coordinates": [-73.6837, 40.6953]}},
{"type": "Feature", "id": "_SzLPZ-dMCLHFrGT_9wI0DCrY-Y=", "properties": {"ref": "2809", "@spider": "stop_and_shop", "addr:full": "647 Route 18 South ", "addr:city": "East Brunswick", "addr:state": "NJ", "addr:postcode": "08816", "addr:country": "US", "name": "Stop & Shop", "brand": "Stop and Shop"}, "geometry": {"type": "Point", "coordinates": [-74.389, 40.4332]}},
{"type": "Feature", "id": "pTR0bOh8suQyG3F8Dgzu_WWGxEg=", "properties": {"ref": "0560", "@spider": "stop_and_shop", "addr:full": "291 West Main Street", "addr:city": "Smithtown", "addr:state": "NY", "addr:postcode": "11787", "addr:country": "US", "name": "Super Stop & Shop", "brand": "Stop and Shop"}, "geometry": {"type": "Point", "coordinates": [-73.2065, 40.8572]}},
{"type": "Feature", "id": "dZD3BM1P7pk-8RY-ABlYkR1l3FA=", "properties": {"ref": "0813", "@spider": "stop_and_shop", "addr:full": "160 Kingsland Road", "addr:city": "Clifton", "addr:state": "NJ", "addr:postcode": "07014", "addr:country": "US", "name": "Super Stop & Shop", "brand": "Stop and Shop"}, "geometry": {"type": "Point", "coordinates": [-74.1406, 40.8262]}},
{"type": "Feature", "id": "oXdY04gVZng7eJ51IYE2rG0w9RA=", "properties": {"ref": "0591", "@spider": "stop_and_shop", "addr:full": "1326 West Boston Post Road", "addr:city": "Mamaroneck", "addr:state": "NY", "addr:postcode": "10538", "addr:country": "US", "name": "Super Stop & Shop", "brand": "Stop and Shop"}, "geometry": {"type": "Point", "coordinates": [-73.7175, 40.9545]}},
{"type": "Feature", "id": "rS_jilCE5-AggFETojAI26dL7A8=", "properties": {"ref": "0698", "@spider": "stop_and_shop", "addr:full": "2145 Fairfield Avenue", "addr:city": "Bridgeport", "addr:state": "CT", "addr:postcode": "06606", "addr:country": "US", "name": "Super Stop & Shop", "brand": "Stop and Shop"}, "geometry": {"type": "Point", "coordinates": [-73.2191, 41.1651]}},
{"type": "Feature", "id": "YENvssjBe7sX6U0oEiGQ-UABsQA=", "properties": {"ref": "0708", "@spider": "stop_and_shop", "addr:full": "1360 West Main Road", "addr:city": "Middletown", "addr:state": "RI", "addr:postcode": "02842", "addr:country": "US", "name": "Super Stop & Shop", "brand": "Stop and Shop"}, "geometry": {"type": "Point", "coordinates": [-71.2922, 41.5364]}},
{"type": "Feature", "id": "t60ztWgvgOq2TL8MRK8-kdVp5Rg=", "properties": {"ref": "0623", "@spider": "stop_and_shop", "addr:full": "416 East Main Street", "addr:city": "Middletown", "addr:state": "CT", "addr:postcode": "06457", "addr:country": "US", "name": "Super Stop & Shop", "brand": "Stop and Shop"}, "geometry": {"type": "Point", "coordinates": [-72.6393, 41.5466]}},
{"type": "Feature", "id": "KqGBezx8e_Nqoh5242S5cRIyJhg=", "properties": {"ref": "0505", "@spider": "stop_and_shop", "addr:full": "1710 Avenue Y", "addr:city": "Brooklyn", "addr:state": "NY", "addr:postcode": "11235", "addr:country": "US", "name": "Super Stop & Shop", "brand": "Stop and Shop"}, "geometry": {"type": "Point", "coordinates": [-73.9528, 40.5903]}},
{"type": "Feature", "id": "Iews5blWyAnpt-qxI4ldp_cq_Is=", "properties": {"ref": "0064", "@spider": "stop_and_shop", "addr:full": "24 Route 6a", "addr:city": "Orleans", "addr:state": "MA", "addr:postcode": "02653", "addr:country": "US", "name": "Super Stop & Shop", "brand": "Stop and Shop"}, "geometry": {"type": "Point", "coordinates": [-69.9841, 41.7954]}},
{"type": "Feature", "id": "_DrdbQxdYCMzV1g7pXUI1B1cL_Y=", "properties": {"ref": "0397", "@spider": "stop_and_shop", "addr:full": "1 Trowbridge Place", "addr:city": "Bourne", "addr:state": "MA", "addr:postcode": "02532", "addr:country": "US", "name": "Stop & Shop Pharmacy", "brand": "Stop and Shop"}, "geometry": {"type": "Point", "coordinates": [-70.598, 41.7408]}},
{"type": "Feature", "id": "0Iv0y4lZpmFauGUdxeh12pYhAe0=", "properties": {"ref": "0632", "@spider": "stop_and_shop", "addr:full": "80 Town Line Road", "addr:city": "Rocky Hill", "addr:state": "CT", "addr:postcode": "06067", "addr:country": "US", "name": "Super Stop & Shop", "brand": "Stop and Shop"}, "geometry": {"type": "Point", "coordinates": [-72.6575, 41.6822]}},
{"type": "Feature", "id": "Byvw7biXZ_SILnULy1LWmLm5ME0=", "properties": {"ref": "0616", "@spider": "stop_and_shop", "addr:full": "161 West Putnam Avenue", "addr:city": "Greenwich", "addr:state": "CT", "addr:postcode": "06831", "addr:country": "US", "name": "Super Stop & Shop", "brand": "Stop and Shop"}, "geometry": {"type": "Point", "coordinates": [-73.6311, 41.0271]}},
{"type": "Feature", "id": "rxx-N6GQhZk0rhbmYUYDdMj3ix8=", "properties": {"ref": "0885", "@spider": "stop_and_shop", "addr:full": "130 Skyline Drive", "addr:city": "Ringwood", "addr:state": "NJ", "addr:postcode": "07456", "addr:country": "US", "name": "Stop & Shop", "brand": "Stop and Shop"}, "geometry": {"type": "Point", "coordinates": [-74.261, 41.0857]}},
{"type": "Feature", "id": "JDSuV3irOl3K6Y-KRXKP8n8aXmM=", "properties": {"ref": "0566", "@spider": "stop_and_shop", "addr:full": "70-20 Rockaway Beach Blvd.", "addr:city": "Arverne By-the-Sea", "addr:state": "NY", "addr:postcode": "11692", "addr:country": "US", "name": "Stop & Shop", "brand": "Stop and Shop"}, "geometry": {"type": "Point", "coordinates": [-73.8018, 40.5886]}},
{"type": "Feature", "id": "oho-cXGe08AJkmk8TVIL9OPIBgw=", "properties": {"ref": "0564", "@spider": "stop_and_shop", "addr:full": "575 West Montauk Highway", "addr:city": "West Babylon", "addr:state": "NY", "addr:postcode": "11704", "addr:country": "US", "name": "Super Stop & Shop", "brand": "Stop and Shop"}, "geometry": {"type": "Point", "coordinates": [-73.3434, 40.6883]}},
{"type": "Feature", "id": "2jGwZZfAVeGnNf0Q2qI1_5zkDK8=", "properties": {"ref": "0823", "@spider": "stop_and_shop", "addr:full": "5 Town Center Drive", "addr:city": "Sparta", "addr:state": "NJ", "addr:postcode": "07871", "addr:country": "US", "name": "Stop & Shop", "brand": "Stop and Shop"}, "geometry": {"type": "Point", "coordinates": [-74.6321, 41.0418]}},
{"type": "Feature", "id": "j9L5RqmrOwmjeFvE_Yw9MBZogXU=", "properties": {"ref": "2587", "@spider": "stop_and_shop", "addr:full": "3106 Farrington Street", "addr:city": "Flushing", "addr:state": "NY", "addr:postcode": "11354", "addr:country": "US", "name": "Stop & Shop", "brand": "Stop and Shop"}, "geometry": {"type": "Point", "coordinates": [-73.8346, 40.7687]}},
{"type": "Feature", "id": "kNKfoVxdXaMChAdiQosyQjVpo4k=", "properties": {"ref": "0656", "@spider": "stop_and_shop", "addr:full": "125 Danbury RoadCopps Hill Plaza", "addr:city": "Ridgefield", "addr:state": "CT", "addr:postcode": "06877", "addr:country": "US", "name": "Super Stop & Shop", "brand": "Stop and Shop"}, "geometry": {"type": "Point", "coordinates": [-73.4931, 41.2946]}},
{"type": "Feature", "id": "JCnJR4BoksG2eiGUlmQ-92X6Gnk=", "properties": {"ref": "0704", "@spider": "stop_and_shop", "addr:full": "70 Mendon Road", "addr:city": "Cumberland", "addr:state": "RI", "addr:postcode": "02864", "addr:country": "US", "name": "Super Stop & Shop", "brand": "Stop and Shop"}, "geometry": {"type": "Point", "coordinates": [-71.4035, 41.9129]}},
{"type": "Feature", "id": "Yuuyqxikd9ij8MgVY_GlVip2qms=", "properties": {"ref": "0667", "@spider": "stop_and_shop", "addr:full": "155 Boston Post Road", "addr:city": "Waterford", "addr:state": "CT", "addr:postcode": "06385", "addr:country": "US", "name": "Super Stop & Shop", "brand": "Stop and Shop"}, "geometry": {"type": "Point", "coordinates": [-72.1296, 41.3434]}},
{"type": "Feature", "id": "FG-a1JCGOhwqMI13fyVeDxMyjok=", "properties": {"ref": "0526", "@spider": "stop_and_shop", "addr:full": "3126 Jericho Turnpike", "addr:city": "East Northport", "addr:state": "NY", "addr:postcode": "11731", "addr:country": "US", "name": "Super Stop & Shop", "brand": "Stop and Shop"}, "geometry": {"type": "Point", "coordinates": [-73.3209, 40.8394]}},
{"type": "Feature", "id": "WwgdDMX8ag_SZcFDdy61oW0TPq8=", "properties": {"ref": "0035", "@spider": "stop_and_shop", "addr:full": "400 Lincoln StreetLincoln Plaza", "addr:city": "Hingham", "addr:state": "MA", "addr:postcode": "02043", "addr:country": "US", "name": "Super Stop & Shop", "brand": "Stop and Shop"}, "geometry": {"type": "Point", "coordinates": [-70.9241, 42.2483]}},
{"type": "Feature", "id": "qYfumjKgM06Q63Gsc-sTJhPp8Xo=", "properties": {"ref": "2589", "@spider": "stop_and_shop", "addr:full": "92-10 Atlantic Ave", "addr:city": "Ozone Park", "addr:state": "NY", "addr:postcode": "11416", "addr:country": "US", "name": "Stop & Shop", "brand": "Stop and Shop"}, "geometry": {"type": "Point", "coordinates": [-73.8501, 40.6877]}},
{"type": "Feature", "id": "8DInwk5NASSd51_suAne0F1sq8c=", "properties": {"ref": "0554", "@spider": "stop_and_shop", "addr:full": "385 Route 25A", "addr:city": "Miller Place", "addr:state": "NY", "addr:postcode": "11764", "addr:country": "US", "name": "Super Stop & Shop", "brand": "Stop and Shop"}, "geometry": {"type": "Point", "coordinates": [-72.9877, 40.9417]}},
{"type": "Feature", "id": "zt4GPOlwxdjB5A4s0wPbDku8WLg=", "properties": {"ref": "0404", "@spider": "stop_and_shop", "addr:full": "1600 Boston Road", "addr:city": "Springfield", "addr:state": "MA", "addr:postcode": "01129", "addr:country": "US", "name": "Super Stop & Shop", "brand": "Stop and Shop"}, "geometry": {"type": "Point", "coordinates": [-72.4901, 42.1426]}},
{"type": "Feature", "id": "gWvoQwNL11ME6xhJnueRh6c4jZ8=", "properties": {"ref": "0570", "@spider": "stop_and_shop", "addr:full": "653 Hillside Avenue", "addr:city": "New Hyde Park", "addr:state": "NY", "addr:postcode": "11040", "addr:country": "US", "name": "Super Stop & Shop", "brand": "Stop and Shop"}, "geometry": {"type": "Point", "coordinates": [-73.6949, 40.7425]}},
{"type": "Feature", "id": "e2HV3iXFw03Nc0-r-w4Wo-HwSPY=", "properties": {"ref": "0710", "@spider": "stop_and_shop", "addr:full": "368-398 Cottage Street", "addr:city": "Pawtucket", "addr:state": "RI", "addr:postcode": "02860", "addr:country": "US", "name": "Super Stop & Shop", "brand": "Stop and Shop"}, "geometry": {"type": "Point", "coordinates": [-71.3663, 41.8871]}},
{"type": "Feature", "id": "FZPpLhU1hm06BdrtR1fylgazNw4=", "properties": {"ref": "2565", "@spider": "stop_and_shop", "addr:full": "465 Atlantic Avenue", "addr:city": "Oceanside", "addr:state": "NY", "addr:postcode": "11572", "addr:country": "US", "name": "Super Stop & Shop", "brand": "Stop and Shop"}, "geometry": {"type": "Point", "coordinates": [-73.6536, 40.6405]}},
{"type": "Feature", "id": "8sJWOlq1yvYHsaRdVt_Hym-3Mug=", "properties": {"ref": "0687", "@spider": "stop_and_shop", "addr:full": "22 Leetes Island Rd.", "addr:city": "Branford", "addr:state": "CT", "addr:postcode": "06405", "addr:country": "US", "name": "Super Stop & Shop", "brand": "Stop and Shop"}, "geometry": {"type": "Point", "coordinates": [-72.8189, 41.2853]}},
{"type": "Feature", "id": "77h-8x0s-4iXEMVF2WPX4eDdBTk=", "properties": {"ref": "0697", "@spider": "stop_and_shop", "addr:full": "1094 Killingly Commons Drive", "addr:city": "Dayville", "addr:state": "CT", "addr:postcode": "06241", "addr:country": "US", "name": "Stop & Shop", "brand": "Stop and Shop"}, "geometry": {"type": "Point", "coordinates": [-71.8809, 41.8417]}},
{"type": "Feature", "id": "-jPPsur62OAILHklg1k7ANf_k0Q=", "properties": {"ref": "0472", "@spider": "stop_and_shop", "addr:full": "40 Franklin Village Drive", "addr:city": "Franklin", "addr:state": "MA", "addr:postcode": "02038", "addr:country": "US", "name": "Super Stop & Shop", "brand": "Stop and Shop"}, "geometry": {"type": "Point", "coordinates": [-71.4051, 42.0902]}},
{"type": "Feature", "id": "GH3XEcsHGb9SMzzdsx3XMUSh5Ns=", "properties": {"ref": "2545", "@spider": "stop_and_shop", "addr:full": "170 Route 303/1 Stevens Way", "addr:city": "Orangeburg", "addr:state": "NY", "addr:postcode": "10962", "addr:country": "US", "name": "Stop & Shop", "brand": "Stop and Shop"}, "geometry": {"type": "Point", "coordinates": [-73.9475, 41.0395]}},
{"type": "Feature", "id": "iI-RxqRIdWxosSqH0ag-aX3DX1c=", "properties": {"ref": "0639", "@spider": "stop_and_shop", "addr:full": "200 East Main StreetThe Dock Shopping Center", "addr:city": "Stratford", "addr:state": "CT", "addr:postcode": "06614", "addr:country": "US", "name": "Super Stop & Shop", "brand": "Stop and Shop"}, "geometry": {"type": "Point", "coordinates": [-73.1177, 41.2028]}},
{"type": "Feature", "id": "5SJuoh_kyRd7PAcxbsNTfRKpBB8=", "properties": {"ref": "0605", "@spider": "stop_and_shop", "addr:full": "55 Oak Street", "addr:city": "Glastonbury", "addr:state": "CT", "addr:postcode": "06033", "addr:country": "US", "name": "Super Stop & Shop", "brand": "Stop and Shop"}, "geometry": {"type": "Point", "coordinates": [-72.5947, 41.7069]}},
{"type": "Feature", "id": "RU7-ADjdGc3sedBmuG9_DQMPb-U=", "properties": {"ref": "0043", "@spider": "stop_and_shop", "addr:full": "540 Squire Road", "addr:city": "Revere", "addr:state": "MA", "addr:postcode": "02151", "addr:country": "US", "name": "Super Stop & Shop", "brand": "Stop and Shop"}, "geometry": {"type": "Point", "coordinates": [-71.0207, 42.4298]}},
{"type": "Feature", "id": "2rFdovICeTM5he2UR-wt3jrkUIE=", "properties": {"ref": "0008", "@spider": "stop_and_shop", "addr:full": "19 Temple Street", "addr:city": "Framingham", "addr:state": "MA", "addr:postcode": "01701", "addr:country": "US", "name": "Super Stop & Shop", "brand": "Stop and Shop"}, "geometry": {"type": "Point", "coordinates": [-71.4489, 42.2972]}},
{"type": "Feature", "id": "8WaXSYHmu7XxrjQQjzdSOWqV500=", "properties": {"ref": "0665", "@spider": "stop_and_shop", "addr:full": "248 Flanders Road", "addr:city": "East Lyme", "addr:state": "CT", "addr:postcode": "06333", "addr:country": "US", "name": "Super Stop & Shop", "brand": "Stop and Shop"}, "geometry": {"type": "Point", "coordinates": [-72.2106, 41.3579]}},
{"type": "Feature", "id": "zisMOVeIR3a3kWNuUH7HZALaaGA=", "properties": {"ref": "0006", "@spider": "stop_and_shop", "addr:full": "829 Worcester Street", "addr:city": "Natick", "addr:state": "MA", "addr:postcode": "01760", "addr:country": "US", "name": "Super Stop & Shop", "brand": "Stop and Shop"}, "geometry": {"type": "Point", "coordinates": [-71.3567, 42.3004]}},
{"type": "Feature", "id": "HQfEXeqdNplewlnp6tm36H3m9Y8=", "properties": {"ref": "2415", "@spider": "stop_and_shop", "addr:full": "31 Sparks Ave.", "addr:city": "Nantucket", "addr:state": "MA", "addr:postcode": "02554", "addr:country": "US", "name": "Stop & Shop", "brand": "Stop and Shop"}, "geometry": {"type": "Point", "coordinates": [-70.0927, 41.272]}},
{"type": "Feature", "id": "q7XJ31UWiSoyBULpheMftjjEOKY=", "properties": {"ref": "0622", "@spider": "stop_and_shop", "addr:full": "211 High StreetTorrington Commons Shopping", "addr:city": "Torrington", "addr:state": "CT", "addr:postcode": "06790", "addr:country": "US", "name": "Super Stop & Shop", "brand": "Stop and Shop"}, "geometry": {"type": "Point", "coordinates": [-73.1285, 41.8001]}},
{"type": "Feature", "id": "A5n9qSYlv20Z948K25Ztlw3pfs4=", "properties": {"ref": "0458", "@spider": "stop_and_shop", "addr:full": "660 Merrill Road", "addr:city": "Pittsfield", "addr:state": "MA", "addr:postcode": "01201", "addr:country": "US", "name": "Super Stop & Shop", "brand": "Stop and Shop"}, "geometry": {"type": "Point", "coordinates": [-73.2059, 42.4644]}},
{"type": "Feature", "id": "FKldgccfjJnEbpnSPdLA3QbUygY=", "properties": {"ref": "0646", "@spider": "stop_and_shop", "addr:full": "1937 West Main Street", "addr:city": "Stamford", "addr:state": "CT", "addr:postcode": "06905", "addr:country": "US", "name": "Stop & Shop", "brand": "Stop and Shop"}, "geometry": {"type": "Point", "coordinates": [-73.5612, 41.049]}},
{"type": "Feature", "id": "2oCOC3sFDTAfB9Kr76lAvBoaqkg=", "properties": {"ref": "0624", "@spider": "stop_and_shop", "addr:full": "128 Samson Rock Road", "addr:city": "Madison", "addr:state": "CT", "addr:postcode": "06443", "addr:country": "US", "name": "Super Stop & Shop", "brand": "Stop and Shop"}, "geometry": {"type": "Point", "coordinates": [-72.595, 41.2779]}},
{"type": "Feature", "id": "4bY-6G6MlwKTDNhSSxqEh1SOz8Y=", "properties": {"ref": "0067", "@spider": "stop_and_shop", "addr:full": "35 Washington Street", "addr:city": "Lynn", "addr:state": "MA", "addr:postcode": "01901", "addr:country": "US", "name": "Super Stop & Shop", "brand": "Stop and Shop"}, "geometry": {"type": "Point", "coordinates": [-70.9585, 42.4697]}},
{"type": "Feature", "id": "UKsGI5qZ6Ev3_GCk-WO3XtGS_mQ=", "properties": {"ref": "0724", "@spider": "stop_and_shop", "addr:full": "1128 Mineral Spring AvenueSpring Plaza", "addr:city": "North Providence", "addr:state": "RI", "addr:postcode": "02908", "addr:country": "US", "name": "Super Stop & Shop", "brand": "Stop and Shop"}, "geometry": {"type": "Point", "coordinates": [-71.4281, 41.8674]}},
{"type": "Feature", "id": "-gtfpp_25DpNDSujGhpJC18a6yI=", "properties": {"ref": "0597", "@spider": "stop_and_shop", "addr:full": "2540 South Road", "addr:city": "Poughkeepsie", "addr:state": "NY", "addr:postcode": "12601", "addr:country": "US", "name": "Super Stop & Shop", "brand": "Stop and Shop"}, "geometry": {"type": "Point", "coordinates": [-73.93, 41.6626]}},
{"type": "Feature", "id": "m5uPlK4clGX4kZn-tnLHP8_DZm4=", "properties": {"ref": "0038", "@spider": "stop_and_shop", "addr:full": "36 New State Highway", "addr:city": "Raynham", "addr:state": "MA", "addr:postcode": "02767", "addr:country": "US", "name": "Super Stop & Shop", "brand": "Stop and Shop"}, "geometry": {"type": "Point", "coordinates": [-71.063, 41.905]}},
{"type": "Feature", "id": "USVM4i8W28gd2gCIKYpTwuSvRTY=", "properties": {"ref": "0559", "@spider": "stop_and_shop", "addr:full": "530 West Old Country Road", "addr:city": "Hicksville", "addr:state": "NY", "addr:postcode": "11801", "addr:country": "US", "name": "Super Stop & Shop", "brand": "Stop and Shop"}, "geometry": {"type": "Point", "coordinates": [-73.5465, 40.7585]}},
{"type": "Feature", "id": "rxFScjdGVZdBaCxMLHIHBdErVDQ=", "properties": {"ref": "2583", "@spider": "stop_and_shop", "addr:full": "60 Wall Street", "addr:city": "Huntington", "addr:state": "NY", "addr:postcode": "11743", "addr:country": "US", "name": "Stop & Shop", "brand": "Stop and Shop"}, "geometry": {"type": "Point", "coordinates": [-73.4269, 40.8734]}},
{"type": "Feature", "id": "398Mgff7uVrfQBy7QwqNefWP98Y=", "properties": {"ref": "2610", "@spider": "stop_and_shop", "addr:full": "25 Old King's Highway N", "addr:city": "Darien", "addr:state": "CT", "addr:postcode": "06820", "addr:country": "US", "name": "Stop & Shop", "brand": "Stop and Shop"}, "geometry": {"type": "Point", "coordinates": [-73.4668, 41.0788]}},
{"type": "Feature", "id": "AIIGova3RTGTvN39Rvo5aVGJZ5M=", "properties": {"ref": "0592", "@spider": "stop_and_shop", "addr:full": "240 East Sandford Boulevard", "addr:city": "Mount Vernon", "addr:state": "NY", "addr:postcode": "10550", "addr:country": "US", "name": "Super Stop & Shop", "brand": "Stop and Shop"}, "geometry": {"type": "Point", "coordinates": [-73.8245, 40.9011]}},
{"type": "Feature", "id": "8kbtWG2rUrwvri74NdU61xc8BeY=", "properties": {"ref": "0470", "@spider": "stop_and_shop", "addr:full": "71 Quaker Meeting House Road", "addr:city": "Sandwich", "addr:state": "MA", "addr:postcode": "02563", "addr:country": "US", "name": "Super Stop & Shop", "brand": "Stop and Shop"}, "geometry": {"type": "Point", "coordinates": [-70.4867, 41.6995]}},
{"type": "Feature", "id": "iK3j0x4B-yNXOsvPffPTs8rR5fU=", "properties": {"ref": "0502", "@spider": "stop_and_shop", "addr:full": "25 Waterfront Pl", "addr:city": "Port Chester", "addr:state": "NY", "addr:postcode": "10573", "addr:country": "US", "name": "Super Stop & Shop", "brand": "Stop and Shop"}, "geometry": {"type": "Point", "coordinates": [-73.6638, 40.9996]}},
{"type": "Feature", "id": "zXUn9NSRBfzZ04OCmFpJwILrlfc=", "properties": {"ref": "2596", "@spider": "stop_and_shop", "addr:full": "195 N. Bedford Road", "addr:city": "Mount Kisco", "addr:state": "NY", "addr:postcode": "10549", "addr:country": "US", "name": "Stop & Shop", "brand": "Stop and Shop"}, "geometry": {"type": "Point", "coordinates": [-73.7202, 41.2161]}},
{"type": "Feature", "id": "3QXbbcTzyd8lue4QeTUg8yETHX4=", "properties": {"ref": "0009", "@spider": "stop_and_shop", "addr:full": "28 Lincoln Street", "addr:city": "Holyoke", "addr:state": "MA", "addr:postcode": "01040", "addr:country": "US", "name": "Super Stop & Shop", "brand": "Stop and Shop"}, "geometry": {"type": "Point", "coordinates": [-72.6173, 42.2155]}},
{"type": "Feature", "id": "WRS3dHaRN4_LawC2kXQDXRZ6hds=", "properties": {"ref": "0532", "@spider": "stop_and_shop", "addr:full": "420 White Plains Road", "addr:city": "Eastchester", "addr:state": "NY", "addr:postcode": "10709", "addr:country": "US", "name": "Stop & Shop", "brand": "Stop and Shop"}, "geometry": {"type": "Point", "coordinates": [-73.8138, 40.9558]}},
{"type": "Feature", "id": "gRM9FTExEG3Euo-oTuAno-APxSk=", "properties": {"ref": "0022", "@spider": "stop_and_shop", "addr:full": "55 Long Pond Drive", "addr:city": "South Yarmouth", "addr:state": "MA", "addr:postcode": "02664", "addr:country": "US", "name": "Super Stop & Shop", "brand": "Stop and Shop"}, "geometry": {"type": "Point", "coordinates": [-70.206, 41.6581]}},
{"type": "Feature", "id": "0_lVXztBT19U5FOpwp0V_04LPcs=", "properties": {"ref": "0593", "@spider": "stop_and_shop", "addr:full": "670 North Broadway", "addr:city": "North White Plains", "addr:state": "NY", "addr:postcode": "10603", "addr:country": "US", "name": "Super Stop & Shop", "brand": "Stop and Shop"}, "geometry": {"type": "Point", "coordinates": [-73.7669, 41.0551]}},
{"type": "Feature", "id": "5gHjz43RzsCgc8_9KvV7hGYLGKw=", "properties": {"ref": "0736", "@spider": "stop_and_shop", "addr:full": "149 Franklin Street", "addr:city": "Westerly", "addr:state": "RI", "addr:postcode": "02891", "addr:country": "US", "name": "Stop & Shop", "brand": "Stop and Shop"}, "geometry": {"type": "Point", "coordinates": [-71.8095, 41.3583]}},
{"type": "Feature", "id": "jjuZdZG5VVdtbh_Lr9AFIGs8Tmw=", "properties": {"ref": "0835", "@spider": "stop_and_shop", "addr:full": "34 West Railroad Avenue", "addr:city": "Tenafly", "addr:state": "NJ", "addr:postcode": "07670", "addr:country": "US", "name": "Stop & Shop", "brand": "Stop and Shop"}, "geometry": {"type": "Point", "coordinates": [-73.9644, 40.9269]}},
{"type": "Feature", "id": "gJcVbK2sPRkenP41v5KMv-zZ5Kk=", "properties": {"ref": "0524", "@spider": "stop_and_shop", "addr:full": "60 Brotherhood Plaza Drive", "addr:city": "Washingtonville", "addr:state": "NY", "addr:postcode": "10992", "addr:country": "US", "name": "Super Stop & Shop", "brand": "Stop and Shop"}, "geometry": {"type": "Point", "coordinates": [-74.1618, 41.4301]}},
{"type": "Feature", "id": "zOxMWgXjHKkt3kzFv4KJZAJJXRs=", "properties": {"ref": "0590", "@spider": "stop_and_shop", "addr:full": "1615 Old Country Road", "addr:city": "Riverhead", "addr:state": "NY", "addr:postcode": "11901", "addr:country": "US", "name": "Stop & Shop", "brand": "Stop and Shop"}, "geometry": {"type": "Point", "coordinates": [-72.6968, 40.924]}},
{"type": "Feature", "id": "HjK9_0DqUJ8HOkhLj8gB2kVz55Q=", "properties": {"ref": "0583", "@spider": "stop_and_shop", "addr:full": "700-60 Patchogue Yaphank", "addr:city": "Medford", "addr:state": "NY", "addr:postcode": "11763", "addr:country": "US", "name": "Super Stop & Shop", "brand": "Stop and Shop"}, "geometry": {"type": "Point", "coordinates": [-72.9542, 40.8073]}},
{"type": "Feature", "id": "zYFjC8tKdidDaq7GFVo57LcQya8=", "properties": {"ref": "2411", "@spider": "stop_and_shop", "addr:full": "105 Alewife Brook Parkway", "addr:city": "Somerville", "addr:state": "MA", "addr:postcode": "02145", "addr:country": "US", "name": "Stop & Shop", "brand": "Stop and Shop"}, "geometry": {"type": "Point", "coordinates": [-71.1326, 42.4069]}},
{"type": "Feature", "id": "nPmvvo1N7qsrLRJiUCYIzrGqFiQ=", "properties": {"ref": "2812", "@spider": "stop_and_shop", "addr:full": "160 Village Center Drive", "addr:city": "Freehold", "addr:state": "NJ", "addr:postcode": "07728", "addr:country": "US", "name": "Super Stop & Shop", "brand": "Stop and Shop"}, "geometry": {"type": "Point", "coordinates": [-74.3074, 40.2401]}},
{"type": "Feature", "id": "lA7ylNDGmDul0g-dXwvvwpD8Z4g=", "properties": {"ref": "0081", "@spider": "stop_and_shop", "addr:full": "224 Elliott Street", "addr:city": "Beverly", "addr:state": "MA", "addr:postcode": "01915", "addr:country": "US", "name": "Super Stop & Shop", "brand": "Stop and Shop"}, "geometry": {"type": "Point", "coordinates": [-70.8901, 42.5566]}},
{"type": "Feature", "id": "UWuPZvh4GpjPkj8jSLVd8Qii61A=", "properties": {"ref": "0721", "@spider": "stop_and_shop", "addr:full": "595 Smithfield Road", "addr:city": "North Smithfield", "addr:state": "RI", "addr:postcode": "02896", "addr:country": "US", "name": "Super Stop & Shop", "brand": "Stop and Shop"}, "geometry": {"type": "Point", "coordinates": [-71.5147, 41.9822]}},
{"type": "Feature", "id": "ek1wlOWnRdbQD_9Nx1KUaC1bzys=", "properties": {"ref": "0493", "@spider": "stop_and_shop", "addr:full": "25 Faunce Corner Road", "addr:city": "Dartmouth", "addr:state": "MA", "addr:postcode": "02747", "addr:country": "US", "name": "Super Stop & Shop", "brand": "Stop and Shop"}, "geometry": {"type": "Point", "coordinates": [-70.9876, 41.6418]}},
{"type": "Feature", "id": "ec7hRCysnZ8ymHXQOhy5do3DEvw=", "properties": {"ref": "0012", "@spider": "stop_and_shop", "addr:full": "65 Route 6A", "addr:city": "Sandwich", "addr:state": "MA", "addr:postcode": "02563", "addr:country": "US", "name": "Super Stop & Shop", "brand": "Stop and Shop"}, "geometry": {"type": "Point", "coordinates": [-70.5068, 41.7653]}},
{"type": "Feature", "id": "dScFxwWQ0vgcu23KWVHNaIzl3hg=", "properties": {"ref": "0685", "@spider": "stop_and_shop", "addr:full": "470 Monroe Turnpike", "addr:city": "Monroe", "addr:state": "CT", "addr:postcode": "06468", "addr:country": "US", "name": "Stop & Shop", "brand": "Stop and Shop"}, "geometry": {"type": "Point", "coordinates": [-73.218, 41.3139]}},
{"type": "Feature", "id": "NatfXSX3HW5njRe4v36TIvda27I=", "properties": {"ref": "0071", "@spider": "stop_and_shop", "addr:full": "501 Rodman Street", "addr:city": "Fall River", "addr:state": "MA", "addr:postcode": "02721", "addr:country": "US", "name": "Super Stop & Shop", "brand": "Stop and Shop"}, "geometry": {"type": "Point", "coordinates": [-71.1514, 41.6946]}},
{"type": "Feature", "id": "ncQ3pJGbq0j_L3g-mkpqJiASF_0=", "properties": {"ref": "0011", "@spider": "stop_and_shop", "addr:full": "40 Furlong Drive", "addr:city": "Revere", "addr:state": "MA", "addr:postcode": "02151", "addr:country": "US", "name": "Super Stop & Shop", "brand": "Stop and Shop"}, "geometry": {"type": "Point", "coordinates": [-71.0015, 42.4007]}},
{"type": "Feature", "id": "bplfp2TtpqjnzYmVgXy3wsAtlPA=", "properties": {"ref": "0644", "@spider": "stop_and_shop", "addr:full": "44 Lake Avenue Ext.Mill Plain Center", "addr:city": "Danbury", "addr:state": "CT", "addr:postcode": "06811", "addr:country": "US", "name": "Super Stop & Shop", "brand": "Stop and Shop"}, "geometry": {"type": "Point", "coordinates": [-73.4872, 41.3864]}},
{"type": "Feature", "id": "qfvj0G8q07xu1ucxWL6BRuqFe4M=", "properties": {"ref": "0718", "@spider": "stop_and_shop", "addr:full": "91 Point Judith Rd", "addr:city": "Narragansett", "addr:state": "RI", "addr:postcode": "02882", "addr:country": "US", "name": "Super Stop & Shop", "brand": "Stop and Shop"}, "geometry": {"type": "Point", "coordinates": [-71.4811, 41.4304]}},
{"type": "Feature", "id": "PrHIf8wz8sRTnpWfc2Lcp83aqYk=", "properties": {"ref": "2700", "@spider": "stop_and_shop", "addr:full": "101 Andrew Avenue", "addr:city": "Wayland", "addr:state": "MA", "addr:postcode": "01778", "addr:country": "US", "name": "Stop & Shop", "brand": "Stop and Shop"}, "geometry": {"type": "Point", "coordinates": [-71.3694, 42.3647]}},
{"type": "Feature", "id": "aoNk03uv7gGiJPhJran5epd4_GE=", "properties": {"ref": "0804", "@spider": "stop_and_shop", "addr:full": "1511 US Highway 22 West", "addr:city": "Watchung", "addr:state": "NJ", "addr:postcode": "07069", "addr:country": "US", "name": "Super Stop & Shop", "brand": "Stop and Shop"}, "geometry": {"type": "Point", "coordinates": [-74.4245, 40.64]}},
{"type": "Feature", "id": "55cmxSS8Mlny4_QxHYxJRyUhR7k=", "properties": {"ref": "0429", "@spider": "stop_and_shop", "addr:full": "1100 Massachusetts Avenue", "addr:city": "Dorchester", "addr:state": "MA", "addr:postcode": "02125", "addr:country": "US", "name": "Super Stop & Shop", "brand": "Stop and Shop"}, "geometry": {"type": "Point", "coordinates": [-71.0651, 42.3262]}},
{"type": "Feature", "id": "mysFeEjHmFVadRzBNv6GBFRbBDE=", "properties": {"ref": "2403", "@spider": "stop_and_shop", "addr:full": "56 Shank Painter Road", "addr:city": "Provincetown", "addr:state": "MA", "addr:postcode": "02657", "addr:country": "US", "name": "Stop & Shop", "brand": "Stop and Shop"}, "geometry": {"type": "Point", "coordinates": [-70.1953, 42.0508]}},
{"type": "Feature", "id": "G3QjYNiUgC6b5yg4YeVY4Pbr9zA=", "properties": {"ref": "0080", "@spider": "stop_and_shop", "addr:full": "1277 Liberty Street", "addr:city": "Springfield", "addr:state": "MA", "addr:postcode": "01104", "addr:country": "US", "name": "Super Stop & Shop", "brand": "Stop and Shop"}, "geometry": {"type": "Point", "coordinates": [-72.5824, 42.139]}},
{"type": "Feature", "id": "i81rLbvmyMssUccWTNfHdVkVTMI=", "properties": {"ref": "0082", "@spider": "stop_and_shop", "addr:full": "341 Plymouth Street", "addr:city": "Halifax", "addr:state": "MA", "addr:postcode": "02338", "addr:country": "US", "name": "Super Stop & Shop", "brand": "Stop and Shop"}, "geometry": {"type": "Point", "coordinates": [-70.8478, 41.9937]}},
{"type": "Feature", "id": "hB1g9WjqTdZFMBLm5bNDKaHGLi8=", "properties": {"ref": "0877", "@spider": "stop_and_shop", "addr:full": "553 South Finley Avenue", "addr:city": "Basking Ridge", "addr:state": "NJ", "addr:postcode": "07920", "addr:country": "US", "name": "Stop & Shop", "brand": "Stop and Shop"}, "geometry": {"type": "Point", "coordinates": [-74.55, 40.684]}},
{"type": "Feature", "id": "dJ-A1M-mnRdHTBNS_zYHyN86IaY=", "properties": {"ref": "2585", "@spider": "stop_and_shop", "addr:full": "134-40 Springfield Blvd", "addr:city": "Springfield Gardens", "addr:state": "NY", "addr:postcode": "11413", "addr:country": "US", "name": "Stop & Shop", "brand": "Stop and Shop"}, "geometry": {"type": "Point", "coordinates": [-73.7516, 40.6828]}},
{"type": "Feature", "id": "KjE7SPOhi8qt7Z8HBomwrC6zVtE=", "properties": {"ref": "0670", "@spider": "stop_and_shop", "addr:full": "4531 Main Street", "addr:city": "Bridgeport", "addr:state": "CT", "addr:postcode": "06606", "addr:country": "US", "name": "Super Stop & Shop", "brand": "Stop and Shop"}, "geometry": {"type": "Point", "coordinates": [-73.2182, 41.222]}},
{"type": "Feature", "id": "cRfZPeBqhqyFprsqqHRBNdfAkXU=", "properties": {"ref": "0634", "@spider": "stop_and_shop", "addr:full": "150 New Park Avenue", "addr:city": "Hartford", "addr:state": "CT", "addr:postcode": "06106", "addr:country": "US", "name": "Super Stop & Shop", "brand": "Stop and Shop"}, "geometry": {"type": "Point", "coordinates": [-72.7087, 41.7521]}},
{"type": "Feature", "id": "gCO3rqVpsdCiBG1iHDMpp9hEx1Q=", "properties": {"ref": "0552", "@spider": "stop_and_shop", "addr:full": "2525 Hempstead Turnpike", "addr:city": "East Meadow", "addr:state": "NY", "addr:postcode": "11554", "addr:country": "US", "name": "Super Stop & Shop", "brand": "Stop and Shop"}, "geometry": {"type": "Point", "coordinates": [-73.5423, 40.7245]}},
{"type": "Feature", "id": "F7UCkcXLoYExZDYwoBs_6aZVTaE=", "properties": {"ref": "0548", "@spider": "stop_and_shop", "addr:full": "191 Montauk Highway", "addr:city": "Sayville", "addr:state": "NY", "addr:postcode": "11782", "addr:country": "US", "name": "Super Stop & Shop", "brand": "Stop and Shop"}, "geometry": {"type": "Point", "coordinates": [-73.086, 40.7341]}},
{"type": "Feature", "id": "STsn8iUn4VC-3Cd_OMVwb73HmUM=", "properties": {"ref": "0473", "@spider": "stop_and_shop", "addr:full": "333 Mariano Bishop Boulevard", "addr:city": "Fall River", "addr:state": "MA", "addr:postcode": "02720", "addr:country": "US", "name": "Super Stop & Shop", "brand": "Stop and Shop"}, "geometry": {"type": "Point", "coordinates": [-71.1634, 41.6742]}},
{"type": "Feature", "id": "zPr2r7I4nn44WwMu9Aa8GMVtiGk=", "properties": {"ref": "0619", "@spider": "stop_and_shop", "addr:full": "1095 Kennedy Road", "addr:city": "Windsor", "addr:state": "CT", "addr:postcode": "06095", "addr:country": "US", "name": "Super Stop & Shop", "brand": "Stop and Shop"}, "geometry": {"type": "Point", "coordinates": [-72.6521, 41.8935]}},
{"type": "Feature", "id": "Wo60j3Qla4PfhujkhgVABIFFpQQ=", "properties": {"ref": "0705", "@spider": "stop_and_shop", "addr:full": "446 Putnam Pike", "addr:city": "Greenville", "addr:state": "RI", "addr:postcode": "02828", "addr:country": "US", "name": "Super Stop & Shop", "brand": "Stop and Shop"}, "geometry": {"type": "Point", "coordinates": [-71.5343, 41.8702]}},
{"type": "Feature", "id": "bG3juEFY-fI-3M0qy3VgwM8FhK8=", "properties": {"ref": "0851", "@spider": "stop_and_shop", "addr:full": "665 American Legion Drive", "addr:city": "Teaneck", "addr:state": "NJ", "addr:postcode": "07666", "addr:country": "US", "name": "Super Stop & Shop", "brand": "Stop and Shop"}, "geometry": {"type": "Point", "coordinates": [-74.0212, 40.8874]}},
{"type": "Feature", "id": "bchI3A5x8RlWwvyH4dmF-TDtJAg=", "properties": {"ref": "0620", "@spider": "stop_and_shop", "addr:full": "100 Quality Street", "addr:city": "Trumbull", "addr:state": "CT", "addr:postcode": "06611", "addr:country": "US", "name": "Super Stop & Shop", "brand": "Stop and Shop"}, "geometry": {"type": "Point", "coordinates": [-73.2168, 41.256]}},
{"type": "Feature", "id": "Q71BqJ4cWx67LIIl08eQZHR4kX4=", "properties": {"ref": "0574", "@spider": "stop_and_shop", "addr:full": "158 Route 25A", "addr:city": "Setauket", "addr:state": "NY", "addr:postcode": "11733", "addr:country": "US", "name": "Stop & Shop", "brand": "Stop and Shop"}, "geometry": {"type": "Point", "coordinates": [-73.1093, 40.9397]}},
{"type": "Feature", "id": "EtuoDlq4ICIo4hPzop-cPAkgWls=", "properties": {"ref": "0412", "@spider": "stop_and_shop", "addr:full": "1620 Tremont Street", "addr:city": "Boston", "addr:state": "MA", "addr:postcode": "02120", "addr:country": "US", "name": "Stop & Shop", "brand": "Stop and Shop"}, "geometry": {"type": "Point", "coordinates": [-71.1038, 42.3338]}},
{"type": "Feature", "id": "8cznUXyqNf9Dwvc8LJ27Vr7eQbk=", "properties": {"ref": "0094", "@spider": "stop_and_shop", "addr:full": "935 Riverdale StreetRiverdale Shops", "addr:city": "West Springfield", "addr:state": "MA", "addr:postcode": "01089", "addr:country": "US", "name": "Super Stop & Shop", "brand": "Stop and Shop"}, "geometry": {"type": "Point", "coordinates": [-72.6263, 42.1297]}},
{"type": "Feature", "id": "2tqF8uvrcJjcebb87szkMWtjtyg=", "properties": {"ref": "0410", "@spider": "stop_and_shop", "addr:full": "6 Thatcher Road", "addr:city": "Gloucester", "addr:state": "MA", "addr:postcode": "01930", "addr:country": "US", "name": "Super Stop & Shop", "brand": "Stop and Shop"}, "geometry": {"type": "Point", "coordinates": [-70.6394, 42.6185]}},
{"type": "Feature", "id": "7B1DwbnIazULDT4kFcqUr_Pia2U=", "properties": {"ref": "2607", "@spider": "stop_and_shop", "addr:full": "91 Voluntown Road", "addr:city": "Pawcatuck", "addr:state": "CT", "addr:postcode": "06379", "addr:country": "US", "name": "Stop & Shop", "brand": "Stop and Shop"}, "geometry": {"type": "Point", "coordinates": [-71.8477, 41.4047]}},
{"type": "Feature", "id": "ocbcIlQWzQrhklTFne7h-JSiWfQ=", "properties": {"ref": "0091", "@spider": "stop_and_shop", "addr:full": "539-571 Boston Turnpike", "addr:city": "Shrewsbury", "addr:state": "MA", "addr:postcode": "01545", "addr:country": "US", "name": "Super Stop & Shop", "brand": "Stop and Shop"}, "geometry": {"type": "Point", "coordinates": [-71.7132, 42.2781]}},
{"type": "Feature", "id": "MiSSHmCi30mjyAuKa0TlBj6amYE=", "properties": {"ref": "0888", "@spider": "stop_and_shop", "addr:full": "1220 Hamburg Turnpike", "addr:city": "Wayne", "addr:state": "NJ", "addr:postcode": "07470", "addr:country": "US", "name": "Super Stop & Shop", "brand": "Stop and Shop"}, "geometry": {"type": "Point", "coordinates": [-74.2422, 40.9606]}},
{"type": "Feature", "id": "VniFJPOBltTf4K3FpBU8s8jia0I=", "properties": {"ref": "0488", "@spider": "stop_and_shop", "addr:full": "25 Walkers Brook Drive", "addr:city": "Reading", "addr:state": "MA", "addr:postcode": "01867", "addr:country": "US", "name": "Super Stop & Shop", "brand": "Stop and Shop"}, "geometry": {"type": "Point", "coordinates": [-71.0939, 42.5191]}},
{"type": "Feature", "id": "uMhTusTN8-wZ1-NpYW_P2IQcNpE=", "properties": {"ref": "0474", "@spider": "stop_and_shop", "addr:full": "2991 Cranberry Highway", "addr:city": "East Wareham", "addr:state": "MA", "addr:postcode": "02538", "addr:country": "US", "name": "Super Stop & Shop", "brand": "Stop and Shop"}, "geometry": {"type": "Point", "coordinates": [-70.6651, 41.7581]}},
{"type": "Feature", "id": "Aq96cnijjChtjpO1GdZio96rHyw=", "properties": {"ref": "0454", "@spider": "stop_and_shop", "addr:full": "415 Cooley Street", "addr:city": "Springfield", "addr:state": "MA", "addr:postcode": "01119", "addr:country": "US", "name": "Super Stop & Shop", "brand": "Stop and Shop"}, "geometry": {"type": "Point", "coordinates": [-72.4994, 42.0927]}},
{"type": "Feature", "id": "yd1_zKZcbDBzDVEf2OWtYGc6cjA=", "properties": {"ref": "0599", "@spider": "stop_and_shop", "addr:full": "610 White Plains Rd", "addr:city": "Tarrytown", "addr:state": "NY", "addr:postcode": "10591", "addr:country": "US", "name": "Stop & Shop", "brand": "Stop and Shop"}, "geometry": {"type": "Point", "coordinates": [-73.838, 41.0625]}},
{"type": "Feature", "id": "JoGs-9L2RonU420cCbDSU72RSR8=", "properties": {"ref": "2813", "@spider": "stop_and_shop", "addr:full": "150 West End Court", "addr:city": "Long Branch", "addr:state": "NJ", "addr:postcode": "07740", "addr:country": "US", "name": "Super Stop & Shop", "brand": "Stop and Shop"}, "geometry": {"type": "Point", "coordinates": [-73.9884, 40.2838]}},
{"type": "Feature", "id": "NnTCM4NYbhiF4bx0lZILGs_yGm8=", "properties": {"ref": "0487", "@spider": "stop_and_shop", "addr:full": "700 Middle Street", "addr:city": "E.Weymouth", "addr:state": "MA", "addr:postcode": "02189", "addr:country": "US", "name": "Super Stop & Shop", "brand": "Stop and Shop"}, "geometry": {"type": "Point", "coordinates": [-70.9442, 42.2003]}},
{"type": "Feature", "id": "dt7mH8VsjlrUzuDgTVeE9Hc8978=", "properties": {"ref": "0055", "@spider": "stop_and_shop", "addr:full": "932 North Montello Street", "addr:city": "Brockton", "addr:state": "MA", "addr:postcode": "02301", "addr:country": "US", "name": "Super Stop & Shop", "brand": "Stop and Shop"}, "geometry": {"type": "Point", "coordinates": [-71.0247, 42.1087]}},
{"type": "Feature", "id": "4xSeZ2abfC5VWdtw8Oj1ssIQzfU=", "properties": {"ref": "0629", "@spider": "stop_and_shop", "addr:full": "898 Bridgeport AvenueShelton Square", "addr:city": "Shelton", "addr:state": "CT", "addr:postcode": "06484", "addr:country": "US", "name": "Super Stop & Shop", "brand": "Stop and Shop"}, "geometry": {"type": "Point", "coordinates": [-73.1349, 41.2633]}},
{"type": "Feature", "id": "WVblq2G1elu8r-6HHfNAuvrwMAE=", "properties": {"ref": "0019", "@spider": "stop_and_shop", "addr:full": "290 Turnpike RoadSpeedway Shopping Center", "addr:city": "Westborough", "addr:state": "MA", "addr:postcode": "01581", "addr:country": "US", "name": "Super Stop & Shop", "brand": "Stop and Shop"}, "geometry": {"type": "Point", "coordinates": [-71.6448, 42.283]}},
{"type": "Feature", "id": "EzBVzFu0cXxXruQA_KEFkGYldV0=", "properties": {"ref": "0092", "@spider": "stop_and_shop", "addr:full": "757 Turnpike Street", "addr:city": "North Andover", "addr:state": "MA", "addr:postcode": "01845", "addr:country": "US", "name": "Super Stop & Shop", "brand": "Stop and Shop"}, "geometry": {"type": "Point", "coordinates": [-71.11, 42.6604]}},
{"type": "Feature", "id": "AHvlYOEX2DrmNaT04jykawWUUrQ=", "properties": {"ref": "0637", "@spider": "stop_and_shop", "addr:full": "2200 Bedford Street", "addr:city": "Stamford", "addr:state": "CT", "addr:postcode": "06905", "addr:country": "US", "name": "Super Stop & Shop", "brand": "Stop and Shop"}, "geometry": {"type": "Point", "coordinates": [-73.5447, 41.0685]}},
{"type": "Feature", "id": "JbzUh-heXJnJ59h3KOXDkenEars=", "properties": {"ref": "0498", "@spider": "stop_and_shop", "addr:full": "779 McGrath Highway", "addr:city": "Somerville", "addr:state": "MA", "addr:postcode": "02145", "addr:country": "US", "name": "Super Stop & Shop", "brand": "Stop and Shop"}, "geometry": {"type": "Point", "coordinates": [-71.0869, 42.3909]}},
{"type": "Feature", "id": "6l61nGXj1r4wd1b_QcryhNpcHu0=", "properties": {"ref": "2819", "@spider": "stop_and_shop", "addr:full": "400 Demarest Ave", "addr:city": "Closter", "addr:state": "NJ", "addr:postcode": "07624", "addr:country": "US", "name": "Stop & Shop", "brand": "Stop and Shop"}, "geometry": {"type": "Point", "coordinates": [-73.9631, 40.9688]}},
{"type": "Feature", "id": "NUxChhlwZWbQMDedG8jcSFUvd9U=", "properties": {"ref": "0015", "@spider": "stop_and_shop", "addr:full": "450 Paradise Road", "addr:city": "Swampscott", "addr:state": "MA", "addr:postcode": "01907", "addr:country": "US", "name": "Super Stop & Shop", "brand": "Stop and Shop"}, "geometry": {"type": "Point", "coordinates": [-70.9071, 42.4786]}},
{"type": "Feature", "id": "UZsfJi8RhsZqd9Gm6WlG0c8yeCw=", "properties": {"ref": "0677", "@spider": "stop_and_shop", "addr:full": "11 East Main Street", "addr:city": "North Canaan", "addr:state": "CT", "addr:postcode": "06018", "addr:country": "US", "name": "Super Stop & Shop", "brand": "Stop and Shop"}, "geometry": {"type": "Point", "coordinates": [-73.3225, 42.0239]}},
{"type": "Feature", "id": "7KxLHjbkwdGMPt3r9-__nDkM81I=", "properties": {"ref": "0811", "@spider": "stop_and_shop", "addr:full": "353 Route 37 East", "addr:city": "Toms River", "addr:state": "NJ", "addr:postcode": "08753", "addr:country": "US", "name": "Super Stop & Shop", "brand": "Stop and Shop"}, "geometry": {"type": "Point", "coordinates": [-74.1657, 39.9546]}},
{"type": "Feature", "id": "xaDS5CvixS1Oe28aUk9kfeBmma4=", "properties": {"ref": "0021", "@spider": "stop_and_shop", "addr:full": "1 Dan Fox DriveRoute 7", "addr:city": "Pittsfield", "addr:state": "MA", "addr:postcode": "01201", "addr:country": "US", "name": "Super Stop & Shop", "brand": "Stop and Shop"}, "geometry": {"type": "Point", "coordinates": [-73.2646, 42.4102]}},
{"type": "Feature", "id": "UNA_fFiIbozBYinhXub5uhKE5YE=", "properties": {"ref": "0039", "@spider": "stop_and_shop", "addr:full": "259 Main StreetRoute 28", "addr:city": "Stoneham", "addr:state": "MA", "addr:postcode": "02180", "addr:country": "US", "name": "Super Stop & Shop", "brand": "Stop and Shop"}, "geometry": {"type": "Point", "coordinates": [-71.1005, 42.4765]}},
{"type": "Feature", "id": "T-tFWp8BzpCLBXRYboyPMbkJ1lw=", "properties": {"ref": "0444", "@spider": "stop_and_shop", "addr:full": "475 Bedford Street", "addr:city": "Whitman", "addr:state": "MA", "addr:postcode": "02382", "addr:country": "US", "name": "Super Stop & Shop", "brand": "Stop and Shop"}, "geometry": {"type": "Point", "coordinates": [-70.9474, 42.074]}},
{"type": "Feature", "id": "BdDX-oZmJLdWLfrfKJziZsm3WCU=", "properties": {"ref": "2513", "@spider": "stop_and_shop", "addr:full": "4343 Amboy Road", "addr:city": "Staten Island", "addr:state": "NY", "addr:postcode": "10312", "addr:country": "US", "name": "Stop & Shop", "brand": "Stop and Shop"}, "geometry": {"type": "Point", "coordinates": [-74.1611, 40.5456]}},
{"type": "Feature", "id": "uStf5V30OaLvymnlaeXMkXa2Ac0=", "properties": {"ref": "0004", "@spider": "stop_and_shop", "addr:full": "950 American Legion Highway", "addr:city": "Roslindale", "addr:state": "MA", "addr:postcode": "02131", "addr:country": "US", "name": "Stop & Shop", "brand": "Stop and Shop"}, "geometry": {"type": "Point", "coordinates": [-71.1157, 42.2763]}},
{"type": "Feature", "id": "2vmP2Hf6Xy-udas3etBE9Np_Y-0=", "properties": {"ref": "2582", "@spider": "stop_and_shop", "addr:full": "85 East Park Ave", "addr:city": "Long Beach", "addr:state": "NY", "addr:postcode": "11561", "addr:country": "US", "name": "Stop & Shop", "brand": "Stop and Shop"}, "geometry": {"type": "Point", "coordinates": [-73.6626, 40.5894]}},
{"type": "Feature", "id": "ZoFakN6OxLzxKrjfEUgPusnnXnU=", "properties": {"ref": "0556", "@spider": "stop_and_shop", "addr:full": "132 Fulton Avenue", "addr:city": "Hempstead", "addr:state": "NY", "addr:postcode": "11550", "addr:country": "US", "name": "Super Stop & Shop", "brand": "Stop and Shop"}, "geometry": {"type": "Point", "coordinates": [-73.6322, 40.7065]}},
{"type": "Feature", "id": "xsErcON_qZTeKRSWOolXOYyyOLA=", "properties": {"ref": "0421", "@spider": "stop_and_shop", "addr:full": "815 Grand Army Highway", "addr:city": "Somerset", "addr:state": "MA", "addr:postcode": "02725", "addr:country": "US", "name": "Super Stop & Shop", "brand": "Stop and Shop"}, "geometry": {"type": "Point", "coordinates": [-71.1696, 41.7306]}},
{"type": "Feature", "id": "Y4dW3XPyyluxQ5NxEGTK_MNJbzY=", "properties": {"ref": "2406", "@spider": "stop_and_shop", "addr:full": "265 Main Street", "addr:city": "North Reading", "addr:state": "MA", "addr:postcode": "01864", "addr:country": "US", "name": "Super Stop & Shop", "brand": "Stop and Shop"}, "geometry": {"type": "Point", "coordinates": [-71.1087, 42.5751]}},
{"type": "Feature", "id": "hNhjTUZjN7skvjwdnPgfYfFdpPQ=", "properties": {"ref": "2575", "@spider": "stop_and_shop", "addr:full": "67 Newtown Lane", "addr:city": "East Hampton", "addr:state": "NY", "addr:postcode": "11937", "addr:country": "US", "name": "Stop & Shop", "brand": "Stop and Shop"}, "geometry": {"type": "Point", "coordinates": [-72.1878, 40.9638]}},
{"type": "Feature", "id": "7ZHZteDJbLtzzO6RQUZyTTvRvgI=", "properties": {"ref": "0801", "@spider": "stop_and_shop", "addr:full": "100 State Route 36", "addr:city": "Keyport", "addr:state": "NJ", "addr:postcode": "07735", "addr:country": "US", "name": "Super Stop & Shop", "brand": "Stop and Shop"}, "geometry": {"type": "Point", "coordinates": [-74.1985, 40.4251]}},
{"type": "Feature", "id": "_hwup3_Bl2AoBU6Ko0yEHFmtB2E=", "properties": {"ref": "0887", "@spider": "stop_and_shop", "addr:full": "850 State Route 35", "addr:city": "Middletown", "addr:state": "NJ", "addr:postcode": "07748", "addr:country": "US", "name": "Super Stop & Shop", "brand": "Stop and Shop"}, "geometry": {"type": "Point", "coordinates": [-74.0996, 40.3913]}},
{"type": "Feature", "id": "gq9B4bxpJkjUJ-r1mrNhTX7uzhQ=", "properties": {"ref": "2616", "@spider": "stop_and_shop", "addr:full": "55 Village Green Drive", "addr:city": "Litchfield", "addr:state": "CT", "addr:postcode": "06759", "addr:country": "US", "name": "Stop & Shop", "brand": "Stop and Shop"}, "geometry": {"type": "Point", "coordinates": [-73.2013, 41.7454]}},
{"type": "Feature", "id": "aPspsukmHCBoiK0OmVClyI6P5fE=", "properties": {"ref": "0607", "@spider": "stop_and_shop", "addr:full": "498 Bushy Hill RoadSimsbury Commons", "addr:city": "Simsbury", "addr:state": "CT", "addr:postcode": "06070", "addr:country": "US", "name": "Super Stop & Shop", "brand": "Stop and Shop"}, "geometry": {"type": "Point", "coordinates": [-72.862, 41.8216]}},
{"type": "Feature", "id": "qpmgUaZicepaLW9Y8ZJeyM87lZE=", "properties": {"ref": "0087", "@spider": "stop_and_shop", "addr:full": "39 Nathan Ellis Hwy", "addr:city": "Mashpee", "addr:state": "MA", "addr:postcode": "02649", "addr:country": "US", "name": "Super Stop & Shop", "brand": "Stop and Shop"}, "geometry": {"type": "Point", "coordinates": [-70.4897, 41.6192]}},
{"type": "Feature", "id": "NqXwIYKUo12dXZL6TJtQSqX7MYY=", "properties": {"ref": "0529", "@spider": "stop_and_shop", "addr:full": "2425 Palmer Avenue", "addr:city": "New Rochelle", "addr:state": "NY", "addr:postcode": "10801", "addr:country": "US", "name": "Super Stop & Shop", "brand": "Stop and Shop"}, "geometry": {"type": "Point", "coordinates": [-73.7734, 40.9209]}},
{"type": "Feature", "id": "PwJqUdQ47cs9sj-6c2FBVKcB-pA=", "properties": {"ref": "0504", "@spider": "stop_and_shop", "addr:full": "691 Co Op City Boulevard", "addr:city": "Bronx", "addr:state": "NY", "addr:postcode": "10475", "addr:country": "US", "name": "Super Stop & Shop", "brand": "Stop and Shop"}, "geometry": {"type": "Point", "coordinates": [-73.8231, 40.8799]}},
{"type": "Feature", "id": "iz5Imfw7tPYRNlp0MRDG57wLWlw=", "properties": {"ref": "0545", "@spider": "stop_and_shop", "addr:full": "55 Motor Avenue", "addr:city": "Farmingdale", "addr:state": "NY", "addr:postcode": "11735", "addr:country": "US", "name": "Stop & Shop", "brand": "Stop and Shop"}, "geometry": {"type": "Point", "coordinates": [-73.4447, 40.7255]}},
{"type": "Feature", "id": "KLf6Z5x1Fbftlc3TPUlYJW96U9w=", "properties": {"ref": "0679", "@spider": "stop_and_shop", "addr:full": "240 Chase Avenue", "addr:city": "Waterbury", "addr:state": "CT", "addr:postcode": "06704", "addr:country": "US", "name": "Super Stop & Shop", "brand": "Stop and Shop"}, "geometry": {"type": "Point", "coordinates": [-73.0333, 41.5809]}},
{"type": "Feature", "id": "JToQ4-9VO0y5BdSfO-6L91-daoE=", "properties": {"ref": "0800", "@spider": "stop_and_shop", "addr:full": "8 Franklin Street", "addr:city": "Bloomfield", "addr:state": "NJ", "addr:postcode": "07003", "addr:country": "US", "name": "Super Stop & Shop Center", "brand": "Stop and Shop"}, "geometry": {"type": "Point", "coordinates": [-74.1844, 40.7828]}},
{"type": "Feature", "id": "nGU7DiUoRQoVtF0YukRvnvwSots=", "properties": {"ref": "0494", "@spider": "stop_and_shop", "addr:full": "141 Main Street", "addr:city": "Foxboro", "addr:state": "MA", "addr:postcode": "02035", "addr:country": "US", "name": "Super Stop & Shop", "brand": "Stop and Shop"}, "geometry": {"type": "Point", "coordinates": [-71.2617, 42.0748]}},
{"type": "Feature", "id": "oBG0jb-Dz4K_iIHZ-9zjJT3IZCw=", "properties": {"ref": "0007", "@spider": "stop_and_shop", "addr:full": "377 Chauncy Street", "addr:city": "Mansfield", "addr:state": "MA", "addr:postcode": "02048", "addr:country": "US", "name": "Super Stop & Shop", "brand": "Stop and Shop"}, "geometry": {"type": "Point", "coordinates": [-71.2361, 42.0325]}},
{"type": "Feature", "id": "NMby0pMb2uc0883iuogfbmlsSn0=", "properties": {"ref": "2588", "@spider": "stop_and_shop", "addr:full": "4055 Merrick Road", "addr:city": "Seaford", "addr:state": "NY", "addr:postcode": "11783", "addr:country": "US", "name": "Stop & Shop", "brand": "Stop and Shop"}, "geometry": {"type": "Point", "coordinates": [-73.4831, 40.6672]}},
{"type": "Feature", "id": "i28NiBZ87JbZnS1L74QGB_T79Pk=", "properties": {"ref": "0036", "@spider": "stop_and_shop", "addr:full": "672 Memorial DriveRoute 33", "addr:city": "Chicopee", "addr:state": "MA", "addr:postcode": "01021", "addr:country": "US", "name": "Super Stop & Shop", "brand": "Stop and Shop"}, "geometry": {"type": "Point", "coordinates": [-72.5766, 42.1759]}},
{"type": "Feature", "id": "6-P2oycALe3ICYpCrFAnpglc2Nw=", "properties": {"ref": "0422", "@spider": "stop_and_shop", "addr:full": "225 Upper Main Street", "addr:city": "Edgartown", "addr:state": "MA", "addr:postcode": "02539", "addr:country": "US", "name": "Stop & Shop", "brand": "Stop and Shop"}, "geometry": {"type": "Point", "coordinates": [-70.5247, 41.3923]}},
{"type": "Feature", "id": "_7Ylo84N8OiDkkJdm1IXrkR8EPU=", "properties": {"ref": "0398", "@spider": "stop_and_shop", "addr:full": "245 Vineyard Haven Road", "addr:city": "Edgartown", "addr:state": "MA", "addr:postcode": "02539", "addr:country": "US", "name": "Stop & Shop Pharmacy", "brand": "Stop and Shop"}, "geometry": {"type": "Point", "coordinates": [-70.53, 41.3955]}},
{"type": "Feature", "id": "MtvKPUnO9HDFBW2a5GzPSt2udFI=", "properties": {"ref": "0642", "@spider": "stop_and_shop", "addr:full": "747 Pine Street", "addr:city": "Forrestville", "addr:state": "CT", "addr:postcode": "06010", "addr:country": "US", "name": "Super Stop & Shop", "brand": "Stop and Shop"}, "geometry": {"type": "Point", "coordinates": [-72.8953, 41.6689]}},
{"type": "Feature", "id": "P14f5qrH4omZjAXepSZxS4znfS8=", "properties": {"ref": "0739", "@spider": "stop_and_shop", "addr:full": "575 Greenwich Avenue", "addr:city": "Warwick", "addr:state": "RI", "addr:postcode": "02888", "addr:country": "US", "name": "Super Stop & Shop", "brand": "Stop and Shop"}, "geometry": {"type": "Point", "coordinates": [-71.4663, 41.7198]}},
{"type": "Feature", "id": "3J6pfzV-Vid0JUTSFwsEuUu8x2s=", "properties": {"ref": "2805", "@spider": "stop_and_shop", "addr:full": "133 Main Street", "addr:city": "Madison", "addr:state": "NJ", "addr:postcode": "07940", "addr:country": "US", "name": "Super Stop & Shop", "brand": "Stop and Shop"}, "geometry": {"type": "Point", "coordinates": [-74.4114, 40.7566]}},
{"type": "Feature", "id": "tu5v2LRA05EYG4RgAYbJQKJWJaQ=", "properties": {"ref": "0802", "@spider": "stop_and_shop", "addr:full": "3333 Route 27", "addr:city": "Franklin Park", "addr:state": "NJ", "addr:postcode": "08823", "addr:country": "US", "name": "Super Stop & Shop", "brand": "Stop and Shop"}, "geometry": {"type": "Point", "coordinates": [-74.5578, 40.4298]}},
{"type": "Feature", "id": "_CaIVoUliA2cbbymmv2sKIp_ODA=", "properties": {"ref": "2800", "@spider": "stop_and_shop", "addr:full": "1221 Route 27Veronica Avenue", "addr:city": "Franklin Township", "addr:state": "NJ", "addr:postcode": "08873", "addr:country": "US", "name": "Stop & Shop", "brand": "Stop and Shop"}, "geometry": {"type": "Point", "coordinates": [-74.4939, 40.4741]}},
{"type": "Feature", "id": "1by8J8aPuKtDXNnDCMfvzGBWFQc=", "properties": {"ref": "0867", "@spider": "stop_and_shop", "addr:full": "424 Raritan Avenue", "addr:city": "Highland Park", "addr:state": "NJ", "addr:postcode": "08904", "addr:country": "US", "name": "Stop & Shop", "brand": "Stop and Shop"}, "geometry": {"type": "Point", "coordinates": [-74.4251, 40.5001]}},
{"type": "Feature", "id": "7o8X1hzWzskHFlSo7DQs4ReTb7o=", "properties": {"ref": "0714", "@spider": "stop_and_shop", "addr:full": "204 Garfield Avenue", "addr:city": "Cranston", "addr:state": "RI", "addr:postcode": "02901", "addr:country": "US", "name": "Super Stop & Shop", "brand": "Stop and Shop"}, "geometry": {"type": "Point", "coordinates": [-71.442, 41.7966]}},
{"type": "Feature", "id": "kg2inu_SR7lA7yncgAtXcbFZQYc=", "properties": {"ref": "0070", "@spider": "stop_and_shop", "addr:full": "1001 King's Highway", "addr:city": "New Bedford", "addr:state": "MA", "addr:postcode": "02745", "addr:country": "US", "name": "Super Stop & Shop", "brand": "Stop and Shop"}, "geometry": {"type": "Point", "coordinates": [-70.9423, 41.6776]}},
{"type": "Feature", "id": "zZ993jgl8ycTaLNAEvwaTzTAQvE=", "properties": {"ref": "0490", "@spider": "stop_and_shop", "addr:full": "206 East Washington Street", "addr:city": "North Attleboro", "addr:state": "MA", "addr:postcode": "02763", "addr:country": "US", "name": "Super Stop & Shop", "brand": "Stop and Shop"}, "geometry": {"type": "Point", "coordinates": [-71.3321, 41.9711]}},
{"type": "Feature", "id": "x-LSWb0Nk2pl0f_3KXAnv_QNWWQ=", "properties": {"ref": "0558", "@spider": "stop_and_shop", "addr:full": "454 Fort Salonga Road", "addr:city": "Northport", "addr:state": "NY", "addr:postcode": "11768", "addr:country": "US", "name": "Super Stop & Shop", "brand": "Stop and Shop"}, "geometry": {"type": "Point", "coordinates": [-73.3387, 40.8927]}},
{"type": "Feature", "id": "F6Ij5XFVjey2gERDKJWZV_HbHlc=", "properties": {"ref": "2611", "@spider": "stop_and_shop", "addr:full": "11 E. High Street", "addr:city": "East Hampton", "addr:state": "CT", "addr:postcode": "06424", "addr:country": "US", "name": "Stop & Shop", "brand": "Stop and Shop"}, "geometry": {"type": "Point", "coordinates": [-72.5036, 41.5832]}},
{"type": "Feature", "id": "-bQmfKmeDytM5apZaOaM20Uk7QE=", "properties": {"ref": "0650", "@spider": "stop_and_shop", "addr:full": "1160 Kings Highway Cut-off", "addr:city": "Fairfield", "addr:state": "CT", "addr:postcode": "06824", "addr:country": "US", "name": "Super Stop & Shop", "brand": "Stop and Shop"}, "geometry": {"type": "Point", "coordinates": [-73.2436, 41.1519]}},
{"type": "Feature", "id": "v5yHvrRiZELC6nF01NEjZoEUKlI=", "properties": {"ref": "0807", "@spider": "stop_and_shop", "addr:full": "1129 Rte. 34 North", "addr:city": "Aberdeen", "addr:state": "NJ", "addr:postcode": "07747", "addr:country": "US", "name": "Super Stop & Shop", "brand": "Stop and Shop"}, "geometry": {"type": "Point", "coordinates": [-74.2163, 40.4066]}},
{"type": "Feature", "id": "YAAJlVJZHAVp6oQ9KZ7q33ENsOQ=", "properties": {"ref": "0513", "@spider": "stop_and_shop", "addr:full": "80 Birdsall Road", "addr:city": "Somers", "addr:state": "NY", "addr:postcode": "10589", "addr:country": "US", "name": "Super Stop & Shop", "brand": "Stop and Shop"}, "geometry": {"type": "Point", "coordinates": [-73.7579, 41.3424]}},
{"type": "Feature", "id": "frNHyT5OpZJbSNe-4rdksvnYeBQ=", "properties": {"ref": "0820", "@spider": "stop_and_shop", "addr:full": "175 Franklin Avenue", "addr:city": "Ridgewood", "addr:state": "NJ", "addr:postcode": "07450", "addr:country": "US", "name": "Super Stop & Shop", "brand": "Stop and Shop"}, "geometry": {"type": "Point", "coordinates": [-74.1165, 40.9807]}},
{"type": "Feature", "id": "PE2dVonrWY2EZfiQujFRI4h1_oU=", "properties": {"ref": "2614", "@spider": "stop_and_shop", "addr:full": "50 Windsorville Road", "addr:city": "Rockville", "addr:state": "CT", "addr:postcode": "06066", "addr:country": "US", "name": "Stop & Shop", "brand": "Stop and Shop"}, "geometry": {"type": "Point", "coordinates": [-72.4808, 41.8652]}},
{"type": "Feature", "id": "dNI5w0iYnX7l2E10rl4TRr58zXM=", "properties": {"ref": "0542", "@spider": "stop_and_shop", "addr:full": "177 Forest Avenue", "addr:city": "Glen Cove", "addr:state": "NY", "addr:postcode": "11542", "addr:country": "US", "name": "Super Stop & Shop", "brand": "Stop and Shop"}, "geometry": {"type": "Point", "coordinates": [-73.6194, 40.874]}},
{"type": "Feature", "id": "c641oHNrpsU6GOFCODOxtoZvpwQ=", "properties": {"ref": "0001", "@spider": "stop_and_shop", "addr:full": "155 Harvard Street", "addr:city": "Brookline", "addr:state": "MA", "addr:postcode": "02446", "addr:country": "US", "name": "Stop & Shop", "brand": "Stop and Shop"}, "geometry": {"type": "Point", "coordinates": [-71.121, 42.3381]}},
{"type": "Feature", "id": "KyKoDppL8Z2rTyXo8Esg8rezZI4=", "properties": {"ref": "2578", "@spider": "stop_and_shop", "addr:full": "702 Hickville Road", "addr:city": "Massapequa", "addr:state": "NY", "addr:postcode": "11758", "addr:country": "US", "name": "Stop & Shop", "brand": "Stop and Shop"},