{"type":"FeatureCollection","features":[{"type": "Feature", "id": "LSjyfZq6iPLpcIwshixP2qOymqM=", "properties": {"ref": "6644", "@spider": "upsstore", "addr:full": "187 Pavilion Pkwy", "addr:city": "Newport", "addr:state": "KY", "addr:postcode": "41071", "addr:country": "US", "name": "Newport", "phone": "(859) 261-5777", "website": "https://locations.theupsstore.com/ky/newport/187-pavilion-pkwy", "brand": "UPS Store"}, "geometry": {"type": "Point", "coordinates": [-84.47634954752175, 39.086529571621355]}},
{"type": "Feature", "id": "19OJBAE7yuIBgu1Ctk4UDW7XHx8=", "properties": {"ref": "3343", "@spider": "upsstore", "addr:full": "1619 Bypass Rd", "addr:city": "Winchester", "addr:state": "KY", "addr:postcode": "40391", "addr:country": "US", "name": "Winchester", "phone": "(859) 745-4422", "website": "https://locations.theupsstore.com/ky/winchester/1619-bypass-rd", "brand": "UPS Store"}, "geometry": {"type": "Point", "coordinates": [-84.2160746, 37.9949483]}},
{"type": "Feature", "id": "ve277trtJR78AuD7zW_9LMWE5-A=", "properties": {"ref": "5598", "@spider": "upsstore", "addr:full": "2562 Walton Blvd", "addr:city": "Warsaw", "addr:state": "IN", "addr:postcode": "46582", "addr:country": "US", "name": "Warsaw", "phone": "(574) 269-7393", "website": "https://locations.theupsstore.com/in/warsaw/2562-walton-blvd", "brand": "UPS Store"}, "geometry": {"type": "Point", "coordinates": [-85.85364148020744, 41.27236880114817]}},
{"type": "Feature", "id": "DiSdVflJkB006JlZj_neloKhvMg=", "properties": {"ref": "5204", "@spider": "upsstore", "addr:full": "720 S Eastwood Dr", "addr:city": "Woodstock", "addr:state": "IL", "addr:postcode": "60098", "addr:country": "US", "name": "Woodstock", "phone": "(815) 206-3602", "website": "https://locations.theupsstore.com/il/woodstock/720-s-eastwood-dr", "brand": "UPS Store"}, "geometry": {"type": "Point", "coordinates": [-88.4322098046664, 42.3085005160058]}},
{"type": "Feature", "id": "bRkrOeJcNtqMBhsS60fxQ0Gh7Bo=", "properties": {"ref": "3386", "@spider": "upsstore", "addr:full": "148 Blue Lakes Blvd N", "addr:city": "Twin Falls", "addr:state": "ID", "addr:postcode": "83301", "addr:country": "US", "name": "Twin Falls", "phone": "(208) 736-3800", "website": "https://locations.theupsstore.com/id/twin-falls/148-blue-lakes-blvd-n", "brand": "UPS Store"}, "geometry": {"type": "Point", "coordinates": [-114.45966750383377, 42.564035428396465]}},
{"type": "Feature", "id": "dC2Jrhf3kVcEcno4HzOxFx25u3Q=", "properties": {"ref": "1829", "@spider": "upsstore", "addr:full": "217 Cedar St", "addr:city": "Sandpoint", "addr:state": "ID", "addr:postcode": "83864", "addr:country": "US", "name": "Sandpoint", "phone": "(208) 263-0261", "website": "https://locations.theupsstore.com/id/sandpoint/217-cedar-st", "brand": "UPS Store"}, "geometry": {"type": "Point", "coordinates": [-116.54986390474727, 48.27591044652249]}},
{"type": "Feature", "id": "TLQiOaTkfYeIHkqjVJHFTaD29ek=", "properties": {"ref": "6464", "@spider": "upsstore", "addr:full": "2061 Experiment Station Rd", "addr:city": "Watkinsville", "addr:state": "GA", "addr:postcode": "30677", "addr:country": "US", "name": "Butler's Crossing Shopping Center", "phone": "(706) 769-0300", "website": "https://locations.theupsstore.com/ga/watkinsville/2061-experiment-station-rd", "brand": "UPS Store"}, "geometry": {"type": "Point", "coordinates": [-83.4416185, 33.8713134]}},
{"type": "Feature", "id": "NTXK5KQdiRHvx013GMxSe1GaGPY=", "properties": {"ref": "6173", "@spider": "upsstore", "addr:full": "5447 Haines Rd N", "addr:city": "St Petersburg", "addr:state": "FL", "addr:postcode": "33714", "addr:country": "US", "name": "St Petersburg", "phone": "(727) 528-7777", "website": "https://locations.theupsstore.com/fl/st-petersburg/5447-haines-rd-n", "brand": "UPS Store"}, "geometry": {"type": "Point", "coordinates": [-82.6691306149587, 27.82188892261473]}},
{"type": "Feature", "id": "q9H9U7hadf2x33tr2DoPiOn2tb4=", "properties": {"ref": "6360", "@spider": "upsstore", "addr:full": "176 Amity Rd", "addr:city": "Woodbridge", "addr:state": "CT", "addr:postcode": "06525", "addr:country": "US", "name": "Woodbridge", "phone": "(203) 553-9222", "website": "https://locations.theupsstore.com/ct/woodbridge/176-amity-rd", "brand": "UPS Store"}, "geometry": {"type": "Point", "coordinates": [-72.98106765889548, 41.338865138464676]}},
{"type": "Feature", "id": "YASG8Qt0fWLsvIjnas-XM0WoGtY=", "properties": {"ref": "1374", "@spider": "upsstore", "addr:full": "1067 E US Hwy 24", "addr:city": "Woodland Park", "addr:state": "CO", "addr:postcode": "80863", "addr:country": "US", "name": "Woodland Park", "phone": "(719) 687-3023", "website": "https://locations.theupsstore.com/co/woodland-park/1067-e-us-hwy-24", "brand": "UPS Store"}, "geometry": {"type": "Point", "coordinates": [-105.0468404, 38.9833911]}},
{"type": "Feature", "id": "wXc9BHvuEkpwgVy99N_d6lDW9co=", "properties": {"ref": "7002", "@spider": "upsstore", "addr:full": "1751 Colorado Blvd", "addr:city": "Eagle Rock", "addr:state": "CA", "addr:postcode": "90041", "addr:country": "US", "name": "Eagle Rock", "phone": "(323) 739-0337", "website": "https://locations.theupsstore.com/ca/eagle-rock/1751-colorado-blvd", "brand": "UPS Store"}, "geometry": {"type": "Point", "coordinates": [-118.20552051839832, 34.139740173675285]}},
{"type": "Feature", "id": "Rs6KDT7F1WlmQZVdNoBeRHiDv1w=", "properties": {"ref": "6799", "@spider": "upsstore", "addr:full": "12090 N Thornydale Rd Ste 110", "addr:city": "Marana", "addr:state": "AZ", "addr:postcode": "85658", "addr:country": "US", "name": "Fry's Marketplace Tangerine Crossing", "phone": "(520) 744-1800", "website": "https://locations.theupsstore.com/az/marana/12090-n-thornydale-rd", "brand": "UPS Store"}, "geometry": {"type": "Point", "coordinates": [-111.0460426, 32.4263724]}},
{"type": "Feature", "id": "Z4WKVlA2TWyoUTjytX_-T2trovc=", "properties": {"ref": "2752", "@spider": "upsstore", "addr:full": "35555 Spur Hwy", "addr:city": "Soldotna", "addr:state": "AK", "addr:postcode": "99669", "addr:country": "US", "name": "Soldotna", "phone": "(907) 262-8774", "website": "https://locations.theupsstore.com/ak/soldotna/35555-spur-hwy", "brand": "UPS Store"}, "geometry": {"type": "Point", "coordinates": [-151.07113927602768, 60.49569502583389]}},
{"type": "Feature", "id": "RDdCKPmRVK6QqzdUQ-8GpXxy8G0=", "properties": {"ref": "3579", "@spider": "upsstore", "addr:full": "3465 N Pines Way Ste 104", "addr:city": "Wilson", "addr:state": "WY", "addr:postcode": "83014", "addr:country": "US", "name": "The Westbank Shopping Center", "phone": "(307) 733-7110", "website": "https://locations.theupsstore.com/wy/wilson/3465-n-pines-way", "brand": "UPS Store"}, "geometry": {"type": "Point", "coordinates": [-110.8427463, 43.530222]}},
{"type": "Feature", "id": "b22dQ1EjZbd1Fq19ctXpGjB0y6E=", "properties": {"ref": "3605", "@spider": "upsstore", "addr:full": "51 Coffeen Ave #101", "addr:city": "Sheridan", "addr:state": "WY", "addr:postcode": "82801", "addr:country": "US", "name": "Sheridan", "phone": "(307) 673-1123", "website": "https://locations.theupsstore.com/wy/sheridan/51-coffeen-ave", "brand": "UPS Store"}, "geometry": {"type": "Point", "coordinates": [-106.95414699140167, 44.795216874260724]}},
{"type": "Feature", "id": "dqLOH0kMt4Bb30FmOJVw9hiKu_c=", "properties": {"ref": "3042", "@spider": "upsstore", "addr:full": "1993 Dewar Dr Ste 1", "addr:city": "Rock Springs", "addr:state": "WY", "addr:postcode": "82901", "addr:country": "US", "name": "Rock Springs", "phone": "(307) 382-8228", "website": "https://locations.theupsstore.com/wy/rock-springs/1993-dewar-dr", "brand": "UPS Store"}, "geometry": {"type": "Point", "coordinates": [-109.248389, 41.5745997]}},
{"type": "Feature", "id": "GZTryNK5nz_r-hfHq7gEEmw4h9E=", "properties": {"ref": "1315", "@spider": "upsstore", "addr:full": "2250 N Rock Rd Ste 118", "addr:city": "Wichita", "addr:state": "KS", "addr:postcode": "67226", "addr:country": "US", "name": "Tallgrass Shopping Center", "phone": "(316) 686-6190", "website": "https://locations.theupsstore.com/ks/wichita/2250-n-rock-rd", "brand": "UPS Store"}, "geometry": {"type": "Point", "coordinates": [-97.24326387047773, 37.724890429740995]}},
{"type": "Feature", "id": "EFsFDkvIULQGwTL3gM49CWW5RKw=", "properties": {"ref": "6821", "@spider": "upsstore", "addr:full": "7130 W Maple St Ste 230", "addr:city": "Wichita", "addr:state": "KS", "addr:postcode": "67209", "addr:country": "US", "name": "Wichita", "phone": "(316) 351-7236", "website": "https://locations.theupsstore.com/ks/wichita/7130-w-maple-st", "brand": "UPS Store"}, "geometry": {"type": "Point", "coordinates": [-97.424816, 37.6806351]}},
{"type": "Feature", "id": "4Y8Zi4UqU2PngLTf6_PHPQblAeM=", "properties": {"ref": "0952", "@spider": "upsstore", "addr:full": "6505 E Central Ave", "addr:city": "Wichita", "addr:state": "KS", "addr:postcode": "67206", "addr:country": "US", "name": "Wichita", "phone": "(316) 685-1717", "website": "https://locations.theupsstore.com/ks/wichita/6505-e-central-ave", "brand": "UPS Store"}, "geometry": {"type": "Point", "coordinates": [-97.2610441, 37.6934045]}},
{"type": "Feature", "id": "Pt36sqWQMhHnVH4pGDRiHlo8GhM=", "properties": {"ref": "2956", "@spider": "upsstore", "addr:full": "8918 W 21st St N Ste 200", "addr:city": "Wichita", "addr:state": "KS", "addr:postcode": "67205", "addr:country": "US", "name": "Wichita", "phone": "(316) 729-4646", "website": "https://locations.theupsstore.com/ks/wichita/8918-w-21st-st-n", "brand": "UPS Store"}, "geometry": {"type": "Point", "coordinates": [-97.44559712880135, 37.72358597241393]}},
{"type": "Feature", "id": "j_zn0ucLbHiA_YX7_N_sGARuTus=", "properties": {"ref": "3228", "@spider": "upsstore", "addr:full": "2295 Towne Lake Pkwy Ste 116", "addr:city": "Woodstock", "addr:state": "GA", "addr:postcode": "30189", "addr:country": "US", "name": "Woodstock", "phone": "(770) 591-1600", "website": "https://locations.theupsstore.com/ga/woodstock/2295-towne-lake-pkwy", "brand": "UPS Store"}, "geometry": {"type": "Point", "coordinates": [-84.55605688693595, 34.11221361140417]}},
{"type": "Feature", "id": "X1aVHfySJeOIc8WHw-v-Ty5qCs4=", "properties": {"ref": "2524", "@spider": "upsstore", "addr:full": "1025 Rose Creek Dr Ste 620", "addr:city": "Woodstock", "addr:state": "GA", "addr:postcode": "30189", "addr:country": "US", "name": "Woodstock", "phone": "(770) 592-9244", "website": "https://locations.theupsstore.com/ga/woodstock/1025-rose-creek-dr", "brand": "UPS Store"}, "geometry": {"type": "Point", "coordinates": [-84.573284, 34.12728]}},
{"type": "Feature", "id": "5qeciSFgi2D7gJgNTOyf7jkI52A=", "properties": {"ref": "3513", "@spider": "upsstore", "addr:full": "12195 Highway 92 Ste 114", "addr:city": "Woodstock", "addr:state": "GA", "addr:postcode": "30188", "addr:country": "US", "name": "Canyon Run Shopping Center", "phone": "(770) 592-4644", "website": "https://locations.theupsstore.com/ga/woodstock/12195-highway-92", "brand": "UPS Store"}, "geometry": {"type": "Point", "coordinates": [-84.4831729, 34.089357]}},
{"type": "Feature", "id": "qyrtybDVwddsPI-K5gB95GPp6I8=", "properties": {"ref": "7466", "@spider": "upsstore", "addr:full": "810 W Douglas Ave Ste C", "addr:city": "Wichita", "addr:state": "KS", "addr:postcode": "67203", "addr:country": "US", "name": "Wichita", "website": "https://locations.theupsstore.com/ks/wichita/810-w-douglas-ave", "brand": "UPS Store"}, "geometry": {"type": "Point", "coordinates": [-97.34984572754766, 37.68430520059621]}},
{"type": "Feature", "id": "5k_3426qscmYhO6XMA23UGLeXW8=", "properties": {"ref": "6446", "@spider": "upsstore", "addr:full": "151 E 1st", "addr:city": "Powell", "addr:state": "WY", "addr:postcode": "82435", "addr:country": "US", "name": "Powell", "phone": "(307) 764-4175", "website": "https://locations.theupsstore.com/wy/powell/151-e-1st", "brand": "UPS Store"}, "geometry": {"type": "Point", "coordinates": [-108.75794627116397, 44.75264009522142]}},
{"type": "Feature", "id": "WWVou5xT2pftDGq9D13lRzbJYls=", "properties": {"ref": "6059", "@spider": "upsstore", "addr:full": "514 Grand Ave", "addr:city": "Laramie", "addr:state": "WY", "addr:postcode": "82070", "addr:country": "US", "name": "Laramie", "phone": "(307) 742-2223", "website": "https://locations.theupsstore.com/wy/laramie/514-grand-ave", "brand": "UPS Store"}, "geometry": {"type": "Point", "coordinates": [-105.59023523575661, 41.31051268141724]}},
{"type": "Feature", "id": "5G9zRsqjSv7VBLjpphetfTzQl-g=", "properties": {"ref": "1818", "@spider": "upsstore", "addr:full": "970 W Broadway Ste E", "addr:city": "Jackson", "addr:state": "WY", "addr:postcode": "83001", "addr:country": "US", "name": "Powderhorn Shopping Plaza", "phone": "(307) 733-9250", "website": "https://locations.theupsstore.com/wy/jackson/970-w-broadway", "brand": "UPS Store"}, "geometry": {"type": "Point", "coordinates": [-110.78439362698361, 43.473560714996964]}},
{"type": "Feature", "id": "zpkOGhXeu6hzf8fxoqvZwZKfiEA=", "properties": {"ref": "0865", "@spider": "upsstore", "addr:full": "405 El Camino Real", "addr:city": "Menlo Park", "addr:state": "CA", "addr:postcode": "94025", "addr:country": "US", "name": "Menlo Park", "phone": "(650) 326-4415", "website": "https://locations.theupsstore.com/ca/menlo-park/405-el-camino-real", "brand": "UPS Store"}, "geometry": {"type": "Point", "coordinates": [-122.17651520671097, 37.44977213845957]}},
{"type": "Feature", "id": "5m5FggZrozZhFBtR7hYMOnZc4iQ=", "properties": {"ref": "4347", "@spider": "upsstore", "addr:full": "7362 W Parks Hwy", "addr:city": "Wasilla", "addr:state": "AK", "addr:postcode": "99654", "addr:country": "US", "name": "Meadow Lakes City Center", "phone": "(907) 373-6245", "website": "https://locations.theupsstore.com/ak/wasilla/7362-w-parks-hwy", "brand": "UPS Store"}, "geometry": {"type": "Point", "coordinates": [-149.63501958985557, 61.58155759897965]}},
{"type": "Feature", "id": "crmeEm2XENZW9-NyJG2SMElul1c=", "properties": {"ref": "2388", "@spider": "upsstore", "addr:full": "325 Sharon Park Dr", "addr:city": "Menlo Park", "addr:state": "CA", "addr:postcode": "94025", "addr:country": "US", "name": "Menlo Park", "phone": "(650) 233-1953", "website": "https://locations.theupsstore.com/ca/menlo-park/325-sharon-park-dr", "brand": "UPS Store"}, "geometry": {"type": "Point", "coordinates": [-122.1974599, 37.4233611]}},
{"type": "Feature", "id": "cAmz6JWK2d_OIwN2weJwF_qYDaU=", "properties": {"ref": "2050", "@spider": "upsstore", "addr:full": "2521 E Mountain Village Dr Ste B", "addr:city": "Wasilla", "addr:state": "AK", "addr:postcode": "99654", "addr:country": "US", "name": "Wasilla", "phone": "(907) 376-6245", "website": "https://locations.theupsstore.com/ak/wasilla/2521-e-mountain-village-dr", "brand": "UPS Store"}, "geometry": {"type": "Point", "coordinates": [-149.3881031, 61.5733803]}},
{"type": "Feature", "id": "y28dbcXYDqSCLaAsPka_f9Kmujw=", "properties": {"ref": "7144", "@spider": "upsstore", "addr:full": "900 Camel Drive Ste Gg", "addr:city": "Gillette", "addr:state": "WY", "addr:postcode": "82716", "addr:country": "US", "name": "Gillette", "phone": "(307) 682-7581", "website": "https://locations.theupsstore.com/wy/gillette/900-camel-drive", "brand": "UPS Store"}, "geometry": {"type": "Point", "coordinates": [-105.492618, 44.2813182]}},
{"type": "Feature", "id": "NqtUdXA-0N4vYjaNNuL4-0Ros0g=", "properties": {"ref": "2394", "@spider": "upsstore", "addr:full": "1108 14th St", "addr:city": "Cody", "addr:state": "WY", "addr:postcode": "82414", "addr:country": "US", "name": "Cody", "phone": "(307) 527-6980", "website": "https://locations.theupsstore.com/wy/cody/1108-14th-st", "brand": "UPS Store"}, "geometry": {"type": "Point", "coordinates": [-109.05992545187473, 44.52566689617567]}},
{"type": "Feature", "id": "ZBOhciM1Sb5cGZJQ5wgE1ihi7og=", "properties": {"ref": "2192", "@spider": "upsstore", "addr:full": "1740 Dell Range Blvd Ste H", "addr:city": "Cheyenne", "addr:state": "WY", "addr:postcode": "82009", "addr:country": "US", "name": "Cheyenne", "phone": "(307) 634-9494", "website": "https://locations.theupsstore.com/wy/cheyenne/1740-dell-range-blvd", "brand": "UPS Store"}, "geometry": {"type": "Point", "coordinates": [-104.798994, 41.161786]}},
{"type": "Feature", "id": "2Wv0IxZ_yVU838TyQS51QU7tZAI=", "properties": {"ref": "2200", "@spider": "upsstore", "addr:full": "301 Thelma Dr", "addr:city": "Casper", "addr:state": "WY", "addr:postcode": "82609", "addr:country": "US", "name": "Casper", "phone": "(307) 472-2125", "website": "https://locations.theupsstore.com/wy/casper/301-thelma-dr", "brand": "UPS Store"}, "geometry": {"type": "Point", "coordinates": [-106.27358772245316, 42.8483452633628]}},
{"type": "Feature", "id": "10Ed07d3OEg1YsXnyT8D6fLWhfM=", "properties": {"ref": "3548", "@spider": "upsstore", "addr:full": "1150 S Colony Way Ste 3", "addr:city": "Palmer", "addr:state": "AK", "addr:postcode": "99645", "addr:country": "US", "name": "Colony Plaza", "phone": "(907) 746-6245", "website": "https://locations.theupsstore.com/ak/palmer/1150-s-colony-way", "brand": "UPS Store"}, "geometry": {"type": "Point", "coordinates": [-149.11723915021867, 61.595292696791944]}},
{"type": "Feature", "id": "L0ln8kpynsJV-QoDh5ofde4qg_I=", "properties": {"ref": "7309", "@spider": "upsstore", "addr:full": "818 Smoky Bay Way", "addr:city": "Homer", "addr:state": "AK", "addr:postcode": "99603", "addr:country": "US", "name": "Homer", "phone": "(907) 531-2800", "website": "https://locations.theupsstore.com/ak/homer/818-smoky-bay-way", "brand": "UPS Store"}, "geometry": {"type": "Point", "coordinates": [-151.52333816320132, 59.64692590009825]}},
{"type": "Feature", "id": "DTmIG_n2jiGuEedWTJT2wCci5jQ=", "properties": {"ref": "7543", "@spider": "upsstore", "addr:full": "2490 Industrial Blvd", "addr:city": "Juneau", "addr:state": "AK", "addr:postcode": "99801", "addr:country": "US", "name": "Juneau", "website": "https://locations.theupsstore.com/ak/juneau/2490-industrial-blvd", "brand": "UPS Store"}, "geometry": {"type": "Point", "coordinates": [-134.6043280373496, 58.36795580441425]}},
{"type": "Feature", "id": "LMqc0NM78chCLrQY5ag8qe7Jtoc=", "properties": {"ref": "2206", "@spider": "upsstore", "addr:full": "12110 Business Blvd Ste A06", "addr:city": "Eagle River", "addr:state": "AK", "addr:postcode": "99577", "addr:country": "US", "name": "Eagle River", "phone": "(907) 694-7447", "website": "https://locations.theupsstore.com/ak/eagle-river/12110-business-blvd", "brand": "UPS Store"}, "geometry": {"type": "Point", "coordinates": [-149.5704945, 61.3302828]}},
{"type": "Feature", "id": "pqhZPt6KBfgczUWDKA2Il7Iy36M=", "properties": {"ref": "6968", "@spider": "upsstore", "addr:full": "57556 Twentynine Palms Hwy", "addr:city": "Yucca Valley", "addr:state": "CA", "addr:postcode": "92284", "addr:country": "US", "name": "Yucca Valley", "phone": "(760) 369-4646", "website": "https://locations.theupsstore.com/ca/yucca-valley/57556-twentynine-palms-hwy", "brand": "UPS Store"}, "geometry": {"type": "Point", "coordinates": [-116.40909886113349, 34.126053330094024]}},
{"type": "Feature", "id": "jjeO8Jt_y8V2JfJ1l0dlR14wZlA=", "properties": {"ref": "1504", "@spider": "upsstore", "addr:full": "34428 Yucaipa Blvd Ste E", "addr:city": "Yucaipa", "addr:state": "CA", "addr:postcode": "92399", "addr:country": "US", "name": "Yucaipa", "phone": "(909) 790-6400", "website": "https://locations.theupsstore.com/ca/yucaipa/34428-yucaipa-blvd", "brand": "UPS Store"}, "geometry": {"type": "Point", "coordinates": [-117.0534709, 34.0347262]}},
{"type": "Feature", "id": "moug0VVHxPOEC_d1g_M-9S0O8CE=", "properties": {"ref": "4033", "@spider": "upsstore", "addr:full": "20929 Ventura Blvd Ste 47", "addr:city": "Woodland Hills", "addr:state": "CA", "addr:postcode": "91364", "addr:country": "US", "name": "Woodland Hills", "phone": "(818) 702-0456", "website": "https://locations.theupsstore.com/ca/woodland-hills/20929-ventura-blvd", "brand": "UPS Store"}, "geometry": {"type": "Point", "coordinates": [-118.5900023, 34.1667334]}},
{"type": "Feature", "id": "gBI3XvmFurQxi8hjsvNnk82E5z0=", "properties": {"ref": "0533", "@spider": "upsstore", "addr:full": "1296 E Gibson Rd Ste A", "addr:city": "Woodland", "addr:state": "CA", "addr:postcode": "95776", "addr:country": "US", "name": "Woodland", "phone": "(530) 668-0265", "website": "https://locations.theupsstore.com/ca/woodland/1296-e-gibson-rd", "brand": "UPS Store"}, "geometry": {"type": "Point", "coordinates": [-121.7611680999562, 38.66255541189935]}},
{"type": "Feature", "id": "I6FjozOOU7o2X4WpQHhsvNyigHE=", "properties": {"ref": "6112", "@spider": "upsstore", "addr:full": "9048 Brooks Rd S", "addr:city": "Windsor", "addr:state": "CA", "addr:postcode": "95492", "addr:country": "US", "name": "Safeway Shopping Center", "phone": "(707) 838-3853", "website": "https://locations.theupsstore.com/ca/windsor/9048-brooks-rd-s", "brand": "UPS Store"}, "geometry": {"type": "Point", "coordinates": [-122.8055337, 38.5512432]}},
{"type": "Feature", "id": "XiJnysAG-QrsOt3AKjDqoxgnSAQ=", "properties": {"ref": "7377", "@spider": "upsstore", "addr:full": "24046 Clinton Keith Rd Ste 101", "addr:city": "Wildomar", "addr:state": "CA", "addr:postcode": "92595", "addr:country": "US", "name": "Clinton Keith Village Plaza", "phone": "(951) 894-6001", "website": "https://locations.theupsstore.com/ca/wildomar/24046-clinton-keith-rd", "brand": "UPS Store"}, "geometry": {"type": "Point", "coordinates": [-117.240135, 33.598365]}},
{"type": "Feature", "id": "XsoTUW_A2DeHtcSlK5SR_GZlRBI=", "properties": {"ref": "0418", "@spider": "upsstore", "addr:full": "16478 Beach Blvd", "addr:city": "Westminster", "addr:state": "CA", "addr:postcode": "92683", "addr:country": "US", "name": "Westminster", "phone": "(714) 842-5513", "website": "https://locations.theupsstore.com/ca/westminster/16478-beach-blvd", "brand": "UPS Store"}, "geometry": {"type": "Point", "coordinates": [-117.9884708, 33.7241195]}},
{"type": "Feature", "id": "aqY7Uqt8xcgxoyZDTxjFsEf4tAo=", "properties": {"ref": "4417", "@spider": "upsstore", "addr:full": "8939 S Sepulveda Blvd Ste 110", "addr:city": "Westchester", "addr:state": "CA", "addr:postcode": "90045", "addr:country": "US", "name": "Westchester", "phone": "(310) 216-1324", "website": "https://locations.theupsstore.com/ca/westchester/8939-s-sepulveda-blvd", "brand": "UPS Store"}, "geometry": {"type": "Point", "coordinates": [-118.3964308, 33.9549542]}},
{"type": "Feature", "id": "8BxPbJHmr7AMNAe4wk53F4hySmU=", "properties": {"ref": "1687", "@spider": "upsstore", "addr:full": "813 Harbor Blvd", "addr:city": "West Sacramento", "addr:state": "CA", "addr:postcode": "95691", "addr:country": "US", "name": "West Sacramento", "phone": "(916) 372-7623", "website": "https://locations.theupsstore.com/ca/west-sacramento/813-harbor-blvd", "brand": "UPS Store"}, "geometry": {"type": "Point", "coordinates": [-121.5481514, 38.5784981]}},
{"type": "Feature", "id": "raUQZ8rY6V_YpPLbrXfYc6bBvfE=", "properties": {"ref": "3191", "@spider": "upsstore", "addr:full": "3875 Geist Rd Ste E", "addr:city": "Fairbanks", "addr:state": "AK", "addr:postcode": "99709", "addr:country": "US", "name": "Fairbanks", "phone": "(907) 479-2250", "website": "https://locations.theupsstore.com/ak/fairbanks/3875-geist-rd", "brand": "UPS Store"}, "geometry": {"type": "Point", "coordinates": [-147.8181135, 64.8487257]}},
{"type": "Feature", "id": "76oYdXq3PJzFFPNI5IR5rJN2iD8=", "properties": {"ref": "2852", "@spider": "upsstore", "addr:full": "607 Old Steese Hwy Ste B", "addr:city": "Fairbanks", "addr:state": "AK", "addr:postcode": "99701", "addr:country": "US", "name": "Fairbanks", "phone": "(907) 452-2221", "website": "https://locations.theupsstore.com/ak/fairbanks/607-old-steese-hwy", "brand": "UPS Store"}, "geometry": {"type": "Point", "coordinates": [-147.6958439, 64.8500792]}},
{"type": "Feature", "id": "HcR6Xl97VP9NCWZ5B4iFrEeSblA=", "properties": {"ref": "0025", "@spider": "upsstore", "addr:full": "205 E Dimond Blvd", "addr:city": "Anchorage", "addr:state": "AK", "addr:postcode": "99515", "addr:country": "US", "name": "E Dimond Blvd", "phone": "(907) 344-1211", "website": "https://locations.theupsstore.com/ak/anchorage/205-e-dimond-blvd", "brand": "UPS Store"}, "geometry": {"type": "Point", "coordinates": [-149.8779775, 61.1452711]}},
{"type": "Feature", "id": "mu1TmP1mQtUgBVJqRd9OisZ4C_Y=", "properties": {"ref": "0072", "@spider": "upsstore", "addr:full": "2440 E Tudor Rd", "addr:city": "Anchorage", "addr:state": "AK", "addr:postcode": "99507", "addr:country": "US", "name": "E Tudor Rd", "phone": "(907) 563-2281", "website": "https://locations.theupsstore.com/ak/anchorage/2440-e-tudor-rd", "brand": "UPS Store"}, "geometry": {"type": "Point", "coordinates": [-149.8358611, 61.1802584]}},
{"type": "Feature", "id": "Z5XOT848E_DUXTPjv0W06nmkWZQ=", "properties": {"ref": "0054", "@spider": "upsstore", "addr:full": "1120 Huffman Rd Ste 24", "addr:city": "Anchorage", "addr:state": "AK", "addr:postcode": "99515", "addr:country": "US", "name": "Huffman Rd", "phone": "(907) 345-7311", "website": "https://locations.theupsstore.com/ak/anchorage/1120-huffman-rd", "brand": "UPS Store"}, "geometry": {"type": "Point", "coordinates": [-149.8607254, 61.1081681]}},
{"type": "Feature", "id": "19vLBtkPeaCOdXyaIBOVB2C3NG4=", "properties": {"ref": "1635", "@spider": "upsstore", "addr:full": "1282 Stabler Lane Ste 630", "addr:city": "Yuba City", "addr:state": "CA", "addr:postcode": "95993", "addr:country": "US", "name": "Yuba City", "phone": "(530) 751-7335", "website": "https://locations.theupsstore.com/ca/yuba-city/1282-stabler-lane", "brand": "UPS Store"}, "geometry": {"type": "Point", "coordinates": [-121.6460457444191, 39.14715263073831]}},
{"type": "Feature", "id": "Pi2zKzJEGLzEXLy7xmJnZLen3Yk=", "properties": {"ref": "5024", "@spider": "upsstore", "addr:full": "1040 Lincoln Rd", "addr:city": "Yuba City", "addr:state": "CA", "addr:postcode": "95991", "addr:country": "US", "name": "Yuba City", "phone": "(530) 763-5047", "website": "https://locations.theupsstore.com/ca/yuba-city/1040-lincoln-rd", "brand": "UPS Store"}, "geometry": {"type": "Point", "coordinates": [-121.62816442091753, 39.112333066693886]}},
{"type": "Feature", "id": "l31-C1aqndelQS3jEDI_YONtC9U=", "properties": {"ref": "7220", "@spider": "upsstore", "addr:full": "20409 Yorba Linda Blvd Ste K2", "addr:city": "Yorba Linda", "addr:state": "CA", "addr:postcode": "92886", "addr:country": "US", "name": "Yorba Linda", "phone": "(714) 660-9207", "website": "https://locations.theupsstore.com/ca/yorba-linda/20409-yorba-linda-blvd", "brand": "UPS Store"}, "geometry": {"type": "Point", "coordinates": [-117.77616353851772, 33.89319017277233]}},
{"type": "Feature", "id": "5vNkPDZ4Q4ZYL7u1lRKeQfvbjUQ=", "properties": {"ref": "4845", "@spider": "upsstore", "addr:full": "18340 Yorba Linda Blvd Ste 107", "addr:city": "Yorba Linda", "addr:state": "CA", "addr:postcode": "92886", "addr:country": "US", "name": "Yorba Linda", "phone": "(714) 996-9800", "website": "https://locations.theupsstore.com/ca/yorba-linda/18340-yorba-linda-blvd", "brand": "UPS Store"}, "geometry": {"type": "Point", "coordinates": [-117.8133619, 33.8877793]}},
{"type": "Feature", "id": "wWhyk2BOcWhciV_J4ObOpWg-Z-M=", "properties": {"ref": "0055", "@spider": "upsstore", "addr:full": "200 W 34th Ave", "addr:city": "Anchorage", "addr:state": "AK", "addr:postcode": "99503", "addr:country": "US", "name": "W 34th Ave", "phone": "(907) 561-4410", "website": "https://locations.theupsstore.com/ak/anchorage/200-w-34th-ave", "brand": "UPS Store"}, "geometry": {"type": "Point", "coordinates": [-149.8859114, 61.1892617]}},
{"type": "Feature", "id": "GJhCVmV1JYR7YxRd4rEGSxSfTLA=", "properties": {"ref": "3109", "@spider": "upsstore", "addr:full": "8335 Winnetka Ave", "addr:city": "Winnetka", "addr:state": "CA", "addr:postcode": "91306", "addr:country": "US", "name": "Winnetka And Roscoe", "phone": "(818) 700-8123", "website": "https://locations.theupsstore.com/ca/winnetka/8335-winnetka-ave", "brand": "UPS Store"}, "geometry": {"type": "Point", "coordinates": [-118.57185333967209, 34.22117751256166]}},
{"type": "Feature", "id": "3rH5KyVj5bIFsW0t7SfA4v2eKlM=", "properties": {"ref": "7469", "@spider": "upsstore", "addr:full": "20117 Sherman Way", "addr:city": "Winnetka", "addr:state": "CA", "addr:postcode": "91306", "addr:country": "US", "name": "Winnetka", "phone": "(818) 626-8874", "website": "https://locations.theupsstore.com/ca/winnetka/20117-sherman-way", "brand": "UPS Store"}, "geometry": {"type": "Point", "coordinates": [-118.571748, 34.202016]}},
{"type": "Feature", "id": "zMYV9J7sjfuGjugzUaKtIPL-sGc=", "properties": {"ref": "0131", "@spider": "upsstore", "addr:full": "645 G Street Ste 100", "addr:city": "Anchorage", "addr:state": "AK", "addr:postcode": "99501", "addr:country": "US", "name": "G Street", "phone": "(907) 276-7888", "website": "https://locations.theupsstore.com/ak/anchorage/645-g-street", "brand": "UPS Store"}, "geometry": {"type": "Point", "coordinates": [-149.895227, 61.2158904]}},
{"type": "Feature", "id": "qTs_fHLK5G6jjQ0zl1MfdIttsCw=", "properties": {"ref": "1578", "@spider": "upsstore", "addr:full": "13502 Whittier Blvd Ste H", "addr:city": "Whittier", "addr:state": "CA", "addr:postcode": "90605", "addr:country": "US", "name": "Whittier", "phone": "(562) 907-3800", "website": "https://locations.theupsstore.com/ca/whittier/13502-whittier-blvd", "brand": "UPS Store"}, "geometry": {"type": "Point", "coordinates": [-118.0329104, 33.9603326]}},
{"type": "Feature", "id": "LJGNdwzwD1_oqg3sh-nhnxGkTo4=", "properties": {"ref": "2902", "@spider": "upsstore", "addr:full": "3835 E Thousand Oaks Blvd Ste R", "addr:city": "Westlake Village", "addr:state": "CA", "addr:postcode": "91362", "addr:country": "US", "name": "Westlake Village", "phone": "(805) 371-4434", "website": "https://locations.theupsstore.com/ca/westlake-village/3835-e-thousand-oaks-blvd", "brand": "UPS Store"}, "geometry": {"type": "Point", "coordinates": [-118.8239819, 34.163241]}},
{"type": "Feature", "id": "TRzQnJ32aUikfKrTtzBQUvyZozc=", "properties": {"ref": "7551", "@spider": "upsstore", "addr:full": "13411 Telegraph Rd", "addr:city": "Whittier", "addr:state": "CA", "addr:postcode": "90605", "addr:country": "US", "name": "Whittier", "website": "https://locations.theupsstore.com/ca/whittier/13411-telegraph-rd", "brand": "UPS Store"}, "geometry": {"type": "Point", "coordinates": [-118.04540632607478, 33.941360738896115]}},
{"type": "Feature", "id": "9AB6zSrsa8ftjAY1q2qoglqVcmk=", "properties": {"ref": "4296", "@spider": "upsstore", "addr:full": "4607 Lakeview Canyon Rd", "addr:city": "Westlake Village", "addr:state": "CA", "addr:postcode": "91361", "addr:country": "US", "name": "County Line Shopping Center", "phone": "(818) 735-0945", "website": "https://locations.theupsstore.com/ca/westlake-village/4607-lakeview-canyon-rd", "brand": "UPS Store"}, "geometry": {"type": "Point", "coordinates": [-118.8202624343586, 34.14880776912225]}},
{"type": "Feature", "id": "iLVKozhfjwz4Is1M8C3pAtmGTZE=", "properties": {"ref": "7221", "@spider": "upsstore", "addr:full": "15766 La Forge St Ste 222", "addr:city": "Whittier", "addr:state": "CA", "addr:postcode": "90603", "addr:country": "US", "name": "Whittier", "phone": "(562) 902-8888", "website": "https://locations.theupsstore.com/ca/whittier/15766-la-forge-st", "brand": "UPS Store"}, "geometry": {"type": "Point", "coordinates": [-117.9936262, 33.9405114]}},
{"type": "Feature", "id": "Uq1MVKcKWk-PM0hDy5As753Om5I=", "properties": {"ref": "5115", "@spider": "upsstore", "addr:full": "11721 Whittier Blvd", "addr:city": "Whittier", "addr:state": "CA", "addr:postcode": "90601", "addr:country": "US", "name": "Whittier", "phone": "(562) 908-0799", "website": "https://locations.theupsstore.com/ca/whittier/11721-whittier-blvd", "brand": "UPS Store"}, "geometry": {"type": "Point", "coordinates": [-118.05144124547951, 33.98218964582565]}},
{"type": "Feature", "id": "eqvqeLagYQDxPXPYorJabuGWYxo=", "properties": {"ref": "1804", "@spider": "upsstore", "addr:full": "6520 Platt Ave", "addr:city": "West Hills", "addr:state": "CA", "addr:postcode": "91307", "addr:country": "US", "name": "West Hills", "phone": "(818) 703-7190", "website": "https://locations.theupsstore.com/ca/west-hills/6520-platt-ave", "brand": "UPS Store"}, "geometry": {"type": "Point", "coordinates": [-118.64149891216584, 34.188773077214016]}},
{"type": "Feature", "id": "iE7Fd-fVx-79zJx-L3xb3qkXrYE=", "properties": {"ref": "0993", "@spider": "upsstore", "addr:full": "1961 Main St", "addr:city": "Watsonville", "addr:state": "CA", "addr:postcode": "95076", "addr:country": "US", "name": "Watsonville", "phone": "(831) 728-1919", "website": "https://locations.theupsstore.com/ca/watsonville/1961-main-st", "brand": "UPS Store"}, "geometry": {"type": "Point", "coordinates": [-121.782585, 36.9175685]}},
{"type": "Feature", "id": "2gSyIA-46n7nXVUbFPqKZCKkhOc=", "properties": {"ref": "4029", "@spider": "upsstore", "addr:full": "20687 Amar Rd Ste 2", "addr:city": "Walnut", "addr:state": "CA", "addr:postcode": "91789", "addr:country": "US", "name": "Walnut", "phone": "(909) 444-1303", "website": "https://locations.theupsstore.com/ca/walnut/20687-amar-rd", "brand": "UPS Store"}, "geometry": {"type": "Point", "coordinates": [-117.8511897, 34.0430266]}},
{"type": "Feature", "id": "4J7gXm0PUEX-Pz9ajotBFRvp2Bw=", "properties": {"ref": "3250", "@spider": "upsstore", "addr:full": "13940 W Meeker Blvd Ste 115", "addr:city": "Sun City West", "addr:state": "AZ", "addr:postcode": "85375", "addr:country": "US", "name": "Sun City West", "phone": "(623) 975-0258", "website": "https://locations.theupsstore.com/az/sun-city-west/13940-w-meeker-blvd", "brand": "UPS Store"}, "geometry": {"type": "Point", "coordinates": [-112.36047953367233, 33.661560898172844]}},
{"type": "Feature", "id": "gKOTseBXJ_wqeC3TvUTdpCETb8Q=", "properties": {"ref": "5360", "@spider": "upsstore", "addr:full": "9915 W Bell Rd", "addr:city": "Sun City", "addr:state": "AZ", "addr:postcode": "85351", "addr:country": "US", "name": "Sun City", "phone": "(623) 889-0308", "website": "https://locations.theupsstore.com/az/sun-city/9915-w-bell-rd", "brand": "UPS Store"}, "geometry": {"type": "Point", "coordinates": [-112.2747504, 33.637837]}},
{"type": "Feature", "id": "CR4UypjZqwHZWMZ48xFW98jEovE=", "properties": {"ref": "0516", "@spider": "upsstore", "addr:full": "2160 E Fry Blvd Ste C-5", "addr:city": "Sierra Vista", "addr:state": "AZ", "addr:postcode": "85635", "addr:country": "US", "name": "Safeway Plaza", "phone": "(520) 459-6996", "website": "https://locations.theupsstore.com/az/sierra-vista/2160-e-fry-blvd", "brand": "UPS Store"}, "geometry": {"type": "Point", "coordinates": [-110.2758238, 31.5531612]}},
{"type": "Feature", "id": "Nekv750kRuwHNsj3-bmjBCSptTI=", "properties": {"ref": "6840", "@spider": "upsstore", "addr:full": "5551 S White Mountain Rd Ste 2", "addr:city": "Show Low", "addr:state": "AZ", "addr:postcode": "85901", "addr:country": "US", "name": "Show Low", "phone": "(928) 251-0753", "website": "https://locations.theupsstore.com/az/show-low/5551-s-white-mountain-rd", "brand": "UPS Store"}, "geometry": {"type": "Point", "coordinates": [-110.017225, 34.199153]}},
{"type": "Feature", "id": "HgDyzlykWosHDCqvcGgpZJLiuUQ=", "properties": {"ref": "1550", "@spider": "upsstore", "addr:full": "2370 W Hwy 89A Ste 11", "addr:city": "Sedona", "addr:state": "AZ", "addr:postcode": "86336", "addr:country": "US", "name": "Sedona", "phone": "(928) 282-1967", "website": "https://locations.theupsstore.com/az/sedona/2370-w-hwy-89a", "brand": "UPS Store"}, "geometry": {"type": "Point", "coordinates": [-111.8017744, 34.8643643]}},
{"type": "Feature", "id": "nL7lcQLBJEFL5Oi4rgNJpcuDRLI=", "properties": {"ref": "2961", "@spider": "upsstore", "addr:full": "8581 Santa Monica Blvd", "addr:city": "West Hollywood", "addr:state": "CA", "addr:postcode": "90069", "addr:country": "US", "name": "West Hollywood", "phone": "(310) 289-5952", "website": "https://locations.theupsstore.com/ca/west-hollywood/8581-santa-monica-blvd", "brand": "UPS Store"}, "geometry": {"type": "Point", "coordinates": [-118.37878643643938, 34.08849966584053]}},
{"type": "Feature", "id": "Qw_GO8Gnk4QCO7pxaeqh44NcNwE=", "properties": {"ref": "7513", "@spider": "upsstore", "addr:full": "2200 S Azusa Ave Ste 102", "addr:city": "West Covina", "addr:state": "CA", "addr:postcode": "91792", "addr:country": "US", "name": "West Covina", "website": "https://locations.theupsstore.com/ca/west-covina/2200-s-azusa-ave", "brand": "UPS Store"}, "geometry": {"type": "Point", "coordinates": [-117.91261502729817, 34.037292678557726]}},
{"type": "Feature", "id": "fI-siSlluABqtbHNt6qrHY0PEEM=", "properties": {"ref": "6213", "@spider": "upsstore", "addr:full": "2648 E Workman Ave Ste 3001", "addr:city": "West Covina", "addr:state": "CA", "addr:postcode": "91791", "addr:country": "US", "name": "West Covina", "phone": "(626) 339-7777", "website": "https://locations.theupsstore.com/ca/west-covina/2648-e-workman-ave", "brand": "UPS Store"}, "geometry": {"type": "Point", "coordinates": [-117.8884017, 34.0749365]}},
{"type": "Feature", "id": "sJkJIEQ1Lh2mDgVeuIxTMZN0Gy0=", "properties": {"ref": "0863", "@spider": "upsstore", "addr:full": "712 Bancroft Rd", "addr:city": "Walnut Creek", "addr:state": "CA", "addr:postcode": "94598", "addr:country": "US", "name": "Bancroft Rd", "phone": "(925) 934-2844", "website": "https://locations.theupsstore.com/ca/walnut-creek/712-bancroft-rd", "brand": "UPS Store"}, "geometry": {"type": "Point", "coordinates": [-122.0397611, 37.9285029]}},
{"type": "Feature", "id": "xUSCy7NwB9l4alOqcUKRG0DYe3w=", "properties": {"ref": "2414", "@spider": "upsstore", "addr:full": "2872 Ygnacio Valley Rd", "addr:city": "Walnut Creek", "addr:state": "CA", "addr:postcode": "94598", "addr:country": "US", "name": "Ygnacio Valley Rd.", "phone": "(925) 933-2384", "website": "https://locations.theupsstore.com/ca/walnut-creek/2872-ygnacio-valley-rd", "brand": "UPS Store"}, "geometry": {"type": "Point", "coordinates": [-122.0171839, 37.928472]}},
{"type": "Feature", "id": "BumnA0an23NzQEyEpDzFc0A_vs8=", "properties": {"ref": "6992", "@spider": "upsstore", "addr:full": "1255 E Vista Way", "addr:city": "Vista", "addr:state": "CA", "addr:postcode": "92084", "addr:country": "US", "name": "Vista", "phone": "(760) 842-1300", "website": "https://locations.theupsstore.com/ca/vista/1255-e-vista-way", "brand": "UPS Store"}, "geometry": {"type": "Point", "coordinates": [-117.224480509758, 33.21817610043274]}},
{"type": "Feature", "id": "AprRWUkUCOTdJKIB1k-mNBqdn7Q=", "properties": {"ref": "0971", "@spider": "upsstore", "addr:full": "1611 S Melrose Ste A", "addr:city": "Vista", "addr:state": "CA", "addr:postcode": "92081", "addr:country": "US", "name": "Melrose Village Plaza Shopping Center", "phone": "(760) 598-5190", "website": "https://locations.theupsstore.com/ca/vista/1611-s-melrose", "brand": "UPS Store"}, "geometry": {"type": "Point", "coordinates": [-117.2483533, 33.1661376]}},
{"type": "Feature", "id": "MbqUd2UCz4MgXrBhxc0Pr-rr0Eg=", "properties": {"ref": "6731", "@spider": "upsstore", "addr:full": "5211 W Goshen Ave", "addr:city": "Visalia", "addr:state": "CA", "addr:postcode": "93291", "addr:country": "US", "name": "Visalia", "phone": "(559) 734-4200", "website": "https://locations.theupsstore.com/ca/visalia/5211-w-goshen-ave", "brand": "UPS Store"}, "geometry": {"type": "Point", "coordinates": [-119.34941292555777, 36.34009596184816]}},
{"type": "Feature", "id": "jrkKxBVl-xXOpm2HDc3Eka9vWA4=", "properties": {"ref": "6850", "@spider": "upsstore", "addr:full": "31 N 6th Ave Ste 105", "addr:city": "Tucson", "addr:state": "AZ", "addr:postcode": "85701", "addr:country": "US", "name": "Downtown Tucson", "phone": "(520) 347-3508", "website": "https://locations.theupsstore.com/az/tucson/31-n-6th-ave", "brand": "UPS Store"}, "geometry": {"type": "Point", "coordinates": [-110.9687785, 32.2224895]}},
{"type": "Feature", "id": "fE5iCYcW8yleciYnK3dHtyDphRc=", "properties": {"ref": "3530", "@spider": "upsstore", "addr:full": "7650 S McClintock Dr Ste 103", "addr:city": "Tempe", "addr:state": "AZ", "addr:postcode": "85284", "addr:country": "US", "name": "S McClintock Dr", "phone": "(480) 777-2777", "website": "https://locations.theupsstore.com/az/tempe/7650-s-mcclintock-dr", "brand": "UPS Store"}, "geometry": {"type": "Point", "coordinates": [-111.9120482, 33.3480261]}},
{"type": "Feature", "id": "vEVK4DeG3yv3SmKL8JXEuHOLVJ4=", "properties": {"ref": "5570", "@spider": "upsstore", "addr:full": "315 W Elliot Rd Ste 107", "addr:city": "Tempe", "addr:state": "AZ", "addr:postcode": "85284", "addr:country": "US", "name": "W Elliot Rd", "phone": "(480) 889-0060", "website": "https://locations.theupsstore.com/az/tempe/315-w-elliot-rd", "brand": "UPS Store"}, "geometry": {"type": "Point", "coordinates": [-111.94427447238729, 33.34864287972052]}},
{"type": "Feature", "id": "R2I08wEZM1mbTIljfdBD_XahT24=", "properties": {"ref": "5550", "@spider": "upsstore", "addr:full": "13954 W Waddel Rd Ste 103", "addr:city": "Surprise", "addr:state": "AZ", "addr:postcode": "85379", "addr:country": "US", "name": "Surprise", "phone": "(623) 975-3888", "website": "https://locations.theupsstore.com/az/surprise/13954-w-waddel-rd", "brand": "UPS Store"}, "geometry": {"type": "Point", "coordinates": [-112.3606186, 33.6108392]}},
{"type": "Feature", "id": "OXgO7mV2jZRBwOEiZo1OnVqleuU=", "properties": {"ref": "4950", "@spider": "upsstore", "addr:full": "16772 West Bell Rd Ste 110", "addr:city": "Surprise", "addr:state": "AZ", "addr:postcode": "85374", "addr:country": "US", "name": "Surprise", "phone": "(623) 537-9997", "website": "https://locations.theupsstore.com/az/surprise/16772-west-bell-rd", "brand": "UPS Store"}, "geometry": {"type": "Point", "coordinates": [-112.4205363, 33.6401869]}},
{"type": "Feature", "id": "mmX7D_HijuKL7KIUWV65j5RGW5I=", "properties": {"ref": "4070", "@spider": "upsstore", "addr:full": "15508 W Bell Rd Ste 101", "addr:city": "Surprise", "addr:state": "AZ", "addr:postcode": "85374", "addr:country": "US", "name": "Surprise", "phone": "(623) 214-9002", "website": "https://locations.theupsstore.com/az/surprise/15508-w-bell-rd", "brand": "UPS Store"}, "geometry": {"type": "Point", "coordinates": [-112.3947928, 33.6401588]}},
{"type": "Feature", "id": "7K6y2_6m1imrpLAccwC1NYURA0A=", "properties": {"ref": "5040", "@spider": "upsstore", "addr:full": "3116 South Mill Ave", "addr:city": "Tempe", "addr:state": "AZ", "addr:postcode": "85282", "addr:country": "US", "name": "South Mill Ave", "phone": "(480) 889-0382", "website": "https://locations.theupsstore.com/az/tempe/3116-south-mill-ave", "brand": "UPS Store"}, "geometry": {"type": "Point", "coordinates": [-111.9403739, 33.3948017]}},
{"type": "Feature", "id": "CTSoAoqRSxjFXSjpzbLl9m7RgT0=", "properties": {"ref": "2020", "@spider": "upsstore", "addr:full": "1753 E Broadway Ste #101", "addr:city": "Tempe", "addr:state": "AZ", "addr:postcode": "85282", "addr:country": "US", "name": "E Broadway", "phone": "(480) 829-3900", "website": "https://locations.theupsstore.com/az/tempe/1753-e-broadway", "brand": "UPS Store"}, "geometry": {"type": "Point", "coordinates": [-111.9096937, 33.4065188]}},
{"type": "Feature", "id": "mUJdnjgONJE-yJt_ByUiVdJ2bow=", "properties": {"ref": "4895", "@spider": "upsstore", "addr:full": "711 E Lemon St", "addr:city": "Tempe", "addr:state": "AZ", "addr:postcode": "85281", "addr:country": "US", "name": "E Lemon St", "phone": "(480) 894-8838", "website": "https://locations.theupsstore.com/az/tempe/711-e-lemon-st", "brand": "UPS Store"}, "geometry": {"type": "Point", "coordinates": [-111.92823745767214, 33.41635988033078]}},
{"type": "Feature", "id": "xq9zOoz-tQRYm1yGqgnH2NfHEKk=", "properties": {"ref": "3010", "@spider": "upsstore", "addr:full": "34522 N Scottsdale Rd", "addr:city": "Scottsdale", "addr:state": "AZ", "addr:postcode": "85266", "addr:country": "US", "name": "N Scottsdale Rd", "phone": "(480) 488-8030", "website": "https://locations.theupsstore.com/az/scottsdale/34522-n-scottsdale-rd", "brand": "UPS Store"}, "geometry": {"type": "Point", "coordinates": [-111.9306436, 33.7988694]}},
{"type": "Feature", "id": "uFurBhtt80tYUR7a9WHEqYl-o3w=", "properties": {"ref": "4140", "@spider": "upsstore", "addr:full": "28150 N Alma School Rd Ste 103", "addr:city": "Scottsdale", "addr:state": "AZ", "addr:postcode": "85262", "addr:country": "US", "name": "N Alma School Rd", "phone": "(480) 473-7500", "website": "https://locations.theupsstore.com/az/scottsdale/28150-n-alma-school-rd", "brand": "UPS Store"}, "geometry": {"type": "Point", "coordinates": [-111.8437091, 33.7408614]}},
{"type": "Feature", "id": "vejitNo6umApmesUbyd0TRCqXIA=", "properties": {"ref": "1669", "@spider": "upsstore", "addr:full": "14747 N Northsight Blvd Ste 111", "addr:city": "Scottsdale", "addr:state": "AZ", "addr:postcode": "85260", "addr:country": "US", "name": "Northsight Shopping Center", "phone": "(480) 483-0200", "website": "https://locations.theupsstore.com/az/scottsdale/14747-n-northsight-blvd", "brand": "UPS Store"}, "geometry": {"type": "Point", "coordinates": [-111.8963819, 33.6194922]}},
{"type": "Feature", "id": "ZXBx52XrPwPkXToYygdVHOLdaqY=", "properties": {"ref": "4160", "@spider": "upsstore", "addr:full": "15029 N Thompson Peak Pkwy Ste B-111", "addr:city": "Scottsdale", "addr:state": "AZ", "addr:postcode": "85260", "addr:country": "US", "name": "Aj's Shopping Center", "phone": "(480) 767-6050", "website": "https://locations.theupsstore.com/az/scottsdale/15029-n-thompson-peak-pkwy", "brand": "UPS Store"}, "geometry": {"type": "Point", "coordinates": [-111.87320456655465, 33.621542857740955]}},
{"type": "Feature", "id": "HXymBYxgapyI6GRrAdOlKXQtZmY=", "properties": {"ref": "4990", "@spider": "upsstore", "addr:full": "8776 E Shea Blvd Ste 106", "addr:city": "Scottsdale", "addr:state": "AZ", "addr:postcode": "85260", "addr:country": "US", "name": "Pima Crossings Shopping Center", "phone": "(480) 991-7718", "website": "https://locations.theupsstore.com/az/scottsdale/8776-e-shea-blvd", "brand": "UPS Store"}, "geometry": {"type": "Point", "coordinates": [-111.89246852697585, 33.58280399805464]}},
{"type": "Feature", "id": "UwB9EnF_rm3BujhUMbozBamrA8c=", "properties": {"ref": "4280", "@spider": "upsstore", "addr:full": "10115 E Bell Rd #107", "addr:city": "Scottsdale", "addr:state": "AZ", "addr:postcode": "85260", "addr:country": "US", "name": "E Bell Rd", "phone": "(480) 513-8661", "website": "https://locations.theupsstore.com/az/scottsdale/10115-e-bell-rd", "brand": "UPS Store"}, "geometry": {"type": "Point", "coordinates": [-111.863582, 33.638434]}},
{"type": "Feature", "id": "kCRfdL7VpjJmyh1at8tBW8hNANY=", "properties": {"ref": "3500", "@spider": "upsstore", "addr:full": "11445 E Via Linda Ste 2", "addr:city": "Scottsdale", "addr:state": "AZ", "addr:postcode": "85259", "addr:country": "US", "name": "E Via Linda", "phone": "(480) 657-2010", "website": "https://locations.theupsstore.com/az/scottsdale/11445-e-via-linda", "brand": "UPS Store"}, "geometry": {"type": "Point", "coordinates": [-111.8345935276127, 33.58845900000001]}},
{"type": "Feature", "id": "dT6s7V4CSxdrxLMfLaZ_l1Z39tA=", "properties": {"ref": "6893", "@spider": "upsstore", "addr:full": "7700 East McCormick Pkwy", "addr:city": "Scottsdale", "addr:state": "AZ", "addr:postcode": "85258", "addr:country": "US", "name": "The Scottsdale Resort At McCormick Ranch", "phone": "(480) 596-7695", "website": "https://locations.theupsstore.com/az/scottsdale/7700-east-mccormick-pkwy", "brand": "UPS Store"}, "geometry": {"type": "Point", "coordinates": [-111.9162371, 33.5486966]}},
{"type": "Feature", "id": "1T4eJrdTCh1yG5gVTW4VXkbUVjc=", "properties": {"ref": "7001", "@spider": "upsstore", "addr:full": "18291 N Pima Rd", "addr:city": "Scottsdale", "addr:state": "AZ", "addr:postcode": "85255", "addr:country": "US", "name": "N Pima Rd", "phone": "(480) 758-4485", "website": "https://locations.theupsstore.com/az/scottsdale/18291-n-pima-rd", "brand": "UPS Store"}, "geometry": {"type": "Point", "coordinates": [-111.88628, 33.653793]}},
{"type": "Feature", "id": "jBwIwzzlztJqEsDDFmiX21PUlvo=", "properties": {"ref": "2900", "@spider": "upsstore", "addr:full": "8924 E Pinnacle Peak Rd Ste G5", "addr:city": "Scottsdale", "addr:state": "AZ", "addr:postcode": "85255", "addr:country": "US", "name": "E Pinnacle Peak Rd", "phone": "(480) 585-8066", "website": "https://locations.theupsstore.com/az/scottsdale/8924-e-pinnacle-peak-rd", "brand": "UPS Store"}, "geometry": {"type": "Point", "coordinates": [-111.8883725, 33.6990281]}},
{"type": "Feature", "id": "pwyw9hUikLo8Ix09ywlKGQiFb0A=", "properties": {"ref": "6932", "@spider": "upsstore", "addr:full": "23623 N Scottsdale Rd D3", "addr:city": "Scottsdale", "addr:state": "AZ", "addr:postcode": "85255", "addr:country": "US", "name": "N Scottsdale Rd", "phone": "(480) 585-0015", "website": "https://locations.theupsstore.com/az/scottsdale/23623-n-scottsdale-rd", "brand": "UPS Store"}, "geometry": {"type": "Point", "coordinates": [-111.92426, 33.7007499]}},
{"type": "Feature", "id": "XMpcQnIQbyEMrAtoIH7M8M7sgac=", "properties": {"ref": "4110", "@spider": "upsstore", "addr:full": "20701 N Scottsdale Rd Ste 107", "addr:city": "Scottsdale", "addr:state": "AZ", "addr:postcode": "85255", "addr:country": "US", "name": "N Scottsdale Rd", "phone": "(480) 502-8482", "website": "https://locations.theupsstore.com/az/scottsdale/20701-n-scottsdale-rd", "brand": "UPS Store"}, "geometry": {"type": "Point", "coordinates": [-111.9234272, 33.674722]}},
{"type": "Feature", "id": "bpoV9fxzTNXnj5E7j1EscaGVahA=", "properties": {"ref": "4020", "@spider": "upsstore", "addr:full": "6501 Greenway Pkwy Ste 103", "addr:city": "Scottsdale", "addr:state": "AZ", "addr:postcode": "85254", "addr:country": "US", "name": "Greenway Pkwy", "phone": "(480) 951-7877", "website": "https://locations.theupsstore.com/az/scottsdale/6501-greenway-pkwy", "brand": "UPS Store"}, "geometry": {"type": "Point", "coordinates": [-111.94228, 33.6242991]}},
{"type": "Feature", "id": "_tk-h9APdCJ_uulwKHNI4XIpwV8=", "properties": {"ref": "0303", "@spider": "upsstore", "addr:full": "16211 N Scottsdale Rd Ste A6a", "addr:city": "Scottsdale", "addr:state": "AZ", "addr:postcode": "85254", "addr:country": "US", "name": "N Scottsdale Rd", "phone": "(480) 948-9727", "website": "https://locations.theupsstore.com/az/scottsdale/16211-n-scottsdale-rd", "brand": "UPS Store"}, "geometry": {"type": "Point", "coordinates": [-111.9244096, 33.6343188]}},
{"type": "Feature", "id": "13JlTdnztznjTNfX8wuV-e0yjLc=", "properties": {"ref": "0058", "@spider": "upsstore", "addr:full": "10632 N Scottsdale Rd", "addr:city": "Scottsdale", "addr:state": "AZ", "addr:postcode": "85254", "addr:country": "US", "name": "N Scottsdale Rd", "phone": "(480) 951-4380", "website": "https://locations.theupsstore.com/az/scottsdale/10632-n-scottsdale-rd", "brand": "UPS Store"}, "geometry": {"type": "Point", "coordinates": [-111.9264151, 33.5837216]}},
{"type": "Feature", "id": "V0cFnt49Mz2uDZS3nbQSiZIN3Uk=", "properties": {"ref": "0038", "@spider": "upsstore", "addr:full": "3370 N Hayden Rd Ste 123", "addr:city": "Scottsdale", "addr:state": "AZ", "addr:postcode": "85251", "addr:country": "US", "name": "N Hayden Rd", "phone": "(480) 947-1225", "website": "https://locations.theupsstore.com/az/scottsdale/3370-n-hayden-rd", "brand": "UPS Store"}, "geometry": {"type": "Point", "coordinates": [-111.91006855806336, 33.48710424345111]}},
{"type": "Feature", "id": "P2Yn-AEcK-hMkXgSLdcRqyibLr8=", "properties": {"ref": "1692", "@spider": "upsstore", "addr:full": "4400 N Scottsdale Rd Ste 9", "addr:city": "Scottsdale", "addr:state": "AZ", "addr:postcode": "85251", "addr:country": "US", "name": "N Scottsdale Rd", "phone": "(480) 994-8200", "website": "https://locations.theupsstore.com/az/scottsdale/4400-n-scottsdale-rd", "brand": "UPS Store"}, "geometry": {"type": "Point", "coordinates": [-111.92640517653672, 33.50033419904026]}},
{"type": "Feature", "id": "zAAJKlqPmw3L9ZXPXQA3hqe9nGY=", "properties": {"ref": "2700", "@spider": "upsstore", "addr:full": "7904 E Chaparral Rd Ste A110", "addr:city": "Scottsdale", "addr:state": "AZ", "addr:postcode": "85250", "addr:country": "US", "name": "E Chaparral Rd", "phone": "(480) 945-4316", "website": "https://locations.theupsstore.com/az/scottsdale/7904-e-chaparral-rd", "brand": "UPS Store"}, "geometry": {"type": "Point", "coordinates": [-111.911569, 33.5101686]}},
{"type": "Feature", "id": "DYiyrPZf37j__Y_ljUSshgPyjgw=", "properties": {"ref": "2650", "@spider": "upsstore", "addr:full": "6929 N Hayden Rd Ste C4", "addr:city": "Scottsdale", "addr:state": "AZ", "addr:postcode": "85250", "addr:country": "US", "name": "N Hayden Rd", "phone": "(480) 905-0811", "website": "https://locations.theupsstore.com/az/scottsdale/6929-n-hayden-rd", "brand": "UPS Store"}, "geometry": {"type": "Point", "coordinates": [-111.90736757358536, 33.53700603252852]}},
{"type": "Feature", "id": "6kwruod2rKnZVh1h0F55T25l1rk=", "properties": {"ref": "7082", "@spider": "upsstore", "addr:full": "60 E 5th St", "addr:city": "Tempe", "addr:state": "AZ", "addr:postcode": "85281", "addr:country": "US", "name": "Tempe Mission Palms Hotel", "phone": "(480) 317-1568", "website": "https://locations.theupsstore.com/az/tempe/60-e-5th-st", "brand": "UPS Store"}, "geometry": {"type": "Point", "coordinates": [-111.93890709665095, 33.42606470755865]}},
{"type": "Feature", "id": "8Pcw2e6b5n158sXqVWqNPL1Nlys=", "properties": {"ref": "4800", "@spider": "upsstore", "addr:full": "510 E University Dr", "addr:city": "Tempe", "addr:state": "AZ", "addr:postcode": "85281", "addr:country": "US", "name": "E University Dr", "phone": "(480) 894-8838", "website": "https://locations.theupsstore.com/az/tempe/510-e-university-dr", "brand": "UPS Store"}, "geometry": {"type": "Point", "coordinates": [-111.9321861, 33.4226924]}},
{"type": "Feature", "id": "jo-b9ppHX-K5mdoBf6Oba_lf2KQ=", "properties": {"ref": "2541", "@spider": "upsstore", "addr:full": "6890 E Sunrise Dr #120", "addr:city": "Tucson", "addr:state": "AZ", "addr:postcode": "85750", "addr:country": "US", "name": "E Sunrise Dr", "phone": "(520) 299-7177", "website": "https://locations.theupsstore.com/az/tucson/6890-e-sunrise-dr", "brand": "UPS Store"}, "geometry": {"type": "Point", "coordinates": [-110.84562836441808, 32.306780393027594]}},
{"type": "Feature", "id": "2l1_Ew8MNl7euBb1ow4EdmnvNNU=", "properties": {"ref": "7510", "@spider": "upsstore", "addr:full": "9095 E Tanque Verde Rd Unit 171", "addr:city": "Tucson", "addr:state": "AZ", "addr:postcode": "85749", "addr:country": "US", "name": "Tucson", "website": "https://locations.theupsstore.com/az/tucson/9095-e-tanque-verde-rd", "brand": "UPS Store"}, "geometry": {"type": "Point", "coordinates": [-110.79803701891446, 32.259475746296076]}},
{"type": "Feature", "id": "cffBodkKKRIpxzv1MPFSPTNKMsI=", "properties": {"ref": "3560", "@spider": "upsstore", "addr:full": "120 S Houghton Rd Ste 138", "addr:city": "Tucson", "addr:state": "AZ", "addr:postcode": "85748", "addr:country": "US", "name": "S Houghton Rd", "phone": "(520) 751-4510", "website": "https://locations.theupsstore.com/az/tucson/120-s-houghton-rd", "brand": "UPS Store"}, "geometry": {"type": "Point", "coordinates": [-110.77395751141017, 32.21931602114847]}},
{"type": "Feature", "id": "YaFuyz6FfXro9k2C6OS6yRGBfGE=", "properties": {"ref": "3722", "@spider": "upsstore", "addr:full": "1645 W Valencia Rd #109", "addr:city": "Tucson", "addr:state": "AZ", "addr:postcode": "85746", "addr:country": "US", "name": "W Valencia Rd", "phone": "(520) 573-1554", "website": "https://locations.theupsstore.com/az/tucson/1645-w-valencia-rd", "brand": "UPS Store"}, "geometry": {"type": "Point", "coordinates": [-111.0000525, 32.1323348]}},
{"type": "Feature", "id": "AvZFLgj4wpN-TWFKS4RdGy9jbzc=", "properties": {"ref": "5053", "@spider": "upsstore", "addr:full": "1505 W St Marys Rd", "addr:city": "Tucson", "addr:state": "AZ", "addr:postcode": "85745", "addr:country": "US", "name": "W St Marys Rd", "phone": "(520) 622-7447", "website": "https://locations.theupsstore.com/az/tucson/1505-w-st-marys-rd", "brand": "UPS Store"}, "geometry": {"type": "Point", "coordinates": [-110.99690229515545, 32.228624950614474]}},
{"type": "Feature", "id": "NsJjF4DSETiHv1tTYkVukdV1wuc=", "properties": {"ref": "3350", "@spider": "upsstore", "addr:full": "7850 N Silverbell Ste 114", "addr:city": "Tucson", "addr:state": "AZ", "addr:postcode": "85743", "addr:country": "US", "name": "Marana Frys Shopping Center", "phone": "(520) 744-1999", "website": "https://locations.theupsstore.com/az/tucson/7850-n-silverbell", "brand": "UPS Store"}, "geometry": {"type": "Point", "coordinates": [-111.0986255, 32.3499404]}},
{"type": "Feature", "id": "PzTZOHQseXPWaYCSMG9fGmHstgM=", "properties": {"ref": "3247", "@spider": "upsstore", "addr:full": "7320 N La Cholla Blvd Ste 154", "addr:city": "Tucson", "addr:state": "AZ", "addr:postcode": "85741", "addr:country": "US", "name": "N La Cholla Blvd across from Foothills Mall", "phone": "(520) 531-0800", "website": "https://locations.theupsstore.com/az/tucson/7320-n-la-cholla-blvd", "brand": "UPS Store"}, "geometry": {"type": "Point", "coordinates": [-111.01181788137183, 32.3396528314762]}},
{"type": "Feature", "id": "_P11W71hREpAIBAWn7gnLrmP8I8=", "properties": {"ref": "3216", "@spider": "upsstore", "addr:full": "8340 N Thornydale Ste 110", "addr:city": "Tucson", "addr:state": "AZ", "addr:postcode": "85741", "addr:country": "US", "name": "N Thornydale", "phone": "(520) 744-1356", "website": "https://locations.theupsstore.com/az/tucson/8340-n-thornydale", "brand": "UPS Store"}, "geometry": {"type": "Point", "coordinates": [-111.04482114315027, 32.35764228858059]}},
{"type": "Feature", "id": "bCuwqcDee3Zwl9Vr9W_ogGffYEM=", "properties": {"ref": "2835", "@spider": "upsstore", "addr:full": "12995 N Oracle Rd Ste 141", "addr:city": "Tucson", "addr:state": "AZ", "addr:postcode": "85739", "addr:country": "US", "name": "N Oracle Rd", "phone": "(520) 825-1231", "website": "https://locations.theupsstore.com/az/tucson/12995-n-oracle-rd", "brand": "UPS Store"}, "geometry": {"type": "Point", "coordinates": [-110.9358551, 32.4420066]}},
{"type": "Feature", "id": "U7O3IZVqfLNEXsX0Oq_pwkhhnXY=", "properties": {"ref": "0605", "@spider": "upsstore", "addr:full": "9420 E Golf Links Rd Ste 108", "addr:city": "Tucson", "addr:state": "AZ", "addr:postcode": "85730", "addr:country": "US", "name": "E Golf Links Rd", "phone": "(520) 722-8272", "website": "https://locations.theupsstore.com/az/tucson/9420-e-golf-links-rd", "brand": "UPS Store"}, "geometry": {"type": "Point", "coordinates": [-110.7917942, 32.1907142]}},
{"type": "Feature", "id": "Ww1-8k9D0LMwcMFlWXSUBmfYGQs=", "properties": {"ref": "0329", "@spider": "upsstore", "addr:full": "7014 E Golf Links Rd", "addr:city": "Tucson", "addr:state": "AZ", "addr:postcode": "85730", "addr:country": "US", "name": "E Golf Links Rd", "phone": "(520) 748-0350", "website": "https://locations.theupsstore.com/az/tucson/7014-e-golf-links-rd", "brand": "UPS Store"}, "geometry": {"type": "Point", "coordinates": [-110.843673, 32.19088]}},
{"type": "Feature", "id": "3jIQUut0jGbyJaQSQ-yzYALjcx0=", "properties": {"ref": "1008", "@spider": "upsstore", "addr:full": "1830 E Broadway Ste 124", "addr:city": "Tucson", "addr:state": "AZ", "addr:postcode": "85719", "addr:country": "US", "name": "E Broadway", "phone": "(520) 798-3646", "website": "https://locations.theupsstore.com/az/tucson/1830-e-broadway", "brand": "UPS Store"}, "geometry": {"type": "Point", "coordinates": [-110.94494665972888, 32.22067553063866]}},
{"type": "Feature", "id": "Q-8-O_2Kfxs75cFbXbH_Ci1PoJA=", "properties": {"ref": "0196", "@spider": "upsstore", "addr:full": "3661 N Campbell Ave", "addr:city": "Tucson", "addr:state": "AZ", "addr:postcode": "85719", "addr:country": "US", "name": "N Campbell Ave", "phone": "(520) 323-3535", "website": "https://locations.theupsstore.com/az/tucson/3661-n-campbell-ave", "brand": "UPS Store"}, "geometry": {"type": "Point", "coordinates": [-110.94626565278196, 32.273297843297215]}},
{"type": "Feature", "id": "LcoX5MKWtYMguqkeOQXDf_qKyG8=", "properties": {"ref": "5220", "@spider": "upsstore", "addr:full": "3849 E Broadway Blvd", "addr:city": "Tucson", "addr:state": "AZ", "addr:postcode": "85716", "addr:country": "US", "name": "E Broadway Blvd", "phone": "(520) 881-6252", "website": "https://locations.theupsstore.com/az/tucson/3849-e-broadway-blvd", "brand": "UPS Store"}, "geometry": {"type": "Point", "coordinates": [-110.90998515486723, 32.22191090739505]}},
{"type": "Feature", "id": "EhE4Omwd3XZa-c7f4U3lQERCMh4=", "properties": {"ref": "2362", "@spider": "upsstore", "addr:full": "4729 E Sunrise Dr", "addr:city": "Tucson", "addr:state": "AZ", "addr:postcode": "85718", "addr:country": "US", "name": "Plaza Bel Air", "phone": "(520) 299-2188", "website": "https://locations.theupsstore.com/az/tucson/4729-e-sunrise-dr", "brand": "UPS Store"}, "geometry": {"type": "Point", "coordinates": [-110.8917883821232, 32.30996007233563]}},
{"type": "Feature", "id": "cWCFlHkFLtdWPQlWKC6t5TbKhgs=", "properties": {"ref": "0428", "@spider": "upsstore", "addr:full": "2004 E Irvington Rd", "addr:city": "Tucson", "addr:state": "AZ", "addr:postcode": "85714", "addr:country": "US", "name": "E Irvington Rd", "phone": "(520) 889-0077", "website": "https://locations.theupsstore.com/az/tucson/2004-e-irvington-rd", "brand": "UPS Store"}, "geometry": {"type": "Point", "coordinates": [-110.94135144356187, 32.161540680585794]}},
{"type": "Feature", "id": "O_v2J1TiY6dLokugU8OH345Z_78=", "properties": {"ref": "0283", "@spider": "upsstore", "addr:full": "3938 E Grant Rd", "addr:city": "Tucson", "addr:state": "AZ", "addr:postcode": "85712", "addr:country": "US", "name": "E Grant Rd", "phone": "(520) 881-7600", "website": "https://locations.theupsstore.com/az/tucson/3938-e-grant-rd", "brand": "UPS Store"}, "geometry": {"type": "Point", "coordinates": [-110.90786566490124, 32.249866789641025]}},
{"type": "Feature", "id": "wTJkc_CPiilNEtOMhgp3XAUdv18=", "properties": {"ref": "0663", "@spider": "upsstore", "addr:full": "1517 N Wilmot", "addr:city": "Tucson", "addr:state": "AZ", "addr:postcode": "85712", "addr:country": "US", "name": "N Wilmot", "phone": "(520) 885-2526", "website": "https://locations.theupsstore.com/az/tucson/1517-n-wilmot", "brand": "UPS Store"}, "geometry": {"type": "Point", "coordinates": [-110.8584344, 32.2409614]}},
{"type": "Feature", "id": "36hT1dzCRlRuxwI4yOYE5_IfTlk=", "properties": {"ref": "2239", "@spider": "upsstore", "addr:full": "5425 E Broadway Blvd", "addr:city": "Tucson", "addr:state": "AZ", "addr:postcode": "85711", "addr:country": "US", "name": "E Broadway Blvd", "phone": "(520) 750-8600", "website": "https://locations.theupsstore.com/az/tucson/5425-e-broadway-blvd", "brand": "UPS Store"}, "geometry": {"type": "Point", "coordinates": [-110.87599833961576, 32.22273467808128]}},
{"type": "Feature", "id": "rewvLzu7bupA_2ZD82zD2vcLC-E=", "properties": {"ref": "0149", "@spider": "upsstore", "addr:full": "7739 E Broadway Blvd", "addr:city": "Tucson", "addr:state": "AZ", "addr:postcode": "85710", "addr:country": "US", "name": "E Broadway Blvd", "phone": "(520) 885-2300", "website": "https://locations.theupsstore.com/az/tucson/7739-e-broadway-blvd", "brand": "UPS Store"}, "geometry": {"type": "Point", "coordinates": [-110.825946, 32.222553]}},
{"type": "Feature", "id": "SKhIUvyFufi1OaT9CJ43X0oI5fk=", "properties": {"ref": "0765", "@spider": "upsstore", "addr:full": "405 E Wetmore Ste 117", "addr:city": "Tucson", "addr:state": "AZ", "addr:postcode": "85705", "addr:country": "US", "name": "E Wetmore", "phone": "(520) 887-8448", "website": "https://locations.theupsstore.com/az/tucson/405-e-wetmore", "brand": "UPS Store"}, "geometry": {"type": "Point", "coordinates": [-110.9657459, 32.2873033]}},
{"type": "Feature", "id": "MYaWQVxM57trZmGNZJLuDwMdmJ4=", "properties": {"ref": "0442", "@spider": "upsstore", "addr:full": "6336 N Oracle Rd Ste 326", "addr:city": "Tucson", "addr:state": "AZ", "addr:postcode": "85704", "addr:country": "US", "name": "The Oracle Plaza Shopping Center", "phone": "(520) 742-6211", "website": "https://locations.theupsstore.com/az/tucson/6336-n-oracle-rd", "brand": "UPS Store"}, "geometry": {"type": "Point", "coordinates": [-110.97315171364244, 32.322170382117896]}},
{"type": "Feature", "id": "4qEP-oD1L3lQedZFxZzmnc1AGiM=", "properties": {"ref": "4597", "@spider": "upsstore", "addr:full": "11274 S Fortuna Rd Ste #D2", "addr:city": "Yuma", "addr:state": "AZ", "addr:postcode": "85367", "addr:country": "US", "name": "Yuma", "phone": "(928) 342-5047", "website": "https://locations.theupsstore.com/az/yuma/11274-s-fortuna-rd", "brand": "UPS Store"}, "geometry": {"type": "Point", "coordinates": [-114.4455085, 32.6681795]}},
{"type": "Feature", "id": "sBupsUu3AQIvvlkPT4lo4uMvU6Q=", "properties": {"ref": "2261", "@spider": "upsstore", "addr:full": "340 W 32nd St", "addr:city": "Yuma", "addr:state": "AZ", "addr:postcode": "85364", "addr:country": "US", "name": "Yuma", "phone": "(928) 726-3142", "website": "https://locations.theupsstore.com/az/yuma/340-w-32nd-st", "brand": "UPS Store"}, "geometry": {"type": "Point", "coordinates": [-114.6226813, 32.6717581]}},
{"type": "Feature", "id": "ZDczUQh_3bqGe0Y2FKKGAUDCyDQ=", "properties": {"ref": "2547", "@spider": "upsstore", "addr:full": "2554 W 16th St", "addr:city": "Yuma", "addr:state": "AZ", "addr:postcode": "85364", "addr:country": "US", "name": "Yuma", "phone": "(928) 343-0026", "website": "https://locations.theupsstore.com/az/yuma/2554-w-16th-st", "brand": "UPS Store"}, "geometry": {"type": "Point", "coordinates": [-114.6510399, 32.6996611]}},
{"type": "Feature", "id": "7OOYlNqxU3SfFWCWT6IimfUPWkQ=", "properties": {"ref": "7226", "@spider": "upsstore", "addr:full": "3206 N Dinuba Blvd Ste E", "addr:city": "Visalia", "addr:state": "CA", "addr:postcode": "93291", "addr:country": "US", "name": "Visalia", "phone": "(559) 624-0400", "website": "https://locations.theupsstore.com/ca/visalia/3206-n-dinuba-blvd", "brand": "UPS Store"}, "geometry": {"type": "Point", "coordinates": [-119.29652448022765, 36.358195795198405]}},
{"type": "Feature", "id": "gMtUHceJs8FldcxhgL73HC-_dTs=", "properties": {"ref": "2056", "@spider": "upsstore", "addr:full": "4216 S Mooney Blvd", "addr:city": "Visalia", "addr:state": "CA", "addr:postcode": "93277", "addr:country": "US", "name": "Packwood Creek Plaza", "phone": "(559) 738-1105", "website": "https://locations.theupsstore.com/ca/visalia/4216-s-mooney-blvd", "brand": "UPS Store"}, "geometry": {"type": "Point", "coordinates": [-119.31299009325409, 36.291549352391336]}},
{"type": "Feature", "id": "h2k1yh0-8T8GrTNucThMgCdm9P8=", "properties": {"ref": "0099", "@spider": "upsstore", "addr:full": "1547 Palos Verdes Mall", "addr:city": "Walnut Creek", "addr:state": "CA", "addr:postcode": "94597", "addr:country": "US", "name": "Palos Verdes Mall", "phone": "(925) 946-1016", "website": "https://locations.theupsstore.com/ca/walnut-creek/1547-palos-verdes-mall", "brand": "UPS Store"}, "geometry": {"type": "Point", "coordinates": [-122.08771437406534, 37.924311772633146]}},
{"type": "Feature", "id": "G6L3YMDwh9O9HGMoNaXu6Zn9tU0=", "properties": {"ref": "6547", "@spider": "upsstore", "addr:full": "1630 N Main Street", "addr:city": "Walnut Creek", "addr:state": "CA", "addr:postcode": "94596", "addr:country": "US", "name": "N Main Street", "phone": "(925) 934-9318", "website": "https://locations.theupsstore.com/ca/walnut-creek/1630-n-main-street", "brand": "UPS Store"}, "geometry": {"type": "Point", "coordinates": [-122.0613343350123, 37.90116348025857]}},
{"type": "Feature", "id": "_0anyvm5FJI1lyu0uf7Zgk0Pak0=", "properties": {"ref": "6225", "@spider": "upsstore", "addr:full": "1555 Botelho Dr", "addr:city": "Walnut Creek", "addr:state": "CA", "addr:postcode": "94596", "addr:country": "US", "name": "Main Street Plaza", "phone": "(925) 937-6225", "website": "https://locations.theupsstore.com/ca/walnut-creek/1555-botelho-dr", "brand": "UPS Store"}, "geometry": {"type": "Point", "coordinates": [-122.06085397878269, 37.894434892485286]}},
{"type": "Feature", "id": "p9BLguhuDJ3bCSURsDyOwh5WeoA=", "properties": {"ref": "0802", "@spider": "upsstore", "addr:full": "1966 Tice Valley Blvd", "addr:city": "Walnut Creek", "addr:state": "CA", "addr:postcode": "94595", "addr:country": "US", "name": "Rossmoor Shopping Center", "phone": "(925) 935-1870", "website": "https://locations.theupsstore.com/ca/walnut-creek/1966-tice-valley-blvd", "brand": "UPS Store"}, "geometry": {"type": "Point", "coordinates": [-122.0722694, 37.87849]}},
{"type": "Feature", "id": "mZhUYvlKeMUPs46fXJiPt1nbhj4=", "properties": {"ref": "5406", "@spider": "upsstore", "addr:full": "1004 W Covina Pkwy", "addr:city": "West Covina", "addr:state": "CA", "addr:postcode": "91790", "addr:country": "US", "name": "West Covina", "phone": "(626) 338-5400", "website": "https://locations.theupsstore.com/ca/west-covina/1004-w-covina-pkwy", "brand": "UPS Store"}, "geometry": {"type": "Point", "coordinates": [-117.9317323, 34.0677467]}},
{"type": "Feature", "id": "rlzQuA6IOQKRioVHD3qOXN2ay1Q=", "properties": {"ref": "6606", "@spider": "upsstore", "addr:full": "7111 Santa Monica Blvd Ste B", "addr:city": "West Hollywood", "addr:state": "CA", "addr:postcode": "90046", "addr:country": "US", "name": "West Hollywood", "phone": "(323) 672-8700", "website": "https://locations.theupsstore.com/ca/west-hollywood/7111-santa-monica-blvd", "brand": "UPS Store"}, "geometry": {"type": "Point", "coordinates": [-118.34481738050272, 34.09089083485591]}},
{"type": "Feature", "id": "8SvtbJZqRp7M3YUwbPeIydnUtv8=", "properties": {"ref": "2458", "@spider": "upsstore", "addr:full": "7760 E State Rte 69 Ste C5", "addr:city": "Prescott Valley", "addr:state": "AZ", "addr:postcode": "86314", "addr:country": "US", "name": "Prescott Valley", "phone": "(928) 772-0000", "website": "https://locations.theupsstore.com/az/prescott-valley/7760-e-state-rte-69", "brand": "UPS Store"}, "geometry": {"type": "Point", "coordinates": [-112.3292064, 34.5871662]}},
{"type": "Feature", "id": "tDdBmUZT0TLSr54LPFJPNukeGgU=", "properties": {"ref": "5140", "@spider": "upsstore", "addr:full": "20987 N John Wayne Pkwy Ste B104", "addr:city": "Maricopa", "addr:state": "AZ", "addr:postcode": "85139", "addr:country": "US", "name": "Fry's Marketplace Shopping Center", "phone": "(520) 568-5712", "website": "https://locations.theupsstore.com/az/maricopa/20987-n-john-wayne-pkwy", "brand": "UPS Store"}, "geometry": {"type": "Point", "coordinates": [-112.04411399999992, 33.069103999999996]}},
{"type": "Feature", "id": "jg3I7ZZ6DO-UROStA9-MMe9mDIc=", "properties": {"ref": "0188", "@spider": "upsstore", "addr:full": "17853 Santiago Blvd Ste 107", "addr:city": "Villa Park", "addr:state": "CA", "addr:postcode": "92861", "addr:country": "US", "name": "Villa Park", "phone": "(714) 637-6180", "website": "https://locations.theupsstore.com/ca/villa-park/17853-santiago-blvd", "brand": "UPS Store"}, "geometry": {"type": "Point", "coordinates": [-117.8206207, 33.8147994]}},
{"type": "Feature", "id": "YajBy7O3IKu3f-HMUmrxy_DUUK0=", "properties": {"ref": "5055", "@spider": "upsstore", "addr:full": "12127 Mall Blvd Ste A", "addr:city": "Victorville", "addr:state": "CA", "addr:postcode": "92392", "addr:country": "US", "name": "Victorville", "phone": "(760) 955-4877", "website": "https://locations.theupsstore.com/ca/victorville/12127-mall-blvd", "brand": "UPS Store"}, "geometry": {"type": "Point", "coordinates": [-117.35163034970282, 34.471450806753296]}},
{"type": "Feature", "id": "7vq5bJa6nCmf5qlGshcWP0-yBAk=", "properties": {"ref": "2036", "@spider": "upsstore", "addr:full": "4804 Laurel Canyon Blvd", "addr:city": "Valley Village", "addr:state": "CA", "addr:postcode": "91607", "addr:country": "US", "name": "Valley Village", "phone": "(818) 509-0802", "website": "https://locations.theupsstore.com/ca/valley-village/4804-laurel-canyon-blvd", "brand": "UPS Store"}, "geometry": {"type": "Point", "coordinates": [-118.396197776392, 34.157955657414334]}},
{"type": "Feature", "id": "DZLhbvHVGfsHthpTcSyY_RKgu8U=", "properties": {"ref": "7536", "@spider": "upsstore", "addr:full": "29105 Valley Center Rd", "addr:city": "Valley Center", "addr:state": "CA", "addr:postcode": "92082", "addr:country": "US", "name": "Valley Center", "website": "https://locations.theupsstore.com/ca/valley-center/29105-valley-center-rd", "brand": "UPS Store"}, "geometry": {"type": "Point", "coordinates": [-117.026334108581, 33.230615791629965]}},
{"type": "Feature", "id": "XkfOoA7gyQ87b16Ffh02dx1VRfU=", "properties": {"ref": "4980", "@spider": "upsstore", "addr:full": "530 East Hunt Hwy Ste 103", "addr:city": "San Tan Valley", "addr:state": "AZ", "addr:postcode": "85143", "addr:country": "US", "name": "San Tan Valley", "phone": "(480) 889-1568", "website": "https://locations.theupsstore.com/az/san-tan-valley/530-east-hunt-hwy", "brand": "UPS Store"}, "geometry": {"type": "Point", "coordinates": [-111.5606743, 33.1610137]}},
{"type": "Feature", "id": "CZt_CmOHM2TwnBgaYgkYhia9KUY=", "properties": {"ref": "7576", "@spider": "upsstore", "addr:full": "Nwc Ellsworth Rd & Riggs Rd Ste A-100", "addr:city": "Queen Creek", "addr:state": "AZ", "addr:postcode": "85142", "addr:country": "US", "name": "Queen Creek", "website": "https://locations.theupsstore.com/az/queen-creek/nwc-ellsworth-rd-&-riggs-rd", "brand": "UPS Store"}, "geometry": {"type": "Point", "coordinates": [-111.634623249999, 33.25701805]}},
{"type": "Feature", "id": "wzs3bUBjzv_qXXDE26WfR-6lwg8=", "properties": {"ref": "2418", "@spider": "upsstore", "addr:full": "303 E Gurley St", "addr:city": "Prescott", "addr:state": "AZ", "addr:postcode": "86301", "addr:country": "US", "name": "Prescott", "phone": "(928) 445-0099", "website": "https://locations.theupsstore.com/az/prescott/303-e-gurley-st", "brand": "UPS Store"}, "geometry": {"type": "Point", "coordinates": [-112.4655474, 34.5415897]}},
{"type": "Feature", "id": "xrkdsabw7yQgxODiGujey-RRx5M=", "properties": {"ref": "0586", "@spider": "upsstore", "addr:full": "1042 Willow Creek Rd Ste A101", "addr:city": "Prescott", "addr:state": "AZ", "addr:postcode": "86301", "addr:country": "US", "name": "Prescott", "phone": "(928) 445-4560", "website": "https://locations.theupsstore.com/az/prescott/1042-willow-creek-rd", "brand": "UPS Store"}, "geometry": {"type": "Point", "coordinates": [-112.48483944295697, 34.56120128153278]}},
{"type": "Feature", "id": "LZ5KhEq5HADBDRdvWwDay2J1KHs=", "properties": {"ref": "4320", "@spider": "upsstore", "addr:full": "20403 N Lake Pleasant Rd #117", "addr:city": "Peoria", "addr:state": "AZ", "addr:postcode": "85382", "addr:country": "US", "name": "Peoria", "phone": "(623) 376-8810", "website": "https://locations.theupsstore.com/az/peoria/20403-n-lake-pleasant-rd", "brand": "UPS Store"}, "geometry": {"type": "Point", "coordinates": [-112.2782613, 33.6690218]}},
{"type": "Feature", "id": "Wxe9hEyIbHRcn0Ka6lIzvLTmqFQ=", "properties": {"ref": "5809", "@spider": "upsstore", "addr:full": "10645 N Oracle Rd Suite 121", "addr:city": "Oro Valley", "addr:state": "AZ", "addr:postcode": "85737", "addr:country": "US", "name": "Rooney Ranch Plaza", "phone": "(520) 544-4008", "website": "https://locations.theupsstore.com/az/oro-valley/10645-n-oracle-rd", "brand": "UPS Store"}, "geometry": {"type": "Point", "coordinates": [-110.95817754232786, 32.400334603016695]}},
{"type": "Feature", "id": "LbycAthq5TtMmAOCO9c0Xt3Sbv0=", "properties": {"ref": "7487", "@spider": "upsstore", "addr:full": "7966 N Oracle Rd", "addr:city": "Oro Valley", "addr:state": "AZ", "addr:postcode": "85704", "addr:country": "US", "name": "Oro Valley", "website": "https://locations.theupsstore.com/az/oro-valley/7966-n-oracle-rd", "brand": "UPS Store"}, "geometry": {"type": "Point", "coordinates": [-110.97313465745155, 32.3510351970779]}},
{"type": "Feature", "id": "sBlpHkvzGhaio1z4voYRLKBJA-E=", "properties": {"ref": "3690", "@spider": "upsstore", "addr:full": "2733 N Power Road Ste 102", "addr:city": "Mesa", "addr:state": "AZ", "addr:postcode": "85215", "addr:country": "US", "name": "N Power Road", "phone": "(480) 641-1744", "website": "https://locations.theupsstore.com/az/mesa/2733-n-power-road", "brand": "UPS Store"}, "geometry": {"type": "Point", "coordinates": [-111.6822492, 33.4655205]}},
{"type": "Feature", "id": "HS0UKOpp0TVD_MFPe_IYMqUwhzc=", "properties": {"ref": "4930", "@spider": "upsstore", "addr:full": "4904 S Power Rd Ste 103", "addr:city": "Mesa", "addr:state": "AZ", "addr:postcode": "85212", "addr:country": "US", "name": "S Power Rd", "phone": "(480) 603-1130", "website": "https://locations.theupsstore.com/az/mesa/4904-s-power-rd", "brand": "UPS Store"}, "geometry": {"type": "Point", "coordinates": [-111.68854408781044, 33.32696939347702]}},
{"type": "Feature", "id": "7Bg1T32xfJrr_Vscaqa7-i9BdOs=", "properties": {"ref": "0039", "@spider": "upsstore", "addr:full": "550 W Baseline Road Ste 102", "addr:city": "Mesa", "addr:state": "AZ", "addr:postcode": "85210", "addr:country": "US", "name": "W Baseline Road", "phone": "(480) 964-1001", "website": "https://locations.theupsstore.com/az/mesa/550-w-baseline-road", "brand": "UPS Store"}, "geometry": {"type": "Point", "coordinates": [-111.8428652, 33.3802944]}},
{"type": "Feature", "id": "X3dx2HVltH7DuaVWnGrTPXPsM_o=", "properties": {"ref": "6880", "@spider": "upsstore", "addr:full": "9452 Telephone Rd", "addr:city": "Ventura", "addr:state": "CA", "addr:postcode": "93004", "addr:country": "US", "name": "Central Plaza Shopping Center", "phone": "(805) 659-1883", "website": "https://locations.theupsstore.com/ca/ventura/9452-telephone-rd", "brand": "UPS Store"}, "geometry": {"type": "Point", "coordinates": [-119.169989, 34.2712859]}},
{"type": "Feature", "id": "4dwjhU_DcGDUBtcGZ6Yrqin8EOI=", "properties": {"ref": "1151", "@spider": "upsstore", "addr:full": "17216 Saticoy St", "addr:city": "Van Nuys", "addr:state": "CA", "addr:postcode": "91406", "addr:country": "US", "name": "Lake Balboa", "phone": "(818) 774-9095", "website": "https://locations.theupsstore.com/ca/van-nuys/17216-saticoy-st", "brand": "UPS Store"}, "geometry": {"type": "Point", "coordinates": [-118.5080436, 34.2074893]}},
{"type": "Feature", "id": "uK7BTP69KkNe7ANegJECU1Kww8Q=", "properties": {"ref": "5197", "@spider": "upsstore", "addr:full": "6311 Van Nuys Blvd", "addr:city": "Van Nuys", "addr:state": "CA", "addr:postcode": "91401", "addr:country": "US", "name": "Van Nuys", "phone": "(818) 781-9000", "website": "https://locations.theupsstore.com/ca/van-nuys/6311-van-nuys-blvd", "brand": "UPS Store"}, "geometry": {"type": "Point", "coordinates": [-118.4490883, 34.1850658]}},
{"type": "Feature", "id": "fFuLeQK8UqbzJgnxLV7zZIQEI7s=", "properties": {"ref": "6587", "@spider": "upsstore", "addr:full": "4744 Telephone Rd Ste 3", "addr:city": "Ventura", "addr:state": "CA", "addr:postcode": "93003", "addr:country": "US", "name": "Ventura", "phone": "(805) 535-4053", "website": "https://locations.theupsstore.com/ca/ventura/4744-telephone-rd", "brand": "UPS Store"}, "geometry": {"type": "Point", "coordinates": [-119.2332096, 34.2594717]}},
{"type": "Feature", "id": "f0_-Ady8A9LyVR2lhK40LBOO8sM=", "properties": {"ref": "1523", "@spider": "upsstore", "addr:full": "2143 Springs Road Ste 55", "addr:city": "Vallejo", "addr:state": "CA", "addr:postcode": "94591", "addr:country": "US", "name": "Springstowne Center In Vallejo", "phone": "(707) 554-2628", "website": "https://locations.theupsstore.com/ca/vallejo/2143-springs-road", "brand": "UPS Store"}, "geometry": {"type": "Point", "coordinates": [-122.21633702516556, 38.105136855315735]}},
{"type": "Feature", "id": "OEOkWAS5nTNIk23wG3u4rE2cmZA=", "properties": {"ref": "1129", "@spider": "upsstore", "addr:full": "3505 Sonoma Blvd Ste 20", "addr:city": "Vallejo", "addr:state": "CA", "addr:postcode": "94590", "addr:country": "US", "name": "Vallejo", "phone": "(707) 648-1161", "website": "https://locations.theupsstore.com/ca/vallejo/3505-sonoma-blvd", "brand": "UPS Store"}, "geometry": {"type": "Point", "coordinates": [-122.2571483336128, 38.1221049362254]}},
{"type": "Feature", "id": "ACSsIFVL8ALKfnIebvS8Co-HmQI=", "properties": {"ref": "0385", "@spider": "upsstore", "addr:full": "24307 Magic Mountain Pkwy", "addr:city": "Valencia", "addr:state": "CA", "addr:postcode": "91355", "addr:country": "US", "name": "Valencia", "phone": "(661) 253-0133", "website": "https://locations.theupsstore.com/ca/valencia/24307-magic-mountain-pkwy", "brand": "UPS Store"}, "geometry": {"type": "Point", "coordinates": [-118.5594414, 34.4202962]}},
{"type": "Feature", "id": "ovg84szChFhEHTRJRpXWUfxlabk=", "properties": {"ref": "1168", "@spider": "upsstore", "addr:full": "607 Elmira Rd", "addr:city": "Vacaville", "addr:state": "CA", "addr:postcode": "95687", "addr:country": "US", "name": "Regency Park Plaza", "phone": "(707) 451-4623", "website": "https://locations.theupsstore.com/ca/vacaville/607-elmira-rd", "brand": "UPS Store"}, "geometry": {"type": "Point", "coordinates": [-121.95251286776511, 38.353136853408685]}},
{"type": "Feature", "id": "laXI5NZTE2Dw-yl5qgqeuXXk1r4=", "properties": {"ref": "4155", "@spider": "upsstore", "addr:full": "2010-A Harbison Dr", "addr:city": "Vacaville", "addr:state": "CA", "addr:postcode": "95687", "addr:country": "US", "name": "Vacaville Commons Shopping Center", "phone": "(707) 447-0623", "website": "https://locations.theupsstore.com/ca/vacaville/2010-a-harbison-dr", "brand": "UPS Store"}, "geometry": {"type": "Point", "coordinates": [-121.96344414356639, 38.36274338727908]}},
{"type": "Feature", "id": "nEw43yaoYU58O08hVEt-EnAdRVw=", "properties": {"ref": "5438", "@spider": "upsstore", "addr:full": "23890 Copper Hill Dr", "addr:city": "Valencia", "addr:state": "CA", "addr:postcode": "91354", "addr:country": "US", "name": "Valencia", "phone": "(661) 702-8325", "website": "https://locations.theupsstore.com/ca/valencia/23890-copper-hill-dr", "brand": "UPS Store"}, "geometry": {"type": "Point", "coordinates": [-118.5582412860822, 34.462509053035994]}},
{"type": "Feature", "id": "_ip7Siqi3s826lmzOji4SCpN_mw=", "properties": {"ref": "2068", "@spider": "upsstore", "addr:full": "1746F S Victoria Ave", "addr:city": "Ventura", "addr:state": "CA", "addr:postcode": "93003", "addr:country": "US", "name": "Ventura", "phone": "(805) 642-5573", "website": "https://locations.theupsstore.com/ca/ventura/1746f-s-victoria-ave", "brand": "UPS Store"}, "geometry": {"type": "Point", "coordinates": [-119.2085868, 34.2593363]}},
{"type": "Feature", "id": "2ggvjntGz_YFJDotD6dt9HNVPTI=", "properties": {"ref": "3802", "@spider": "upsstore", "addr:full": "35 W Main St Ste B", "addr:city": "Ventura", "addr:state": "CA", "addr:postcode": "93001", "addr:country": "US", "name": "Ventura", "phone": "(805) 643-6245", "website": "https://locations.theupsstore.com/ca/ventura/35-w-main-st", "brand": "UPS Store"}, "geometry": {"type": "Point", "coordinates": [-119.3010232, 34.2820398]}},
{"type": "Feature", "id": "HnZViR4h5JekDFMjtaGePiuRNLo=", "properties": {"ref": "3950", "@spider": "upsstore", "addr:full": "9221 E Baseline Rd Ste 109", "addr:city": "Mesa", "addr:state": "AZ", "addr:postcode": "85209", "addr:country": "US", "name": "Albertson Shopping Center", "phone": "(480) 380-0700", "website": "https://locations.theupsstore.com/az/mesa/9221-e-baseline-rd", "brand": "UPS Store"}, "geometry": {"type": "Point", "coordinates": [-111.63447394967079, 33.377439313715065]}},
{"type": "Feature", "id": "c_SiQ1dnlvUwP--jBSQo1V5bIfk=", "properties": {"ref": "3710", "@spider": "upsstore", "addr:full": "5235 E Southern #D106", "addr:city": "Mesa", "addr:state": "AZ", "addr:postcode": "85206", "addr:country": "US", "name": "E Southern", "phone": "(480) 813-1311", "website": "https://locations.theupsstore.com/az/mesa/5235-e-southern", "brand": "UPS Store"}, "geometry": {"type": "Point", "coordinates": [-111.7174643, 33.3922747]}},
{"type": "Feature", "id": "gvUBuMwlSyPkpAP6yBUT09O0Vnc=", "properties": {"ref": "4040", "@spider": "upsstore", "addr:full": "1959 S Power Rd #103", "addr:city": "Mesa", "addr:state": "AZ", "addr:postcode": "85206", "addr:country": "US", "name": "S Power Rd", "phone": "(480) 396-4700", "website": "https://locations.theupsstore.com/az/mesa/1959-s-power-rd", "brand": "UPS Store"}, "geometry": {"type": "Point", "coordinates": [-111.6874037, 33.3798969]}},
{"type": "Feature", "id": "49LTJEFLJZxHYRLIhyPEg5919x8=", "properties": {"ref": "0747", "@spider": "upsstore", "addr:full": "6040 E Main St", "addr:city": "Mesa", "addr:state": "AZ", "addr:postcode": "85205", "addr:country": "US", "name": "E Main St", "phone": "(480) 981-3881", "website": "https://locations.theupsstore.com/az/mesa/6040-e-main-st", "brand": "UPS Store"}, "geometry": {"type": "Point", "coordinates": [-111.69992991168334, 33.41701020626087]}},
{"type": "Feature", "id": "hvzq8U1-c73ZzlNu8QHh-gLtdVI=", "properties": {"ref": "1320", "@spider": "upsstore", "addr:full": "2753 E Broadway Rd #101", "addr:city": "Mesa", "addr:state": "AZ", "addr:postcode": "85204", "addr:country": "US", "name": "E Broadway Rd", "phone": "(480) 962-8616", "website": "https://locations.theupsstore.com/az/mesa/2753-e-broadway-rd", "brand": "UPS Store"}, "geometry": {"type": "Point", "coordinates": [-111.771697, 33.406671]}},
{"type": "Feature", "id": "Lu7yIvv2UoWv1-8I6dSRIOAoEvs=", "properties": {"ref": "5740", "@spider": "upsstore", "addr:full": "2036 N Gilbert Rd Ste 2", "addr:city": "Mesa", "addr:state": "AZ", "addr:postcode": "85203", "addr:country": "US", "name": "N Gilbert Rd", "phone": "(480) 892-4445", "website": "https://locations.theupsstore.com/az/mesa/2036-n-gilbert-rd", "brand": "UPS Store"}, "geometry": {"type": "Point", "coordinates": [-111.78956709325416, 33.45287299999999]}},
{"type": "Feature", "id": "wpuhis4Xl9GwO5pZIzB-4hJlPbY=", "properties": {"ref": "5060", "@spider": "upsstore", "addr:full": "1955 West Baseline Rd Ste 113", "addr:city": "Mesa", "addr:state": "AZ", "addr:postcode": "85202", "addr:country": "US", "name": "West Baseline Rd", "phone": "(480) 889-0752", "website": "https://locations.theupsstore.com/az/mesa/1955-west-baseline-rd", "brand": "UPS Store"}, "geometry": {"type": "Point", "coordinates": [-111.8772295, 33.3774728]}},
{"type": "Feature", "id": "J7PUhd2S9kmFOUum_c5xh_lUnU0=", "properties": {"ref": "3110", "@spider": "upsstore", "addr:full": "1225 W Main St Ste 101", "addr:city": "Mesa", "addr:state": "AZ", "addr:postcode": "85201", "addr:country": "US", "name": "W Main St", "phone": "(480) 964-9870", "website": "https://locations.theupsstore.com/az/mesa/1225-w-main-st", "brand": "UPS Store"}, "geometry": {"type": "Point", "coordinates": [-111.8575007, 33.4132617]}},
{"type": "Feature", "id": "s8yi5wS9fx0AJ0riR-PH96xXd2s=", "properties": {"ref": "5880", "@spider": "upsstore", "addr:full": "24654 N Lake Pleasant Pkwy Ste 103", "addr:city": "Peoria", "addr:state": "AZ", "addr:postcode": "85383", "addr:country": "US", "name": "Peoria", "phone": "(623) 825-1522", "website": "https://locations.theupsstore.com/az/peoria/24654-n-lake-pleasant-pkwy", "brand": "UPS Store"}, "geometry": {"type": "Point", "coordinates": [-112.2731169, 33.7076086]}},
{"type": "Feature", "id": "fuENI6zuv-IqSitQB9AHtq6gmYs=", "properties": {"ref": "4120", "@spider": "upsstore", "addr:full": "3120 W Carefree Hwy Ste 1", "addr:city": "Phoenix", "addr:state": "AZ", "addr:postcode": "85086", "addr:country": "US", "name": "W Carefree Hwy", "phone": "(623) 434-7670", "website": "https://locations.theupsstore.com/az/phoenix/3120-w-carefree-hwy", "brand": "UPS Store"}, "geometry": {"type": "Point", "coordinates": [-112.12641589724171, 33.79969348445445]}},
{"type": "Feature", "id": "kD94GyEBhzg0RouLDfClguWK9dA=", "properties": {"ref": "0565", "@spider": "upsstore", "addr:full": "16845 N 29th Ave Ste 1", "addr:city": "Phoenix", "addr:state": "AZ", "addr:postcode": "85053", "addr:country": "US", "name": "N 29th Ave", "phone": "(602) 863-2181", "website": "https://locations.theupsstore.com/az/phoenix/16845-n-29th-ave", "brand": "UPS Store"}, "geometry": {"type": "Point", "coordinates": [-112.1209843, 33.6387817]}},
{"type": "Feature", "id": "5SD8uLBhErr_O80Pi3b_-UyYO7c=", "properties": {"ref": "4870", "@spider": "upsstore", "addr:full": "3039 West Peoria Ave Ste 102", "addr:city": "Phoenix", "addr:state": "AZ", "addr:postcode": "85051", "addr:country": "US", "name": "West Peoria Ave", "phone": "(602) 870-3887", "website": "https://locations.theupsstore.com/az/phoenix/3039-west-peoria-ave", "brand": "UPS Store"}, "geometry": {"type": "Point", "coordinates": [-112.12514567540347, 33.581420203146976]}},
{"type": "Feature", "id": "eEqyB1J-uRIpmymb1EPDGTeoqrM=", "properties": {"ref": "4350", "@spider": "upsstore", "addr:full": "21001 N Tatum Blvd Ste 1630", "addr:city": "Phoenix", "addr:state": "AZ", "addr:postcode": "85050", "addr:country": "US", "name": "N Tatum Blvd", "phone": "(480) 513-4990", "website": "https://locations.theupsstore.com/az/phoenix/21001-n-tatum-blvd", "brand": "UPS Store"}, "geometry": {"type": "Point", "coordinates": [-111.97470254232786, 33.67924321583812]}},
{"type": "Feature", "id": "TrzvXx-cyywUQBrxwPbYEA2BerI=", "properties": {"ref": "3800", "@spider": "upsstore", "addr:full": "3145 E Chandler Blvd Ste 110", "addr:city": "Phoenix", "addr:state": "AZ", "addr:postcode": "85048", "addr:country": "US", "name": "Plaza Ahwatukee Foothills", "phone": "(480) 704-1171", "website": "https://locations.theupsstore.com/az/phoenix/3145-e-chandler-blvd", "brand": "UPS Store"}, "geometry": {"type": "Point", "coordinates": [-112.0159009611234, 33.30451623355806]}},
{"type": "Feature", "id": "eT_gL_CJ6sr1WvMmU2_8I17HZsc=", "properties": {"ref": "4940", "@spider": "upsstore", "addr:full": "2632 S 83rd Ave #100", "addr:city": "Phoenix", "addr:state": "AZ", "addr:postcode": "85043", "addr:country": "US", "name": "S 83rd Ave", "phone": "(623) 907-4448", "website": "https://locations.theupsstore.com/az/phoenix/2632-s-83rd-ave", "brand": "UPS Store"}, "geometry": {"type": "Point", "coordinates": [-112.2400301, 33.4236419]}},
{"type": "Feature", "id": "ZzkPuAUnsfxaEvZdYXerV9PpIDY=", "properties": {"ref": "2060", "@spider": "upsstore", "addr:full": "4802 E Ray Rd Ste 23", "addr:city": "Phoenix", "addr:state": "AZ", "addr:postcode": "85044", "addr:country": "US", "name": "Foothills Park Place Shopping Center", "phone": "(480) 496-8500", "website": "https://locations.theupsstore.com/az/phoenix/4802-e-ray-rd", "brand": "UPS Store"}, "geometry": {"type": "Point", "coordinates": [-111.9795394, 33.3205063]}},
{"type": "Feature", "id": "5TPktEthuHAoj2f4jpKoPqb5dZM=", "properties": {"ref": "4850", "@spider": "upsstore", "addr:full": "2320 E Baseline Rd", "addr:city": "Phoenix", "addr:state": "AZ", "addr:postcode": "85042", "addr:country": "US", "name": "E Baseline Rd", "phone": "(602) 889-8888", "website": "https://locations.theupsstore.com/az/phoenix/2320-e-baseline-rd", "brand": "UPS Store"}, "geometry": {"type": "Point", "coordinates": [-112.03107610344887, 33.37937673442474]}},
{"type": "Feature", "id": "iTimb2DN1GaTsCs4Zc274ZQzUY8=", "properties": {"ref": "5910", "@spider": "upsstore", "addr:full": "2030 W Baseline Rd", "addr:city": "Phoenix", "addr:state": "AZ", "addr:postcode": "85041", "addr:country": "US", "name": "W Baseline Rd", "phone": "(602) 268-9399", "website": "https://locations.theupsstore.com/az/phoenix/2030-w-baseline-rd", "brand": "UPS Store"}, "geometry": {"type": "Point", "coordinates": [-112.10327093373053, 33.37840687457205]}},
{"type": "Feature", "id": "HmEZUrdcE3xUrPw62kPLB1_7l8s=", "properties": {"ref": "4400", "@spider": "upsstore", "addr:full": "7558 W Thunderbird Rd Ste 1", "addr:city": "Peoria", "addr:state": "AZ", "addr:postcode": "85381", "addr:country": "US", "name": "Peoria", "phone": "(623) 979-2710", "website": "https://locations.theupsstore.com/az/peoria/7558-w-thunderbird-rd", "brand": "UPS Store"}, "geometry": {"type": "Point", "coordinates": [-112.2215768, 33.6116209]}},
{"type": "Feature", "id": "eAJiZUyMfw-B0vwlr2kKkct_31Y=", "properties": {"ref": "4580", "@spider": "upsstore", "addr:full": "8877 N 107th Ave Ste 302", "addr:city": "Peoria", "addr:state": "AZ", "addr:postcode": "85345", "addr:country": "US", "name": "Peoria", "phone": "(623) 875-3070", "website": "https://locations.theupsstore.com/az/peoria/8877-n-107th-ave", "brand": "UPS Store"}, "geometry": {"type": "Point", "coordinates": [-112.2876697, 33.5642791]}},
{"type": "Feature", "id": "D1fEuuCfsg4jjeLvP_VBXg57IKY=", "properties": {"ref": "3670", "@spider": "upsstore", "addr:full": "4727 E Bell Rd Ste 45", "addr:city": "Phoenix", "addr:state": "AZ", "addr:postcode": "85032", "addr:country": "US", "name": "E Bell Rd", "phone": "(602) 867-7632", "website": "https://locations.theupsstore.com/az/phoenix/4727-e-bell-rd", "brand": "UPS Store"}, "geometry": {"type": "Point", "coordinates": [-111.9787694, 33.6386049]}},
{"type": "Feature", "id": "BO9ns20w3J29W6XwlWVUjWi22CE=", "properties": {"ref": "3760", "@spider": "upsstore", "addr:full": "13835 N Tatum Blvd Ste 9", "addr:city": "Phoenix", "addr:state": "AZ", "addr:postcode": "85032", "addr:country": "US", "name": "N Tatum Blvd", "phone": "(602) 867-9393", "website": "https://locations.theupsstore.com/az/phoenix/13835-n-tatum-blvd", "brand": "UPS Store"}, "geometry": {"type": "Point", "coordinates": [-111.97630405426025, 33.61278988076135]}},
{"type": "Feature", "id": "_AIT6SAF0Xrq8ptGmskswD4lg9o=", "properties": {"ref": "4910", "@spider": "upsstore", "addr:full": "3317 E Bell Rd Ste 101", "addr:city": "Phoenix", "addr:state": "AZ", "addr:postcode": "85032", "addr:country": "US", "name": "E Bell Rd", "phone": "(602) 252-7447", "website": "https://locations.theupsstore.com/az/phoenix/3317-e-bell-rd", "brand": "UPS Store"}, "geometry": {"type": "Point", "coordinates": [-112.0110178068444, 33.64017278868442]}},
{"type": "Feature", "id": "RIrU7fUFMXqFs0DcvPW-bTxsOsw=", "properties": {"ref": "2770", "@spider": "upsstore", "addr:full": "10645 N Tatum Blvd Ste 200", "addr:city": "Phoenix", "addr:state": "AZ", "addr:postcode": "85028", "addr:country": "US", "name": "Paradise Village Gateway Shopping Center", "phone": "(480) 483-2220", "website": "https://locations.theupsstore.com/az/phoenix/10645-n-tatum-blvd", "brand": "UPS Store"}, "geometry": {"type": "Point", "coordinates": [-111.9743019, 33.5836146]}},
{"type": "Feature", "id": "ktd3mDcLz7LtxbNiZuCK6WCWYXY=", "properties": {"ref": "4960", "@spider": "upsstore", "addr:full": "3241 E Shea Blvd Ste 1", "addr:city": "Phoenix", "addr:state": "AZ", "addr:postcode": "85028", "addr:country": "US", "name": "E Shea Blvd", "phone": "(602) 889-0851", "website": "https://locations.theupsstore.com/az/phoenix/3241-e-shea-blvd", "brand": "UPS Store"}, "geometry": {"type": "Point", "coordinates": [-112.0115409, 33.58191740000001]}},
{"type": "Feature", "id": "WfaHhODgDGGzsX7s5uEmS-h0XEA=", "properties": {"ref": "5940", "@spider": "upsstore", "addr:full": "625 W Deer Valley Dr Ste 103", "addr:city": "Phoenix", "addr:state": "AZ", "addr:postcode": "85027", "addr:country": "US", "name": "W Deer Valley Dr", "phone": "(623) 516-8454", "website": "https://locations.theupsstore.com/az/phoenix/625-w-deer-valley-dr", "brand": "UPS Store"}, "geometry": {"type": "Point", "coordinates": [-112.08213974603268, 33.68306475320089]}},
{"type": "Feature", "id": "VnxdS6qplB41su3p6GAVJAeSdJI=", "properties": {"ref": "4750", "@spider": "upsstore", "addr:full": "18631 North 19th Ave Ste 158", "addr:city": "Phoenix", "addr:state": "AZ", "addr:postcode": "85027", "addr:country": "US", "name": "North 19th Ave", "phone": "(623) 869-7474", "website": "https://locations.theupsstore.com/az/phoenix/18631-north-19th-ave", "brand": "UPS Store"}, "geometry": {"type": "Point", "coordinates": [-112.0977368, 33.6551134]}},
{"type": "Feature", "id": "SsRDdrBqrC6fVrB2JcYTwfEsh0g=", "properties": {"ref": "5620", "@spider": "upsstore", "addr:full": "20235 N Cave Creek Rd Ste 104", "addr:city": "Phoenix", "addr:state": "AZ", "addr:postcode": "85024", "addr:country": "US", "name": "N Cave Creek Rd", "phone": "(602) 867-8771", "website": "https://locations.theupsstore.com/az/phoenix/20235-n-cave-creek-rd", "brand": "UPS Store"}, "geometry": {"type": "Point", "coordinates": [-112.0301269, 33.6715349]}},
{"type": "Feature", "id": "ybmzKIIDVQXsAOx6GHTFINxrqC4=", "properties": {"ref": "0273", "@spider": "upsstore", "addr:full": "610 E Bell Rd #2", "addr:city": "Phoenix", "addr:state": "AZ", "addr:postcode": "85022", "addr:country": "US", "name": "E Bell Rd", "phone": "(602) 863-6694", "website": "https://locations.theupsstore.com/az/phoenix/610-e-bell-rd", "brand": "UPS Store"}, "geometry": {"type": "Point", "coordinates": [-112.0666371, 33.6417254]}},
{"type": "Feature", "id": "bndxs0TRiDBLgxwiPEBx1iKF0sk=", "properties": {"ref": "4010", "@spider": "upsstore", "addr:full": "428 E Thunderbird Road", "addr:city": "Phoenix", "addr:state": "AZ", "addr:postcode": "85022", "addr:country": "US", "name": "E Thunderbird Road", "phone": "(602) 548-5512", "website": "https://locations.theupsstore.com/az/phoenix/428-e-thunderbird-road", "brand": "UPS Store"}, "geometry": {"type": "Point", "coordinates": [-112.06679590861313, 33.60819604234846]}},
{"type": "Feature", "id": "LiGeV62hQYZyeul361_YbDxXWHc=", "properties": {"ref": "5340", "@spider": "upsstore", "addr:full": "8050 N 19th Ave", "addr:city": "Phoenix", "addr:state": "AZ", "addr:postcode": "85021", "addr:country": "US", "name": "N 19th Ave", "phone": "(602) 864-3646", "website": "https://locations.theupsstore.com/az/phoenix/8050-n-19th-ave", "brand": "UPS Store"}, "geometry": {"type": "Point", "coordinates": [-112.10065501934878, 33.55515979143011]}},
{"type": "Feature", "id": "nUO31dYFH1ltaN9KyobIG67Xlis=", "properties": {"ref": "4210", "@spider": "upsstore", "addr:full": "111 E Dunlap Ave Ste 1", "addr:city": "Phoenix", "addr:state": "AZ", "addr:postcode": "85020", "addr:country": "US", "name": "E Dunlap Ave", "phone": "(602) 997-7880", "website": "https://locations.theupsstore.com/az/phoenix/111-e-dunlap-ave", "brand": "UPS Store"}, "geometry": {"type": "Point", "coordinates": [-112.0725872, 33.5667488]}},
{"type": "Feature", "id": "SZDnrhVVh56cvW0wVaf5hSoIgD0=", "properties": {"ref": "7135", "@spider": "upsstore", "addr:full": "11111 North 7th Street", "addr:city": "Phoenix", "addr:state": "AZ", "addr:postcode": "85020", "addr:country": "US", "name": "Phoenix", "phone": "(602) 375-4680", "website": "https://locations.theupsstore.com/az/phoenix/11111-north-7th-street", "brand": "UPS Store"}, "geometry": {"type": "Point", "coordinates": [-112.064005, 33.595061]}},
{"type": "Feature", "id": "Ci9alnkYdyYwoXqjd8TD-TaKYOA=", "properties": {"ref": "1810", "@spider": "upsstore", "addr:full": "7000 N 16th St Ste 120", "addr:city": "Phoenix", "addr:state": "AZ", "addr:postcode": "85020", "addr:country": "US", "name": "N 16th St", "phone": "(602) 331-1111", "website": "https://locations.theupsstore.com/az/phoenix/7000-n-16th-st", "brand": "UPS Store"}, "geometry": {"type": "Point", "coordinates": [-112.0480764, 33.5390381]}},
{"type": "Feature", "id": "EVfcrLXeC6Fs0wsWpOUejNoxONU=", "properties": {"ref": "4080", "@spider": "upsstore", "addr:full": "4340 E Indian School Ste 21", "addr:city": "Phoenix", "addr:state": "AZ", "addr:postcode": "85018", "addr:country": "US", "name": "E Indian School", "phone": "(602) 765-4456", "website": "https://locations.theupsstore.com/az/phoenix/4340-e-indian-school", "brand": "UPS Store"}, "geometry": {"type": "Point", "coordinates": [-111.9880548119545, 33.495774449500246]}},