{"type":"FeatureCollection","features":[{"type": "Feature", "id": "zYx-LRuAYE4N8KMK5IZ9D66xUEs=", "properties": {"ref": "1016", "@spider": "whsmith_uk", "addr:full": "1 Cibi Walk", "addr:city": "Abergavenny", "addr:postcode": "NP7 5AG", "addr:country": "GB", "name": "WHSmith, Cibi Walk, Abergavenny", "phone": "01873 859333", "website": "https://www.whsmith.co.uk/stores/details/?StoreID=1016", "opening_hours": "Mo-Sa 08:00-18:30; Su 10:30-18:00"}, "geometry": {"type": "Point", "coordinates": [-3.019561, 51.823372]}},
{"type": "Feature", "id": "k82J2APIf_VdOZzzxipHFRkp3tw=", "properties": {"ref": "1024", "@spider": "whsmith_uk", "addr:full": "36 Terrace Road", "addr:city": "Aberystwyth", "addr:postcode": "SY23 2AB", "addr:country": "GB", "name": "WHSmith, Terrace Road, Aberystwyth", "phone": "01970 611330", "website": "https://www.whsmith.co.uk/stores/details/?StoreID=1024", "opening_hours": "Mo-Sa 08:00-18:30; Su 10:30-18:00"}, "geometry": {"type": "Point", "coordinates": [-4.083433, 52.415797]}},
{"type": "Feature", "id": "hssjSMw7vYj4i7tHxjGOaSF5-q8=", "properties": {"ref": "1038", "@spider": "whsmith_uk", "addr:full": "St Nicholas Shopping Centre", "addr:city": "Aberdeen", "addr:postcode": "AB10 1HW", "addr:country": "GB", "name": "WHSmith, St Nicholas Centre, Aberdeen", "phone": "01224 647301", "website": "https://www.whsmith.co.uk/stores/details/?StoreID=1038", "opening_hours": "Mo-Sa 08:00-18:30; Su 10:30-18:00"}, "geometry": {"type": "Point", "coordinates": [-2.098496, 57.147995]}},
{"type": "Feature", "id": "-w_AoL6AgxJ-q1Oce4mqEkE5n1I=", "properties": {"ref": "1052", "@spider": "whsmith_uk", "addr:full": "Ninewells Hospital", "addr:city": "Dundee ", "addr:postcode": "DD1 9SY", "addr:country": "GB", "name": "WHSmith, Ninewells Hospital, Dundee", "phone": "01382 668002", "website": "https://www.whsmith.co.uk/stores/details/?StoreID=1052", "opening_hours": "Mo-Sa 08:00-18:30; Su 10:30-18:00"}, "geometry": {"type": "Point", "coordinates": [-3.040236, 56.464115]}},
{"type": "Feature", "id": "VE8dk1pUmHwj8gdRARxf_eo8ii0=", "properties": {"ref": "1074", "@spider": "whsmith_uk", "addr:full": "The Wellington Shopping Centre", "addr:city": "Aldershot", "addr:postcode": "GU11 1DB", "addr:country": "GB", "name": "WHSmith, The Wellington Centre, Aldershot", "phone": "01252 313915", "website": "https://www.whsmith.co.uk/stores/details/?StoreID=1074", "opening_hours": "Mo-Sa 08:00-18:30; Su 10:30-18:00"}, "geometry": {"type": "Point", "coordinates": [-0.762713, 51.248244]}},
{"type": "Feature", "id": "yQ0MtwVgJjf7DBCB9jv_92DbZNQ=", "properties": {"ref": "1076", "@spider": "whsmith_uk", "addr:full": "408 - 412 Union Street", "addr:city": "Aberdeen", "addr:postcode": "AB10 1PD", "addr:country": "GB", "name": "WHSmith, Union Street, Aberdeen", "phone": "01224 639806", "website": "https://www.whsmith.co.uk/stores/details/?StoreID=1076", "opening_hours": "Mo-Sa 08:00-18:30; Su 10:30-18:00"}, "geometry": {"type": "Point", "coordinates": [-2.109284, 57.143734]}},
{"type": "Feature", "id": "1gbK5yVPSYgxcWZCQhWSdTLEVP8=", "properties": {"ref": "1078", "@spider": "whsmith_uk", "addr:full": "13 - 14 Bury Street", "addr:city": "Abingdon", "addr:postcode": "OX14 3QX", "addr:country": "GB", "name": "WHSmith, Bury Street, Abingdon", "phone": "01235 532992", "website": "https://www.whsmith.co.uk/stores/details/?StoreID=1078", "opening_hours": "Mo-Sa 08:00-18:30; Su 10:30-18:00"}, "geometry": {"type": "Point", "coordinates": [-1.282434, 51.670802]}},
{"type": "Feature", "id": "dbOzi7PkjgUfZptJEdTzPyjWQhs=", "properties": {"ref": "1086", "@spider": "whsmith_uk", "addr:full": "60 - 62 Graham Street", "addr:city": "Airdrie", "addr:postcode": "ML6 6BU", "addr:country": "GB", "name": "WHSmith, Graham Street, Airdrie", "phone": "01236 753384", "website": "https://www.whsmith.co.uk/stores/details/?StoreID=1086", "opening_hours": "Mo-Sa 08:00-18:30; Su 10:30-18:00"}, "geometry": {"type": "Point", "coordinates": [-3.978252, 55.866191]}},
{"type": "Feature", "id": "rKzYmwkJjs6My4iogEun4YcdWig=", "properties": {"ref": "1088", "@spider": "whsmith_uk", "addr:full": "44 The Square", "addr:city": "Aldridge", "addr:postcode": "WS9 8QS", "addr:country": "GB", "name": "WHSmith, The Square, Aldridge", "phone": "01922 451023", "website": "https://www.whsmith.co.uk/stores/details/?StoreID=1088", "opening_hours": "Mo-Sa 08:00-18:30; Su 10:30-18:00"}, "geometry": {"type": "Point", "coordinates": [-1.916503, 52.604246]}},
{"type": "Feature", "id": "NgDMHwhkAsjb6lFjSxklLPF9SEc=", "properties": {"ref": "1092", "@spider": "whsmith_uk", "addr:full": "56 Bondgate Within", "addr:city": "Alnwick", "addr:postcode": "NE66 1JD", "addr:country": "GB", "name": "WHSmith, Bondgate Within, Alnwick", "phone": "01665 604860", "website": "https://www.whsmith.co.uk/stores/details/?StoreID=1092", "opening_hours": "Mo-Sa 08:00-18:30; Su 10:30-18:00"}, "geometry": {"type": "Point", "coordinates": [-1.707147, 55.414022]}},
{"type": "Feature", "id": "cCf9r8gqo0JeSNWjkHgVIO-Rts4=", "properties": {"ref": "1094", "@spider": "whsmith_uk", "addr:full": "14 Cornhill", "addr:city": "Accrington", "addr:postcode": "BB5 1EX", "addr:country": "GB", "name": "WHSmith, Cornhill, Accrington", "phone": "01254 231512", "website": "https://www.whsmith.co.uk/stores/details/?StoreID=1094", "opening_hours": "Mo-Sa 08:00-18:30; Su 10:30-18:00"}, "geometry": {"type": "Point", "coordinates": [-2.365375, 53.754492]}},
{"type": "Feature", "id": "RHY6cDcWYRezT1qAl8cX_1I-qPM=", "properties": {"ref": "1098", "@spider": "whsmith_uk", "addr:full": "6 - 7 Westbrook Walk", "addr:city": "Alton", "addr:postcode": "GU34 1HZ", "addr:country": "GB", "name": "WHSmith, Westbrook Walk, Alton", "phone": "01420 88507", "website": "https://www.whsmith.co.uk/stores/details/?StoreID=1098", "opening_hours": "Mo-Sa 08:00-18:30; Su 10:30-18:00"}, "geometry": {"type": "Point", "coordinates": [-0.977291, 51.148201]}},
{"type": "Feature", "id": "atF3nmxkgeFlp_k61jlkwJkBNTk=", "properties": {"ref": "1111", "@spider": "whsmith_uk", "addr:full": "Aberdeen Airport", "addr:city": "Aberdeen", "addr:postcode": "AB21 7DU", "addr:country": "GB", "name": "WHSmith, Airside, Aberdeen Airport ", "phone": "01224 729779", "website": "https://www.whsmith.co.uk/stores/details/?StoreID=1111", "opening_hours": "Mo-Sa 08:00-18:30; Su 10:30-18:00"}, "geometry": {"type": "Point", "coordinates": [-2.203099, 57.201705]}},
{"type": "Feature", "id": "U7PgwveDU9cu1ktC4MmgB8C75dM=", "properties": {"ref": "1107", "@spider": "whsmith_uk", "addr:full": "Abbey Wood Station", "addr:city": "Abbey Wood", "addr:postcode": "SE2 9RH", "addr:country": "GB", "name": "WHSmith, Abbey Wood Station, London", "phone": "020 8320 7429", "website": "https://www.whsmith.co.uk/stores/details/?StoreID=1107", "opening_hours": "Mo-Sa 08:00-18:30; Su 10:30-18:00"}, "geometry": {"type": "Point", "coordinates": [0.121262, 51.491064]}},
{"type": "Feature", "id": "Ou9WGlsDhKELmnM_dDMUMkkStEU=", "properties": {"ref": "1106", "@spider": "whsmith_uk", "addr:full": "Institute Lane", "addr:city": "Alfreton", "addr:postcode": "DE55 7BQ", "addr:country": "GB", "name": "WHSmith, Institute Lane, Alfreton", "phone": "01773 520055", "website": "https://www.whsmith.co.uk/stores/details/?StoreID=1106", "opening_hours": "Mo-Sa 08:00-18:30; Su 10:30-18:00"}, "geometry": {"type": "Point", "coordinates": [-1.388236, 53.096862]}},
{"type": "Feature", "id": "TYRfAq2a6oXLFwo_MNABuPjEZ2c=", "properties": {"ref": "1114", "@spider": "whsmith_uk", "addr:full": "8 - 12 George Street", "addr:city": "Altrincham", "addr:postcode": "WA14 1SF", "addr:country": "GB", "name": "WHSmith, George Street, Altrincham", "phone": "0161 928 3745", "website": "https://www.whsmith.co.uk/stores/details/?StoreID=1114", "opening_hours": "Mo-Sa 08:00-18:30; Su 10:30-18:00"}, "geometry": {"type": "Point", "coordinates": [-2.349009, 53.388371]}},
{"type": "Feature", "id": "Car_YFGGsx0hEKZnkgZwVCur7cc=", "properties": {"ref": "1120", "@spider": "whsmith_uk", "addr:full": "48 - 50 Sycamore Road", "addr:city": "Amersham", "addr:postcode": "HP6 5DR", "addr:country": "GB", "name": "WHSmith, Sycamore Road, Amersham", "phone": "01494 721705", "website": "https://www.whsmith.co.uk/stores/details/?StoreID=1120", "opening_hours": "Mo-Sa 08:00-18:30; Su 10:30-18:00"}, "geometry": {"type": "Point", "coordinates": [-0.606337, 51.677534]}},
{"type": "Feature", "id": "WgZ12m8D7vdjcCUv76iET-YsEAY=", "properties": {"ref": "1134", "@spider": "whsmith_uk", "addr:full": "31 High Street", "addr:city": "Andover", "addr:postcode": "SP10 1LJ", "addr:country": "GB", "name": "WHSmith, High Street, Andover", "phone": "01264 363154", "website": "https://www.whsmith.co.uk/stores/details/?StoreID=1134", "opening_hours": "Mo-Sa 08:00-18:30; Su 10:30-18:00"}, "geometry": {"type": "Point", "coordinates": [-1.479291, 51.207157]}},
{"type": "Feature", "id": "34FYy63MBMIIdb5XOrkjf1yuN70=", "properties": {"ref": "1148", "@spider": "whsmith_uk", "addr:full": "53 - 55 Argyle Street", "addr:city": "Glasgow", "addr:postcode": "G2 8AH", "addr:country": "GB", "name": "WHSmith, Argyle Street, Glasgow", "phone": "0141 204 0636", "website": "https://www.whsmith.co.uk/stores/details/?StoreID=1148", "opening_hours": "Mo-Sa 08:00-18:30; Su 10:30-18:00"}, "geometry": {"type": "Point", "coordinates": [-4.25048, 55.857468]}},
{"type": "Feature", "id": "jvPTPJiWyOWyi5W76GWEFN0kZCs=", "properties": {"ref": "1145", "@spider": "whsmith_uk", "addr:full": "Aberdeen Royal Infirmary ", "addr:city": "Aberdeen", "addr:postcode": "AB25 2ZN", "addr:country": "GB", "name": "WHSmith, Aberdeen Royal Infirmary ", "phone": "Unavailable - Customer Services: 0333 6005000", "website": "https://www.whsmith.co.uk/stores/details/?StoreID=1145", "opening_hours": "Mo-Sa 08:00-18:30; Su 10:30-18:00"}, "geometry": {"type": "Point", "coordinates": [-2.137463, 57.154201]}},
{"type": "Feature", "id": "AnNlznnoYR5-9zTJK3Se-Fvjhg8=", "properties": {"ref": "1150", "@spider": "whsmith_uk", "addr:full": "24 - 26 Front Street", "addr:city": "Nottingham", "addr:postcode": "NG5 7EL", "addr:country": "GB", "name": "WHSmith, Front Street, Arnold", "phone": "0115 926 0656", "website": "https://www.whsmith.co.uk/stores/details/?StoreID=1150", "opening_hours": "Mo-Sa 08:00-18:30; Su 10:30-18:00"}, "geometry": {"type": "Point", "coordinates": [-1.129304, 53.002011]}},
{"type": "Feature", "id": "tJv_J84AoerDatTvyTz4N-Mf6pU=", "properties": {"ref": "1152", "@spider": "whsmith_uk", "addr:full": "196 High Street", "addr:city": "Arbroath", "addr:postcode": "DD11 1HY", "addr:country": "GB", "name": "WHSmith, High Street, Arbroath", "phone": "01241 873528", "website": "https://www.whsmith.co.uk/stores/details/?StoreID=1152", "opening_hours": "Mo-Sa 08:00-18:30; Su 10:30-18:00"}, "geometry": {"type": "Point", "coordinates": [-2.583208, 56.560848]}},
{"type": "Feature", "id": "rYM68aXJIaUkU2xSRemAzZuOjTk=", "properties": {"ref": "1160", "@spider": "whsmith_uk", "addr:full": "39 High Street", "addr:city": "Ascot", "addr:postcode": "SL5 7HG", "addr:country": "GB", "name": "WHSmith, High Street, Ascot", "phone": "01344 299790", "website": "https://www.whsmith.co.uk/stores/details/?StoreID=1160", "opening_hours": "Mo-Sa 08:00-18:30; Su 10:30-18:00"}, "geometry": {"type": "Point", "coordinates": [-0.674027, 51.410961]}},
{"type": "Feature", "id": "3jnqlcFDbkHf0bh6ndG-9RxlKvk=", "properties": {"ref": "1170", "@spider": "whsmith_uk", "addr:full": "70 - 72 High Street", "addr:city": "Ashford", "addr:postcode": "TN24 8TB", "addr:country": "GB", "name": "WHSmith, High Street, Ashford", "phone": "01233 646304", "website": "https://www.whsmith.co.uk/stores/details/?StoreID=1170", "opening_hours": "Mo-Sa 08:00-18:30; Su 10:30-18:00"}, "geometry": {"type": "Point", "coordinates": [0.872254, 51.149363]}},
{"type": "Feature", "id": "QZD08lHhmJV5bqFPMjPKLFlpWvY=", "properties": {"ref": "1182", "@spider": "whsmith_uk", "addr:full": "Arcade Shopping Centre", "addr:city": "Ashton-Under-Lyne", "addr:postcode": "OL6 7JE", "addr:country": "GB", "name": "WHSmith, Arcade Shopping Centre, Ashton-Under-Lyne", "phone": "0161 339 7383", "website": "https://www.whsmith.co.uk/stores/details/?StoreID=1182", "opening_hours": "Mo-Sa 08:00-18:30; Su 10:30-18:00"}, "geometry": {"type": "Point", "coordinates": [-2.096672, 53.489249]}},
{"type": "Feature", "id": "Ivd96rXTBu6SeCrlIa9_rK5btuQ=", "properties": {"ref": "1206", "@spider": "whsmith_uk", "addr:full": "27 - 29 High Street", "addr:city": "Aylesbury", "addr:postcode": "HP20 1SH", "addr:country": "GB", "name": "WHSmith, High Street, Aylesbury", "phone": "01296 423284", "website": "https://www.whsmith.co.uk/stores/details/?StoreID=1206", "opening_hours": "Mo-Sa 08:00-18:30; Su 10:30-18:00"}, "geometry": {"type": "Point", "coordinates": [-0.811352, 51.817118]}},
{"type": "Feature", "id": "m7pbW8TogcfV_dam0nGpm-a8ElU=", "properties": {"ref": "1218", "@spider": "whsmith_uk", "addr:full": "198 - 200 High Street", "addr:city": "Ayr", "addr:postcode": "KA7 1RH", "addr:country": "GB", "name": "WHSmith, High Street, Ayr", "phone": "01292 266141", "website": "https://www.whsmith.co.uk/stores/details/?StoreID=1218", "opening_hours": "Mo-Sa 08:00-18:30; Su 10:30-18:00"}, "geometry": {"type": "Point", "coordinates": [-4.628949, 55.461389]}},
{"type": "Feature", "id": "7li9WcEx3AQily14IGGrsg0JXGs=", "properties": {"ref": "1236", "@spider": "whsmith_uk", "addr:full": "Cambridge Railway Station", "addr:city": "Cambridge", "addr:postcode": "CB1 2JH", "addr:country": "GB", "name": "WHSmith, Cambridge Railway Station", "phone": "01223 353120", "website": "https://www.whsmith.co.uk/stores/details/?StoreID=1236", "opening_hours": "Mo-Sa 08:00-18:30; Su 10:30-18:00"}, "geometry": {"type": "Point", "coordinates": [0.137521, 52.194257]}},
{"type": "Feature", "id": "3URSuooMejH5oRI-4Gxoo1fIJow=", "properties": {"ref": "1238", "@spider": "whsmith_uk", "addr:full": "23 - 24 Castle Quay Shopping Centre", "addr:city": "Banbury", "addr:postcode": "OX16 5UE", "addr:country": "GB", "name": "WHSmith, Castle Quay Centre, Banbury", "phone": "01295 256306", "website": "https://www.whsmith.co.uk/stores/details/?StoreID=1238", "opening_hours": "Mo-Sa 08:00-18:30; Su 10:30-18:00"}, "geometry": {"type": "Point", "coordinates": [-1.334871, 52.06261]}},
{"type": "Feature", "id": "2cB979PMV8Cu_c4UZrA0aurPyio=", "properties": {"ref": "1229", "@spider": "whsmith_uk", "addr:full": "A1, Junction 10 Services", "addr:city": "Baldock", "addr:postcode": "SG7 5TR", "addr:country": "GB", "name": "WHSmith, Motorway Services, A1 Junction 10, Baldock", "phone": "01462 733201", "website": "https://www.whsmith.co.uk/stores/details/?StoreID=1229", "opening_hours": "Mo-Sa 08:00-18:30; Su 10:30-18:00"}, "geometry": {"type": "Point", "coordinates": [-0.202393, 52.014392]}},
{"type": "Feature", "id": "kcFNL3wuuSHok_wkMwWpbK2bNXU=", "properties": {"ref": "1244", "@spider": "whsmith_uk", "addr:full": "33 High Street", "addr:city": "Banchory", "addr:postcode": "AB31 5TJ", "addr:country": "GB", "name": "WHSmith, High Street, Banchory", "phone": "01330 822753", "website": "https://www.whsmith.co.uk/stores/details/?StoreID=1244", "opening_hours": "Mo-Sa 08:00-18:30; Su 10:30-18:00"}, "geometry": {"type": "Point", "coordinates": [-2.503971, 57.051453]}},
{"type": "Feature", "id": "Cs31tY6tb4XlcN9RR7d_1knDuyU=", "properties": {"ref": "1248", "@spider": "whsmith_uk", "addr:full": "264 High Street", "addr:city": "Bangor", "addr:postcode": "LL57 1PB", "addr:country": "GB", "name": "WHSmith Stationery, High Street, Bangor", "phone": "01248 370734", "website": "https://www.whsmith.co.uk/stores/details/?StoreID=1248", "opening_hours": "Mo-Sa 08:00-18:30; Su 10:30-18:00"}, "geometry": {"type": "Point", "coordinates": [-4.124835, 53.227108]}},
{"type": "Feature", "id": "tR_Twr0QGQ-pQZekjIpvUZEF9Jk=", "properties": {"ref": "1246", "@spider": "whsmith_uk", "addr:full": "264 High Street", "addr:city": "Bangor", "addr:postcode": "LL57 1NY", "addr:country": "GB", "name": "WHSmith, High Street, Bangor", "phone": "01248 355288", "website": "https://www.whsmith.co.uk/stores/details/?StoreID=1246", "opening_hours": "Mo-Sa 08:00-18:30; Su 10:30-18:00"}, "geometry": {"type": "Point", "coordinates": [-4.125964, 53.226377]}},
{"type": "Feature", "id": "ISMI_IuE-5glbY1f0bACCwZaW1Q=", "properties": {"ref": "1286", "@spider": "whsmith_uk", "addr:full": "111 High Street", "addr:city": "Barnet", "addr:postcode": "EN5 5XY", "addr:country": "GB", "name": "WHSmith, The Spires Centre, Barnet", "phone": "020 8441 8799", "website": "https://www.whsmith.co.uk/stores/details/?StoreID=1286", "opening_hours": "Mo-Sa 08:00-18:30; Su 10:30-18:00"}, "geometry": {"type": "Point", "coordinates": [-0.203157, 51.655342]}},
{"type": "Feature", "id": "_-PRlBosTeCgBKBK-3sUyypjf0Q=", "properties": {"ref": "1316", "@spider": "whsmith_uk", "addr:full": "76 High Street", "addr:city": "Barnstaple", "addr:postcode": "EX31 1HP", "addr:country": "GB", "name": "WHSmith, High Street, Barnstaple", "phone": "01271 342091", "website": "https://www.whsmith.co.uk/stores/details/?StoreID=1316", "opening_hours": "Mo-Sa 08:00-18:30; Su 10:30-18:00"}, "geometry": {"type": "Point", "coordinates": [-4.060325, 51.08036]}},
{"type": "Feature", "id": "ULQ-qmrFgYAKoj9p1AFzR3GJYdM=", "properties": {"ref": "1332", "@spider": "whsmith_uk", "addr:full": "38 - 42 Portland Walk", "addr:city": "Barrow-In-Furness", "addr:postcode": "LA14 1DB", "addr:country": "GB", "name": "WHSmith, Portland Walk, Barrow-In-Furness", "phone": "01229 838727", "website": "https://www.whsmith.co.uk/stores/details/?StoreID=1332", "opening_hours": "Mo-Sa 08:00-18:30; Su 10:30-18:00"}, "geometry": {"type": "Point", "coordinates": [-3.226216, 54.112922]}},
{"type": "Feature", "id": "jYdi8Z8P2LWjqKs3jNMZUT_p54g=", "properties": {"ref": "1338", "@spider": "whsmith_uk", "addr:full": "126 - 128 Holton Road", "addr:city": "Barry", "addr:postcode": "CF63 4HH", "addr:country": "GB", "name": "WHSmith, Holton Road, Barry", "phone": "01446 739635", "website": "https://www.whsmith.co.uk/stores/details/?StoreID=1338", "opening_hours": "Mo-Sa 08:00-18:30; Su 10:30-18:00"}, "geometry": {"type": "Point", "coordinates": [-3.26697, 51.406265]}},
{"type": "Feature", "id": "pYYXB-1MkLwoc9BqxwimuVR1N00=", "properties": {"ref": "1342", "@spider": "whsmith_uk", "addr:full": "5 - 7 Old Basing Mall", "addr:city": "Basingstoke", "addr:postcode": "RG21 7AW", "addr:country": "GB", "name": "WHSmith, Old Basing Mall, Basingstoke", "phone": "01256 324545", "website": "https://www.whsmith.co.uk/stores/details/?StoreID=1342", "opening_hours": "Mo-Sa 08:00-18:30; Su 10:30-18:00"}, "geometry": {"type": "Point", "coordinates": [-1.087603, 51.266443]}},
{"type": "Feature", "id": "yymk_cYO20iheO-FLyBJBiazDNQ=", "properties": {"ref": "1340", "@spider": "whsmith_uk", "addr:full": "29 Town Square", "addr:city": "Basildon", "addr:postcode": "SS14 1BA", "addr:country": "GB", "name": "WHSmith, Town Square, Basildon", "phone": "01268 520367", "website": "https://www.whsmith.co.uk/stores/details/?StoreID=1340", "opening_hours": "Mo-Sa 08:00-18:30; Su 10:30-18:00"}, "geometry": {"type": "Point", "coordinates": [0.457693, 51.570685]}},
{"type": "Feature", "id": "-7s-fYdC6nmnRuWe7qqtfQlPsiE=", "properties": {"ref": "1356", "@spider": "whsmith_uk", "addr:full": "6 - 7 Union Street", "addr:city": "Bath", "addr:postcode": "BA1 1RT", "addr:country": "GB", "name": "WHSmith, Union Street, Bath", "phone": "01225 460522", "website": "https://www.whsmith.co.uk/stores/details/?StoreID=1356", "opening_hours": "Mo-Sa 08:00-18:30; Su 10:30-18:00"}, "geometry": {"type": "Point", "coordinates": [-2.36065, 51.382157]}},
{"type": "Feature", "id": "wJFOlqrmgA1aWcoas27md-k4aEE=", "properties": {"ref": "1368", "@spider": "whsmith_uk", "addr:full": "23 George Street", "addr:city": "Bathgate", "addr:postcode": "EH48 1PG", "addr:country": "GB", "name": "WHSmith, George Street, Bathgate", "phone": "01506 655888", "website": "https://www.whsmith.co.uk/stores/details/?StoreID=1368", "opening_hours": "Mo-Sa 08:00-18:30; Su 10:30-18:00"}, "geometry": {"type": "Point", "coordinates": [-3.641782, 55.901523]}},
{"type": "Feature", "id": "EQ-hPVaMC035dQWL5DOPPP7dEfc=", "properties": {"ref": "1394", "@spider": "whsmith_uk", "addr:full": "9 New Market Place", "addr:city": "Beccles", "addr:postcode": "NR34 9HQ", "addr:country": "GB", "name": "WHSmith, New Market Place, Beccles", "phone": "01502 711940", "website": "https://www.whsmith.co.uk/stores/details/?StoreID=1394", "opening_hours": "Mo-Sa 08:00-18:30; Su 10:30-18:00"}, "geometry": {"type": "Point", "coordinates": [1.56314, 52.457489]}},
{"type": "Feature", "id": "OySh39RpCvc7Yqid-Km0-xtCpTY=", "properties": {"ref": "1400", "@spider": "whsmith_uk", "addr:full": "172 High Street", "addr:city": "Beckenham", "addr:postcode": "BR3 1EW", "addr:country": "GB", "name": "WHSmith, High Street, Beckenham", "phone": "020 8650 0538", "website": "https://www.whsmith.co.uk/stores/details/?StoreID=1400", "opening_hours": "Mo-Sa 08:00-18:30; Su 10:30-18:00"}, "geometry": {"type": "Point", "coordinates": [-0.027795, 51.407425]}},
{"type": "Feature", "id": "h0twZOFZO53khoLz5p21AICITow=", "properties": {"ref": "1414", "@spider": "whsmith_uk", "addr:full": "The Harpur Shopping Centre", "addr:city": "Bedford", "addr:postcode": "MK40 1TG", "addr:country": "GB", "name": "WHSmith, The Harpur Centre, Bedford", "phone": "01234 363545", "website": "https://www.whsmith.co.uk/stores/details/?StoreID=1414", "opening_hours": "Mo-Sa 08:00-18:30; Su 10:30-18:00"}, "geometry": {"type": "Point", "coordinates": [-0.469205, 52.136449]}},
{"type": "Feature", "id": "t7TddqQaVlUnyUVGqG8WnMGjle0=", "properties": {"ref": "1432", "@spider": "whsmith_uk", "addr:full": "25 High Road", "addr:city": "Beeston", "addr:postcode": "NG9 2JQ", "addr:country": "GB", "name": "WHSmith, High Road, Beeston", "phone": "0115 922 2973", "website": "https://www.whsmith.co.uk/stores/details/?StoreID=1432", "opening_hours": "Mo-Sa 08:00-18:30; Su 10:30-18:00"}, "geometry": {"type": "Point", "coordinates": [-1.214494, 52.927658]}},
{"type": "Feature", "id": "zxCrUqWvBlMKFEdcv6i40UbBP4I=", "properties": {"ref": "1437", "@spider": "whsmith_uk", "addr:full": "Belfast International Airport", "addr:city": "Belfast", "addr:postcode": "BT29 4AB", "addr:country": "GB", "name": "WHSmith, Airside Main, Belfast International Airport ", "phone": "028 9448 4588", "website": "https://www.whsmith.co.uk/stores/details/?StoreID=1437", "opening_hours": "Mo-Sa 08:00-18:30; Su 10:30-18:00"}, "geometry": {"type": "Point", "coordinates": [-6.218873, 54.658753]}},
{"type": "Feature", "id": "ktIclq1IxqbIfa0es8fMaheGhAM=", "properties": {"ref": "1435", "@spider": "whsmith_uk", "addr:full": "Belfast City Airport", "addr:city": "Belfast", "addr:postcode": "BT3 9JH", "addr:country": "GB", "name": "WHSmith, Airside, Belfast City Airport", "phone": "028 9093 5048", "website": "https://www.whsmith.co.uk/stores/details/?StoreID=1435", "opening_hours": "Mo-Sa 08:00-18:30; Su 10:30-18:00"}, "geometry": {"type": "Point", "coordinates": [-5.870537, 54.614679]}},
{"type": "Feature", "id": "LquWKJPE-Um3scl9LWZKiStHB4U=", "properties": {"ref": "1439", "@spider": "whsmith_uk", "addr:full": "Great Victoria Railway Station", "addr:city": "Belfast", "addr:postcode": "BT2 7GN", "addr:country": "GB", "name": "WHSmith, Great Victoria Railway Station, Belfast", "phone": "028 9032 9236", "website": "https://www.whsmith.co.uk/stores/details/?StoreID=1439", "opening_hours": "Mo-Sa 08:00-18:30; Su 10:30-18:00"}, "geometry": {"type": "Point", "coordinates": [-5.934912, 54.594307]}},
{"type": "Feature", "id": "HSzhV3HkUAWnT5zIfiQ7xxoD1Sc=", "properties": {"ref": "1454", "@spider": "whsmith_uk", "addr:full": "178 - 180 High Street", "addr:city": "Berkhamsted", "addr:postcode": "HP4 3AP", "addr:country": "GB", "name": "WHSmith, High Street, Berkhamsted", "phone": "01442 871444", "website": "https://www.whsmith.co.uk/stores/details/?StoreID=1454", "opening_hours": "Mo-Sa 08:00-18:30; Su 10:30-18:00"}, "geometry": {"type": "Point", "coordinates": [-0.564247, 51.760452]}},
{"type": "Feature", "id": "FF5HpCI3fKZ3g3ZLeaibTMv0-A0=", "properties": {"ref": "1462", "@spider": "whsmith_uk", "addr:full": "75 Marygate", "addr:city": "Berwick-On-Tweed", "addr:postcode": "TD15 1BA", "addr:country": "GB", "name": "WHSmith, Marygate, Berwick-On-Tweed", "phone": "01289 304298", "website": "https://www.whsmith.co.uk/stores/details/?StoreID=1462", "opening_hours": "Mo-Sa 08:00-18:30; Su 10:30-18:00"}, "geometry": {"type": "Point", "coordinates": [-2.004519, 55.770086]}},
{"type": "Feature", "id": "ksI91oGRQ_777T48kpoecJJPGOQ=", "properties": {"ref": "1476", "@spider": "whsmith_uk", "addr:full": "39 - 41 Toll Gavel", "addr:city": "Beverley", "addr:postcode": "HU17 9AA", "addr:country": "GB", "name": "WHSmith, 39-41 Toll Gavel, Beverley", "phone": "01482 870494", "website": "https://www.whsmith.co.uk/stores/details/?StoreID=1476", "opening_hours": "Mo-Sa 08:00-18:30; Su 10:30-18:00"}, "geometry": {"type": "Point", "coordinates": [-0.431293, 53.841895]}},
{"type": "Feature", "id": "KcUmwAe4gWnjr8UPF6q2hdTgmTQ=", "properties": {"ref": "1478", "@spider": "whsmith_uk", "addr:full": "6 - 8 Toll Gavel", "addr:city": "Beverley", "addr:postcode": "HU17 9AJ", "addr:country": "GB", "name": "WHSmith, 6-8 Toll Gavel, Beverley", "phone": "01482 881156", "website": "https://www.whsmith.co.uk/stores/details/?StoreID=1478", "opening_hours": "Mo-Sa 08:00-18:30; Su 10:30-18:00"}, "geometry": {"type": "Point", "coordinates": [-0.431203, 53.842001]}},
{"type": "Feature", "id": "wBk6eMundW5T28qY3PZpVNb-rdQ=", "properties": {"ref": "1486", "@spider": "whsmith_uk", "addr:full": "89 The Broadway", "addr:city": "Bexleyheath", "addr:postcode": "DA6 7JN", "addr:country": "GB", "name": "WHSmith, The Broadway, Bexleyheath", "phone": "020 8301 0802", "website": "https://www.whsmith.co.uk/stores/details/?StoreID=1486", "opening_hours": "Mo-Sa 08:00-18:30; Su 10:30-18:00"}, "geometry": {"type": "Point", "coordinates": [0.146159, 51.456122]}},
{"type": "Feature", "id": "y20Mum4u5xsge-VkA13dAwoKoNM=", "properties": {"ref": "1484", "@spider": "whsmith_uk", "addr:full": "20 Devonshire Road", "addr:city": "Bexhill", "addr:postcode": "TN40 1AS", "addr:country": "GB", "name": "WHSmith, 20 Devonshire Road, Bexhill", "phone": "01424 211844", "website": "https://www.whsmith.co.uk/stores/details/?StoreID=1484", "opening_hours": "Mo-Sa 08:00-18:30; Su 10:30-18:00"}, "geometry": {"type": "Point", "coordinates": [0.473328, 50.839518]}},
{"type": "Feature", "id": "rc2zlzCjs37QQWmdY8asJPY5hME=", "properties": {"ref": "1482", "@spider": "whsmith_uk", "addr:full": "42 Devonshire Road", "addr:city": "Bexhill", "addr:postcode": "TN40 1AX", "addr:country": "GB", "name": "British Bookshop & Stationers, 42 Devonshire Road, Bexhill", "phone": "01424 224919", "website": "https://www.whsmith.co.uk/stores/details/?StoreID=1482", "opening_hours": "Mo-Sa 08:00-18:30; Su 10:30-18:00"}, "geometry": {"type": "Point", "coordinates": [0.47369, 50.838767]}},
{"type": "Feature", "id": "OTiD4C_6JcXDZqfD8HLm_bT-MGE=", "properties": {"ref": "1501", "@spider": "whsmith_uk", "addr:full": "Guild Street", "addr:city": "Aberdeen", "addr:postcode": "AB11 6NA", "addr:country": "GB", "name": "WHSmith, Aberdeen Bus Station", "phone": "01224 572009", "website": "https://www.whsmith.co.uk/stores/details/?StoreID=1501", "opening_hours": "Mo-Sa 08:00-18:30; Su 10:30-18:00"}, "geometry": {"type": "Point", "coordinates": [-2.096607, 57.145043]}},
{"type": "Feature", "id": "iLxp-qxyj7KYj_G_ruJSw549Tus=", "properties": {"ref": "1513", "@spider": "whsmith_uk", "addr:full": "Moor Street Station", "addr:city": "Birmingham", "addr:postcode": "B4 7UL", "addr:country": "GB", "name": "WHSmith, Birmingham Moor Street", "phone": "0121 643 2352", "website": "https://www.whsmith.co.uk/stores/details/?StoreID=1513", "opening_hours": "Mo-Sa 08:00-18:30; Su 10:30-18:00"}, "geometry": {"type": "Point", "coordinates": [-1.892159, 52.478679]}},
{"type": "Feature", "id": "36HPoSiJinKmZzrdeHljePdMIA8=", "properties": {"ref": "1518", "@spider": "whsmith_uk", "addr:full": "Carlisle Railway Station", "addr:city": "Carlisle", "addr:postcode": "CA1 1QZ", "addr:country": "GB", "name": "WHSmith, Carlisle Railway Station", "phone": "01228 515871", "website": "https://www.whsmith.co.uk/stores/details/?StoreID=1518", "opening_hours": "Mo-Sa 08:00-18:30; Su 10:30-18:00"}, "geometry": {"type": "Point", "coordinates": [-2.93319, 54.89065]}},
{"type": "Feature", "id": "zqoP5NEWeYVVgAa7GXarZbpaO5c=", "properties": {"ref": "1522", "@spider": "whsmith_uk", "addr:full": "8 Mill Street", "addr:city": "Bideford", "addr:postcode": "EX39 2JT", "addr:country": "GB", "name": "WHSmith, Mill Street, Bideford", "phone": "01237 422899", "website": "https://www.whsmith.co.uk/stores/details/?StoreID=1522", "opening_hours": "Mo-Sa 08:00-18:30; Su 10:30-18:00"}, "geometry": {"type": "Point", "coordinates": [-4.205755, 51.018353]}},
{"type": "Feature", "id": "aBB3is84VaPlSGnyjHflfs6WKv4=", "properties": {"ref": "1516", "@spider": "whsmith_uk", "addr:full": "24-25 Crown Walk", "addr:city": "Bicester", "addr:postcode": "OX26 6HY", "addr:country": "GB", "name": "WHSmith, Crown Walk, Bicester", "phone": "01869 320162", "website": "https://www.whsmith.co.uk/stores/details/?StoreID=1516", "opening_hours": "Mo-Sa 08:00-18:30; Su 10:30-18:00"}, "geometry": {"type": "Point", "coordinates": [-1.151589, 51.89734]}},
{"type": "Feature", "id": "KmyK2AhjDgC5un43J_N-3woTvQQ=", "properties": {"ref": "1526", "@spider": "whsmith_uk", "addr:full": "54 High Street", "addr:city": "Billericay", "addr:postcode": "CM12 9BS", "addr:country": "GB", "name": "WHSmith, High Street, Billericay", "phone": "01277 631837", "website": "https://www.whsmith.co.uk/stores/details/?StoreID=1526", "opening_hours": "Mo-Sa 08:00-18:30; Su 10:30-18:00"}, "geometry": {"type": "Point", "coordinates": [0.417899, 51.625435]}},
{"type": "Feature", "id": "mwUzQQIjfIhVS3KPVfx8VCdJb1g=", "properties": {"ref": "1531", "@spider": "whsmith_uk", "addr:full": "Birmingham International Airport", "addr:city": "Birmingham", "addr:postcode": "B26 3QJ", "addr:country": "GB", "name": "WHSmith, Terminal 1 Airside, Birmingham International Airport ", "phone": "0121 767 8242", "website": "https://www.whsmith.co.uk/stores/details/?StoreID=1531", "opening_hours": "Mo-Sa 08:00-18:30; Su 10:30-18:00"}, "geometry": {"type": "Point", "coordinates": [-1.733947, 52.451603]}},
{"type": "Feature", "id": "yzR60c7DP74w9DBKjaJqcVIOUCc=", "properties": {"ref": "1534", "@spider": "whsmith_uk", "addr:full": "31 - 33 Union Street", "addr:city": "Birmingham", "addr:postcode": "B2 4SR", "addr:country": "GB", "name": "WHSmith, Union Street, Birmingham", "phone": "0121 631 3303", "website": "https://www.whsmith.co.uk/stores/details/?StoreID=1534", "opening_hours": "Mo-Sa 08:00-18:30; Su 10:30-18:00"}, "geometry": {"type": "Point", "coordinates": [-1.895619, 52.479722]}},
{"type": "Feature", "id": "kfTSyiFrwrWpAKO8CUPmmFSnVRk=", "properties": {"ref": "1539", "@spider": "whsmith_uk", "addr:full": "St Andrews Square ", "addr:city": "Edinburgh ", "addr:postcode": "EH1 3DX", "addr:country": "GB", "name": "WHSmith, St Andrews Square Bus Station, Edinburgh", "phone": "0131 557 5003", "website": "https://www.whsmith.co.uk/stores/details/?StoreID=1539", "opening_hours": "Mo-Sa 08:00-18:30; Su 10:30-18:00"}, "geometry": {"type": "Point", "coordinates": [-3.19274, 55.955504]}},
{"type": "Feature", "id": "NhRayYyXxZUKJ6QJJTW-tco8kFo=", "properties": {"ref": "1538", "@spider": "whsmith_uk", "addr:full": "1 South Street", "addr:city": "Bishops Stortford", "addr:postcode": "CM23 3AB", "addr:country": "GB", "name": "WHSmith, South Street, Bishops Stortford", "phone": "01279 506692", "website": "https://www.whsmith.co.uk/stores/details/?StoreID=1538", "opening_hours": "Mo-Sa 08:00-18:30; Su 10:30-18:00"}, "geometry": {"type": "Point", "coordinates": [0.160046, 51.869937]}},
{"type": "Feature", "id": "XWsrLtsqI7apvAdK9BQYhsB96Hc=", "properties": {"ref": "1537", "@spider": "whsmith_uk", "addr:full": "Edinburgh Waverley Railway Station", "addr:city": "Edinburgh ", "addr:postcode": "EH1 1BB", "addr:country": "GB", "name": "WHSmith, Edinburgh Waverley Railway Station", "phone": "0131 557 1175", "website": "https://www.whsmith.co.uk/stores/details/?StoreID=1537", "opening_hours": "Mo-Sa 08:00-18:30; Su 10:30-18:00"}, "geometry": {"type": "Point", "coordinates": [55.952061, -3.18862]}},
{"type": "Feature", "id": "jq4W7zAA6FYmdlBowt6b6rgui-I=", "properties": {"ref": "1541", "@spider": "whsmith_uk", "addr:full": "Bishops Stortford Railway Station", "addr:city": "Bishops Stortford", "addr:postcode": "CM23 3BL", "addr:country": "GB", "name": "WHSmith, Bishops Stortford Railway Station", "phone": "01279 755259", "website": "https://www.whsmith.co.uk/stores/details/?StoreID=1541", "opening_hours": "Mo-Sa 08:00-18:30; Su 10:30-18:00"}, "geometry": {"type": "Point", "coordinates": [0.165033, 51.866658]}},
{"type": "Feature", "id": "PCivT01QqVI9k40XhvBu7SMbNCQ=", "properties": {"ref": "1551", "@spider": "whsmith_uk", "addr:full": "Glasgow Central Railway Station", "addr:city": "Glasgow ", "addr:postcode": "G1 3SQ", "addr:country": "GB", "name": "WHSmith Main, Glasgow Central Railway Station", "phone": "0141 221 2136", "website": "https://www.whsmith.co.uk/stores/details/?StoreID=1551", "opening_hours": "Mo-Sa 08:00-18:30; Su 10:30-18:00"}, "geometry": {"type": "Point", "coordinates": [-4.258638, 55.859395]}},
{"type": "Feature", "id": "UM1ookH9uTqAtdzbu14YT5ziuQ4=", "properties": {"ref": "1559", "@spider": "whsmith_uk", "addr:full": "Blackfriars North Railway Station", "addr:city": "London", "addr:postcode": "EC4V 4DY", "addr:country": "GB", "name": "WHSmith, Blackfriars North Railway Station, London", "phone": "07764 358360", "website": "https://www.whsmith.co.uk/stores/details/?StoreID=1559", "opening_hours": "Mo-Sa 08:00-18:30; Su 10:30-18:00"}, "geometry": {"type": "Point", "coordinates": [-0.103007, 51.511597]}},
{"type": "Feature", "id": "BHwomiCLUViOnvE7OtZ7xeOlTVM=", "properties": {"ref": "1578", "@spider": "whsmith_uk", "addr:full": "Inverness Railway Station", "addr:city": "Inverness ", "addr:postcode": "IV1 1LE", "addr:country": "GB", "name": "WHSmith, Inverness Railway Station", "phone": "01463 222756", "website": "https://www.whsmith.co.uk/stores/details/?StoreID=1578", "opening_hours": "Mo-Sa 08:00-18:30; Su 10:30-18:00"}, "geometry": {"type": "Point", "coordinates": [-4.2242, 57.479674]}},
{"type": "Feature", "id": "IpOKfoub2CETk4qTuYjxgLedN98=", "properties": {"ref": "1587", "@spider": "whsmith_uk", "addr:full": "Kirkcaldy Railway Station", "addr:city": "Kirkcaldy ", "addr:postcode": "KY1 1YJ", "addr:country": "GB", "name": "WHSmith, Kirkcaldy Railway Station", "phone": "01592 265481", "website": "https://www.whsmith.co.uk/stores/details/?StoreID=1587", "opening_hours": "Mo-Sa 08:00-18:30; Su 10:30-18:00"}, "geometry": {"type": "Point", "coordinates": [-3.16719, 56.112115]}},
{"type": "Feature", "id": "BEencpKzXNWYduZe1xIW2HDav1U=", "properties": {"ref": "1594", "@spider": "whsmith_uk", "addr:full": "4 Market Place", "addr:city": "Blandford", "addr:postcode": "DT11 7EB", "addr:country": "GB", "name": "WHSmith, Market Place, Blandford", "phone": "01258 452093", "website": "https://www.whsmith.co.uk/stores/details/?StoreID=1594", "opening_hours": "Mo-Sa 08:00-18:30; Su 10:30-18:00"}, "geometry": {"type": "Point", "coordinates": [-2.164929, 50.855701]}},
{"type": "Feature", "id": "LnKcm7iwTqZyTB0QwqYfayBM38M=", "properties": {"ref": "1600", "@spider": "whsmith_uk", "addr:full": "Newcastle Airport", "addr:city": "Newcastle Upon Tyne ", "addr:postcode": "NE13 8BZ", "addr:country": "GB", "name": "WHSmith Main, Airside, Newcastle Airport ", "phone": "0191 214 4487", "website": "https://www.whsmith.co.uk/stores/details/?StoreID=1600", "opening_hours": "Mo-Sa 08:00-18:30; Su 10:30-18:00"}, "geometry": {"type": "Point", "coordinates": [-1.708552, 55.03711]}},
{"type": "Feature", "id": "4T2KOEWgSLUkNz09UGLMBBw3XEs=", "properties": {"ref": "1599", "@spider": "whsmith_uk", "addr:full": "Motherwell Railway Station", "addr:city": "Motherwell ", "addr:postcode": "ML1 1BN", "addr:country": "GB", "name": "WHSmith, Motherwell Railway Station", "phone": "01698 253510", "website": "https://www.whsmith.co.uk/stores/details/?StoreID=1599", "opening_hours": "Mo-Sa 08:00-18:30; Su 10:30-18:00"}, "geometry": {"type": "Point", "coordinates": [-3.994323, 55.791667]}},
{"type": "Feature", "id": "YvvUgUHz0WbX_ni2O_psqBf-2Fw=", "properties": {"ref": "1610", "@spider": "whsmith_uk", "addr:full": "Terminal Building", "addr:city": "Paisley ", "addr:postcode": "PA3 2SW", "addr:country": "GB", "name": "WHSmith Main, Airside, Glasgow Airport ", "phone": "0141 848 5598", "website": "https://www.whsmith.co.uk/stores/details/?StoreID=1610", "opening_hours": "Mo-Sa 08:00-18:30; Su 10:30-18:00"}, "geometry": {"type": "Point", "coordinates": [-4.437177, 55.864621]}},
{"type": "Feature", "id": "PK-1BmDlkMGq5NR1StNI-LPAvcI=", "properties": {"ref": "1611", "@spider": "whsmith_uk", "addr:full": "Glasgow Prestwick International Airport", "addr:city": "Prestwick ", "addr:postcode": "KA9 2PL", "addr:country": "GB", "name": "WHSmith, Landisde, Glasgow Prestwick International Airport ", "phone": "01292 511370", "website": "https://www.whsmith.co.uk/stores/details/?StoreID=1611", "opening_hours": "Mo-Sa 08:00-18:30; Su 10:30-18:00"}, "geometry": {"type": "Point", "coordinates": [-4.610469, 55.508758]}},
{"type": "Feature", "id": "NaC6xh0mlTy34mFzlOPlxoU81Jo=", "properties": {"ref": "1614", "@spider": "whsmith_uk", "addr:full": "Brunel Shopping Centre", "addr:city": "Bletchley", "addr:postcode": "MK2 2HE", "addr:country": "GB", "name": "WHSmith, Brunel Centre, Bletchley", "phone": "01908 371634", "website": "https://www.whsmith.co.uk/stores/details/?StoreID=1614", "opening_hours": "Mo-Sa 08:00-18:30; Su 10:30-18:00"}, "geometry": {"type": "Point", "coordinates": [-0.733479, 51.993837]}},
{"type": "Feature", "id": "EuhTaOcTcQ7qJPbuNQxqgSauALk=", "properties": {"ref": "1620", "@spider": "whsmith_uk", "addr:full": "36 - 38 Fore Street", "addr:city": "Bodmin", "addr:postcode": "PL31 2HL", "addr:country": "GB", "name": "WHSmith, Fore Street, Bodmin", "phone": "01208 74122", "website": "https://www.whsmith.co.uk/stores/details/?StoreID=1620", "opening_hours": "Mo-Sa 08:00-18:30; Su 10:30-18:00"}, "geometry": {"type": "Point", "coordinates": [-4.721356, 50.471231]}},
{"type": "Feature", "id": "RhheH65ObVdB27YNSL7oZwp-VUU=", "properties": {"ref": "1616", "@spider": "whsmith_uk", "addr:full": "Stirling Railway Station", "addr:city": "Stirling ", "addr:postcode": "FK8 2BY", "addr:country": "GB", "name": "WHSmith, Stirling Railway Station", "phone": "01786 450142", "website": "https://www.whsmith.co.uk/stores/details/?StoreID=1616", "opening_hours": "Mo-Sa 08:00-18:30; Su 10:30-18:00"}, "geometry": {"type": "Point", "coordinates": [-3.935537, 56.119874]}},
{"type": "Feature", "id": "CZBomsOirHa8TnhMGd6xvuDXHZU=", "properties": {"ref": "1636", "@spider": "whsmith_uk", "addr:full": "London Road", "addr:city": "Bognor", "addr:postcode": "PO21 1PY", "addr:country": "GB", "name": "WHSmith, London Road, Bognor", "phone": "01243 864000", "website": "https://www.whsmith.co.uk/stores/details/?StoreID=1636", "opening_hours": "Mo-Sa 08:00-18:30; Su 10:30-18:00"}, "geometry": {"type": "Point", "coordinates": [-0.673808, 50.784602]}},
{"type": "Feature", "id": "CKS0U1WFEST5MdHV6NPm0MVH7wg=", "properties": {"ref": "1647", "@spider": "whsmith_uk", "addr:full": "Bolton Station", "addr:city": "Bolton", "addr:postcode": "BL2 1BE", "addr:country": "GB", "name": "WHSmith, Bolton Railway Station", "phone": "01204 370141", "website": "https://www.whsmith.co.uk/stores/details/?StoreID=1647", "opening_hours": "Mo-Sa 08:00-18:30; Su 10:30-18:00"}, "geometry": {"type": "Point", "coordinates": [-2.42514, 53.573562]}},
{"type": "Feature", "id": "gFO0VDp2bLUwNggUGqOqv61Ydxw=", "properties": {"ref": "1646", "@spider": "whsmith_uk", "addr:full": "5 - 7 Victoria Square", "addr:city": "Bolton", "addr:postcode": "BL1 1RJ", "addr:country": "GB", "name": "WHSmith, Victoria Square, Bolton", "phone": "01204 531121", "website": "https://www.whsmith.co.uk/stores/details/?StoreID=1646", "opening_hours": "Mo-Sa 08:00-18:30; Su 10:30-18:00"}, "geometry": {"type": "Point", "coordinates": [-2.429099, 53.578373]}},
{"type": "Feature", "id": "ck3CYQn1TF947lwrphXPfEQDRFA=", "properties": {"ref": "1657", "@spider": "whsmith_uk", "addr:full": "Aberdeen Railway Station", "addr:city": "Aberdeen", "addr:postcode": "AB11 6LX", "addr:country": "GB", "name": "WHSmith, Aberdeen Railway Station", "phone": "01224 589230", "website": "https://www.whsmith.co.uk/stores/details/?StoreID=1657", "opening_hours": "Mo-Sa 08:00-18:30; Su 10:30-18:00"}, "geometry": {"type": "Point", "coordinates": [-2.097317, 57.145]}},
{"type": "Feature", "id": "C2KkfHSsyMlYNzVf_DUh7edaYeQ=", "properties": {"ref": "1660", "@spider": "whsmith_uk", "addr:full": "Borehamwood Shopping Park", "addr:city": "Borehamwood", "addr:postcode": "WD6 4PR", "addr:country": "GB", "name": "WHSmith, Borehamwood Shopping Park", "phone": "020 8236 0502", "website": "https://www.whsmith.co.uk/stores/details/?StoreID=1660", "opening_hours": "Mo-Sa 08:00-18:30; Su 10:30-18:00"}, "geometry": {"type": "Point", "coordinates": [-0.277759, 51.656756]}},
{"type": "Feature", "id": "VBctJQLul9uuYOCK9rO7g7Zzj74=", "properties": {"ref": "1669", "@spider": "whsmith_uk", "addr:full": "Pendigo Way", "addr:city": "Birmingham", "addr:postcode": "B40 1PU", "addr:country": "GB", "name": "WHSmith, Birmingham Resort World NEC", "phone": "0121 781 0882", "website": "https://www.whsmith.co.uk/stores/details/?StoreID=1669", "opening_hours": "Mo-Sa 08:00-18:30; Su 10:30-18:00"}, "geometry": {"type": "Point", "coordinates": [-1.717555, 52.44802]}},
{"type": "Feature", "id": "LoSqbcCRkpA0T9R8AAzncdQ3tEM=", "properties": {"ref": "1676", "@spider": "whsmith_uk", "addr:full": "27 Strait Bargate", "addr:city": "Boston", "addr:postcode": "PE21 6EG", "addr:country": "GB", "name": "WHSmith, Strait Bargate, Boston", "phone": "01205 364971", "website": "https://www.whsmith.co.uk/stores/details/?StoreID=1676", "opening_hours": "Mo-Sa 08:00-18:30; Su 10:30-18:00"}, "geometry": {"type": "Point", "coordinates": [-0.022611, 52.979417]}},
{"type": "Feature", "id": "Qz-oC0HYfxV72n5jMFRioOICiHU=", "properties": {"ref": "1674", "@spider": "whsmith_uk", "addr:full": "Leeds City Station Railway Station", "addr:city": "Leeds ", "addr:postcode": "LS1 4DT", "addr:country": "GB", "name": "WHSmith, Leeds City Railway Station", "phone": "0113 243 3059", "website": "https://www.whsmith.co.uk/stores/details/?StoreID=1674", "opening_hours": "Mo-Sa 08:00-18:30; Su 10:30-18:00"}, "geometry": {"type": "Point", "coordinates": [-1.547446, 53.79471]}},
{"type": "Feature", "id": "vmDsWN0KLysJJIS4s_jGDK2F7Ug=", "properties": {"ref": "1673", "@spider": "whsmith_uk", "addr:full": "Archway Shopping Centre", "addr:city": "Sheffield ", "addr:postcode": "S1 2BG", "addr:country": "GB", "name": "WHSmith, Archway Centre Bus Station, Sheffield", "phone": "0114 273 0489", "website": "https://www.whsmith.co.uk/stores/details/?StoreID=1673", "opening_hours": "Mo-Sa 08:00-18:30; Su 10:30-18:00"}, "geometry": {"type": "Point", "coordinates": [-1.463612, 53.38105]}},
{"type": "Feature", "id": "odAmfezO1WmcOpOMG-c72uylEWg=", "properties": {"ref": "1670", "@spider": "whsmith_uk", "addr:full": "625 Christchurch Road", "addr:city": "Boscombe", "addr:postcode": "BH1 4AS", "addr:country": "GB", "name": "WHSmith, Christchurch Road, Boscombe", "phone": "01202 397393", "website": "https://www.whsmith.co.uk/stores/details/?StoreID=1670", "opening_hours": "Mo-Sa 08:00-18:30; Su 10:30-18:00"}, "geometry": {"type": "Point", "coordinates": [-1.837434, 50.7271]}},
{"type": "Feature", "id": "G2EGZLWSiUJEKEufLZaNWUaImkc=", "properties": {"ref": "1677", "@spider": "whsmith_uk", "addr:full": "National Exhibition Centre Railway Station", "addr:city": "Birmingham", "addr:postcode": "B40 1PA", "addr:country": "GB", "name": "WHSmith, National Exhibition Centre Railway Station, Birmingham", "phone": "0121 780 2119", "website": "https://www.whsmith.co.uk/stores/details/?StoreID=1677", "opening_hours": "Mo-Sa 08:00-18:30; Su 10:30-18:00"}, "geometry": {"type": "Point", "coordinates": [-1.725669, 52.450334]}},
{"type": "Feature", "id": "7LMT3cv2apz6sRQVFSYiFLjJCuk=", "properties": {"ref": "1704", "@spider": "whsmith_uk", "addr:full": "Castle Point Shopping Centre", "addr:city": "Bournemouth", "addr:postcode": "BH8 9UZ", "addr:country": "GB", "name": "WHSmith, Castle Point Centre, Bournemouth", "phone": "01202 525381", "website": "https://www.whsmith.co.uk/stores/details/?StoreID=1704", "opening_hours": "Mo-Sa 08:00-18:30; Su 10:30-18:00"}, "geometry": {"type": "Point", "coordinates": [-1.840866, 50.753707]}},
{"type": "Feature", "id": "2hOQMe2P2Iv9oY76LGYVTALlq_E=", "properties": {"ref": "1708", "@spider": "whsmith_uk", "addr:full": "9 - 13 Old Christchurch Road", "addr:city": "Bournemouth", "addr:postcode": "BH1 1DY", "addr:country": "GB", "name": "WHSmith, Old Christchurch Road, Bournemouth", "phone": "01202 555342", "website": "https://www.whsmith.co.uk/stores/details/?StoreID=1708", "opening_hours": "Mo-Sa 08:00-18:30; Su 10:30-18:00"}, "geometry": {"type": "Point", "coordinates": [-1.878675, 50.720273]}},
{"type": "Feature", "id": "Vih3eEiopKzKV2WodtUJHL56BtI=", "properties": {"ref": "1724", "@spider": "whsmith_uk", "addr:full": "10 Princess Square", "addr:city": "Bracknell", "addr:postcode": "RG12 1XW", "addr:country": "GB", "name": "WHSmith, Princess Square, Bracknell", "phone": "01344 456128", "website": "https://www.whsmith.co.uk/stores/details/?StoreID=1724", "opening_hours": "Mo-Sa 08:00-18:30; Su 10:30-18:00"}, "geometry": {"type": "Point", "coordinates": [-0.750643, 51.414796]}},
{"type": "Feature", "id": "H-axtry0AN_DchiHJBD39qW3CHI=", "properties": {"ref": "1734", "@spider": "whsmith_uk", "addr:full": "The Broadway Shopping Centre", "addr:city": "Bradford", "addr:postcode": "BD1 1US", "addr:country": "GB", "name": "WHSmith, Charles Street Mall, The Broadway Centre, Bradford", "phone": "01274 732241", "website": "https://www.whsmith.co.uk/stores/details/?StoreID=1734", "opening_hours": "Mo-Sa 08:00-18:30; Su 10:30-18:00"}, "geometry": {"type": "Point", "coordinates": [-1.751868, 53.7974]}},
{"type": "Feature", "id": "CC8MJwXsv2N2wKXm3YhJeMtTzQ4=", "properties": {"ref": "1750", "@spider": "whsmith_uk", "addr:full": "19 George Yard", "addr:city": "Braintree", "addr:postcode": "CM7 1RB", "addr:country": "GB", "name": "WHSmith, George Yard, Braintree", "phone": "01376 550282", "website": "https://www.whsmith.co.uk/stores/details/?StoreID=1750", "opening_hours": "Mo-Sa 08:00-18:30; Su 10:30-18:00"}, "geometry": {"type": "Point", "coordinates": [0.549924, 51.878604]}},
{"type": "Feature", "id": "tMUJ1qDFMpSb7ENUUazbDlLbsgc=", "properties": {"ref": "1770", "@spider": "whsmith_uk", "addr:full": "2 - 3 Bethel Square", "addr:city": "Brecon", "addr:postcode": "LD3 7JP", "addr:country": "GB", "name": "WHSmith, Bethel Square, Brecon", "phone": "01874 610243", "website": "https://www.whsmith.co.uk/stores/details/?StoreID=1770", "opening_hours": "Mo-Sa 08:00-18:30; Su 10:30-18:00"}, "geometry": {"type": "Point", "coordinates": [-3.390232, 51.947748]}},
{"type": "Feature", "id": "3X6SClbBmwvbBtB8QNeQ3jEWJtU=", "properties": {"ref": "1782", "@spider": "whsmith_uk", "addr:full": "Brent Cross Shopping Centre", "addr:city": "Hendon", "addr:postcode": "NW4 3FB", "addr:country": "GB", "name": "WHSmith, Brent Cross Shopping Centre, Hendon", "phone": "020 8202 4226", "website": "https://www.whsmith.co.uk/stores/details/?StoreID=1782", "opening_hours": "Mo-Sa 08:00-18:30; Su 10:30-18:00"}, "geometry": {"type": "Point", "coordinates": [-0.223734, 51.576333]}},
{"type": "Feature", "id": "AwoKx7RB-SvkUudzBTGhzaFks5w=", "properties": {"ref": "1788", "@spider": "whsmith_uk", "addr:full": "Baytree Shopping Centre", "addr:city": "Brentwood", "addr:postcode": "CM14 4BX", "addr:country": "GB", "name": "WHSmith, Baytree Shopping Centre, Brentwood", "phone": "01277 849240", "website": "https://www.whsmith.co.uk/stores/details/?StoreID=1788", "opening_hours": "Mo-Sa 08:00-18:30; Su 10:30-18:00"}, "geometry": {"type": "Point", "coordinates": [0.302274, 51.619679]}},
{"type": "Feature", "id": "vBCG3Ao734MLnXyS4P-xpB9Dq1U=", "properties": {"ref": "1794", "@spider": "whsmith_uk", "addr:full": "7 The Rhiw", "addr:city": "Bridgend", "addr:postcode": "CF31 3BL", "addr:country": "GB", "name": "WHSmith, The Rhiw, Bridgend", "phone": "01656 657722", "website": "https://www.whsmith.co.uk/stores/details/?StoreID=1794", "opening_hours": "Mo-Sa 08:00-18:30; Su 10:30-18:00"}, "geometry": {"type": "Point", "coordinates": [-3.577734, 51.50524]}},
{"type": "Feature", "id": "uGTYJqEivW7Lga91iqmqosWytwk=", "properties": {"ref": "1802", "@spider": "whsmith_uk", "addr:full": "40 - 41 High Street", "addr:city": "Bridgnorth", "addr:postcode": "WV16 4DB", "addr:country": "GB", "name": "WHSmith, High Street, Bridgnorth", "phone": "01746 765983", "website": "https://www.whsmith.co.uk/stores/details/?StoreID=1802", "opening_hours": "Mo-Sa 08:00-18:30; Su 10:30-18:00"}, "geometry": {"type": "Point", "coordinates": [-2.419608, 52.535007]}},
{"type": "Feature", "id": "uKexzv5_vZsdwu9uM22pTxwXsxw=", "properties": {"ref": "1810", "@spider": "whsmith_uk", "addr:full": "14 - 15 Cornhill", "addr:city": "Bridgwater", "addr:postcode": "TA6 3BU", "addr:country": "GB", "name": "WHSmith, Cornhill, Bridgwater", "phone": "01278 422005", "website": "https://www.whsmith.co.uk/stores/details/?StoreID=1810", "opening_hours": "Mo-Sa 08:00-18:30; Su 10:30-18:00"}, "geometry": {"type": "Point", "coordinates": [-3.003811, 51.128398]}},
{"type": "Feature", "id": "RM4CDPaDePCiU7Ae_EuOJIv9aBE=", "properties": {"ref": "1818", "@spider": "whsmith_uk", "addr:full": "12 East Street", "addr:city": "Bridport", "addr:postcode": "DT6 3LF", "addr:country": "GB", "name": "WHSmith, East Street, Bridport", "phone": "01308 422639", "website": "https://www.whsmith.co.uk/stores/details/?StoreID=1818", "opening_hours": "Mo-Sa 08:00-18:30; Su 10:30-18:00"}, "geometry": {"type": "Point", "coordinates": [-2.757052, 50.733371]}},
{"type": "Feature", "id": "zGFsvjC6LDpybzARYy3yjZ5cOBI=", "properties": {"ref": "1836", "@spider": "whsmith_uk", "addr:full": "37 - 37A London Road", "addr:city": "Brighton", "addr:postcode": "BN1 4JB", "addr:country": "GB", "name": "WHSmith, London Road, Brighton", "phone": "01273 691626", "website": "https://www.whsmith.co.uk/stores/details/?StoreID=1836", "opening_hours": "Mo-Sa 08:00-18:30; Su 10:30-18:00"}, "geometry": {"type": "Point", "coordinates": [-0.13675, 50.831516]}},
{"type": "Feature", "id": "X5gcaH6pP4lq5p7UFXl-jXFpMIc=", "properties": {"ref": "1839", "@spider": "whsmith_uk", "addr:full": "Brighton Railway Station", "addr:city": "Brighton", "addr:postcode": "BN1 3ZE", "addr:country": "GB", "name": "WHSmith, Brighton Railway Station", "phone": "01273 328564", "website": "https://www.whsmith.co.uk/stores/details/?StoreID=1839", "opening_hours": "Mo-Sa 08:00-18:30; Su 10:30-18:00"}, "geometry": {"type": "Point", "coordinates": [-0.14128, 50.829]}},
{"type": "Feature", "id": "fh8hcKg1wftQn1XjkB9_j2lFEX8=", "properties": {"ref": "1840", "@spider": "whsmith_uk", "addr:full": "69 Churchill Square", "addr:city": "Brighton", "addr:postcode": "BN1 2TA", "addr:country": "GB", "name": "WHSmith, Churchill Square, Brighton", "phone": "01273 324146", "website": "https://www.whsmith.co.uk/stores/details/?StoreID=1840", "opening_hours": "Mo-Sa 08:00-18:30; Su 10:30-18:00"}, "geometry": {"type": "Point", "coordinates": [-0.145013, 50.822965]}},
{"type": "Feature", "id": "j6bscc1sHmCcV_cLhrIfcDz-Tag=", "properties": {"ref": "1841", "@spider": "whsmith_uk", "addr:full": "Bridgemere Garden Centre", "addr:city": "Bridgemere", "addr:postcode": "CW5 7QB", "addr:country": "GB", "name": "WHSmith, Bridgemere Garden Centre", "phone": "01270 520023", "website": "https://www.whsmith.co.uk/stores/details/?StoreID=1841", "opening_hours": "Mo-Sa 08:00-18:30; Su 10:30-18:00"}, "geometry": {"type": "Point", "coordinates": [-2.411111, 52.991135]}},
{"type": "Feature", "id": "Rb0g3Sj0ZpSOF-ARyR0zmCCeb20=", "properties": {"ref": "1843", "@spider": "whsmith_uk", "addr:full": "Braintree Electric Forecourt", "addr:city": "Great Notley", "addr:postcode": "CM77 7AP", "addr:country": "GB", "name": "WHSmith, Braintree Electric Forecourt", "phone": "07425618188", "website": "https://www.whsmith.co.uk/stores/details/?StoreID=1843", "opening_hours": "Mo-Sa 08:00-18:30; Su 10:30-18:00"}, "geometry": {"type": "Point", "coordinates": [0.522096, 51.852766]}},
{"type": "Feature", "id": "zOobA5zcbFlYDa26n-xvgZG_rPQ=", "properties": {"ref": "1842", "@spider": "whsmith_uk", "addr:full": "16 Kings Chase Shopping Centre", "addr:city": "Bristol", "addr:postcode": "BS15 8LP", "addr:country": "GB", "name": "WHSmith, Kings Chase Shopping Centre, Bristol", "phone": "0117 961 2251", "website": "https://www.whsmith.co.uk/stores/details/?StoreID=1842", "opening_hours": "Mo-Sa 08:00-18:30; Su 10:30-18:00"}, "geometry": {"type": "Point", "coordinates": [-2.509958, 51.462847]}},
{"type": "Feature", "id": "A4rbBGv09E4akvgtB6bdLRa0puI=", "properties": {"ref": "1854", "@spider": "whsmith_uk", "addr:full": "The Galleries", "addr:city": "Bristol", "addr:postcode": "BS1 3XB", "addr:country": "GB", "name": "WHSmith, The Galleries, Bristol", "phone": "0117 925 2152", "website": "https://www.whsmith.co.uk/stores/details/?StoreID=1854", "opening_hours": "Mo-Sa 08:00-18:30; Su 10:30-18:00"}, "geometry": {"type": "Point", "coordinates": [-2.58986, 51.456751]}},
{"type": "Feature", "id": "mIzmm2wXFYoZiSvXRj-o9hEUKAw=", "properties": {"ref": "1864", "@spider": "whsmith_uk", "addr:full": "427 Brixton Road", "addr:city": "London", "addr:postcode": "SW9 8HE", "addr:country": "GB", "name": "WHSmith, Brixton Road, London", "phone": "020 7274 5813", "website": "https://www.whsmith.co.uk/stores/details/?StoreID=1864", "opening_hours": "Mo-Sa 08:00-18:30; Su 10:30-18:00"}, "geometry": {"type": "Point", "coordinates": [-0.115051, 51.462771]}},
{"type": "Feature", "id": "X6kDZgVm6pCF6f7uO7FWeidlqSE=", "properties": {"ref": "1870", "@spider": "whsmith_uk", "addr:full": "132 - 138 High Street", "addr:city": "Bromley", "addr:postcode": "BR1 1EZ", "addr:country": "GB", "name": "WHSmith, High Street, Bromley", "phone": "020 8464 5044", "website": "https://www.whsmith.co.uk/stores/details/?StoreID=1870", "opening_hours": "Mo-Sa 08:00-18:30; Su 10:30-18:00"}, "geometry": {"type": "Point", "coordinates": [0.014671, 51.404256]}},
{"type": "Feature", "id": "kD2tNruHaDpB_d-tAeaO5bPT8SI=", "properties": {"ref": "1892", "@spider": "whsmith_uk", "addr:full": "Broughton Park", "addr:city": "Chester", "addr:postcode": "CH4 0BY", "addr:country": "GB", "name": "WHSmith, Broughton Park, Chester", "phone": "01244 532188", "website": "https://www.whsmith.co.uk/stores/details/?StoreID=1892", "opening_hours": "Mo-Sa 08:00-18:30; Su 10:30-18:00"}, "geometry": {"type": "Point", "coordinates": [-2.972643, 53.169002]}},
{"type": "Feature", "id": "mmXLmTOwNam6vKDiwt7SlSzkEyM=", "properties": {"ref": "1891", "@spider": "whsmith_uk", "addr:full": "Bromley Railway Station", "addr:city": "Bromley", "addr:postcode": "BR1 1LX", "addr:country": "GB", "name": "WHSmith, Bromley Railway Station", "phone": "020 8460 1919", "website": "https://www.whsmith.co.uk/stores/details/?StoreID=1891", "opening_hours": "Mo-Sa 08:00-18:30; Su 10:30-18:00"}, "geometry": {"type": "Point", "coordinates": [0.01738, 51.400082]}},
{"type": "Feature", "id": "LRiSqj6pZXaSezPTcqmmdQZWZYk=", "properties": {"ref": "1924", "@spider": "whsmith_uk", "addr:full": "16 Market Square", "addr:city": "Buckingham", "addr:postcode": "MK18 1NW", "addr:country": "GB", "name": "WHSmith, Market Square, Buckingham", "phone": "01280 813280", "website": "https://www.whsmith.co.uk/stores/details/?StoreID=1924", "opening_hours": "Mo-Sa 08:00-18:30; Su 10:30-18:00"}, "geometry": {"type": "Point", "coordinates": [-0.987657, 52.00006]}},
{"type": "Feature", "id": "r_FTq6S5ZPJCTIdO1sB3tkZ-Uxc=", "properties": {"ref": "1962", "@spider": "whsmith_uk", "addr:full": "27 Church Road", "addr:city": "Burgess Hill", "addr:postcode": "RH15 9BB", "addr:country": "GB", "name": "WHSmith, Church Road, Burgess Hill", "phone": "01444 235385", "website": "https://www.whsmith.co.uk/stores/details/?StoreID=1962", "opening_hours": "Mo-Sa 08:00-18:30; Su 10:30-18:00"}, "geometry": {"type": "Point", "coordinates": [-0.130117, 50.955409]}},
{"type": "Feature", "id": "oPkzIUEY8JcpQvi0Ks84I89-OL8=", "properties": {"ref": "1970", "@spider": "whsmith_uk", "addr:full": "37 Charter Walk Shopping Centre", "addr:city": "Burnley", "addr:postcode": "BB11 1BA", "addr:country": "GB", "name": "WHSmith, Charter Walk Shopping Centre, Burnley", "phone": "01282 420731", "website": "https://www.whsmith.co.uk/stores/details/?StoreID=1970", "opening_hours": "Mo-Sa 08:00-18:30; Su 10:30-18:00"}, "geometry": {"type": "Point", "coordinates": [-2.242751, 53.790315]}},
{"type": "Feature", "id": "rghMAUe22re8iIbrXVywnbz9jNs=", "properties": {"ref": "1980", "@spider": "whsmith_uk", "addr:full": "13 - 17 Underhill Walk", "addr:city": "Burton-On-Trent", "addr:postcode": "DE14 1DE", "addr:country": "GB", "name": "WHSmith, Underhill Walk, Burton On Trent", "phone": "01283 565671", "website": "https://www.whsmith.co.uk/stores/details/?StoreID=1980", "opening_hours": "Mo-Sa 08:00-18:30; Su 10:30-18:00"}, "geometry": {"type": "Point", "coordinates": [-1.633011, 52.802225]}},
{"type": "Feature", "id": "ymdo7fIDuE_wuGWxaN7QA1cbn2s=", "properties": {"ref": "1986", "@spider": "whsmith_uk", "addr:full": "15 The Haymarket", "addr:city": "Bury", "addr:postcode": "BL9 0BX", "addr:country": "GB", "name": "WHSmith, The Haymarket, Bury", "phone": "0161 763 4773", "website": "https://www.whsmith.co.uk/stores/details/?StoreID=1986", "opening_hours": "Mo-Sa 08:00-18:30; Su 10:30-18:00"}, "geometry": {"type": "Point", "coordinates": [-2.295917, 53.592987]}},
{"type": "Feature", "id": "24_YZJoNihf5UCK_hVJSDYOi-w0=", "properties": {"ref": "1981", "@spider": "whsmith_uk", "addr:full": "Burton Queens Hospital", "addr:city": "Burton-On-Trent", "addr:postcode": "DE13 0RB", "addr:country": "GB", "name": "WHSmith, Burton Queens Hospital", "phone": "01283 533504", "website": "https://www.whsmith.co.uk/stores/details/?StoreID=1981", "opening_hours": "Mo-Sa 08:00-18:30; Su 10:30-18:00"}, "geometry": {"type": "Point", "coordinates": [-1.65675, 52.818238]}},
{"type": "Feature", "id": "xfbnbzPcjnZib2kVjQutTOD2yBg=", "properties": {"ref": "1998", "@spider": "whsmith_uk", "addr:full": "15 Cornhill", "addr:city": "Bury St Edmunds", "addr:postcode": "IP33 1DY", "addr:country": "GB", "name": "WHSmith, Cornhill, Bury St Edmunds", "phone": "01284 754052", "website": "https://www.whsmith.co.uk/stores/details/?StoreID=1998", "opening_hours": "Mo-Sa 08:00-18:30; Su 10:30-18:00"}, "geometry": {"type": "Point", "coordinates": [0.711956, 52.245755]}},
{"type": "Feature", "id": "H-XO0ZW06TG_5BmiyhnxqhQR35Q=", "properties": {"ref": "2011", "@spider": "whsmith_uk", "addr:full": "University of Wales Hospital", "addr:city": "Cardiff", "addr:postcode": "CF14 4WZ", "addr:country": "GB", "name": "WHSmith, University of Wales Hospital, Cardiff", "phone": "029 2076 1486", "website": "https://www.whsmith.co.uk/stores/details/?StoreID=2011", "opening_hours": "Mo-Sa 08:00-18:30; Su 10:30-18:00"}, "geometry": {"type": "Point", "coordinates": [-3.186661, 51.506027]}},
{"type": "Feature", "id": "ibFZjrBPvwFy-XUrs-iGV4ucDmM=", "properties": {"ref": "2015", "@spider": "whsmith_uk", "addr:full": "Bournemouth International Airport", "addr:city": "Christchurch", "addr:postcode": "BH23 6SE", "addr:country": "GB", "name": "WHSmith, Airside, Bournemouth International Airport ", "phone": "01202 573328", "website": "https://www.whsmith.co.uk/stores/details/?StoreID=2015", "opening_hours": "Mo-Sa 08:00-18:30; Su 10:30-18:00"}, "geometry": {"type": "Point", "coordinates": [-1.832807, 50.777667]}},
{"type": "Feature", "id": "mMmjiihTswbz4jTypmcOWZQPZF8=", "properties": {"ref": "2014", "@spider": "whsmith_uk", "addr:full": "The Springs Shopping Centre", "addr:city": "Buxton", "addr:postcode": "SK17 6DF", "addr:country": "GB", "name": "WHSmith, Spring Gardens Centre, Buxton", "phone": "01298 70551", "website": "https://www.whsmith.co.uk/stores/details/?StoreID=2014", "opening_hours": "Mo-Sa 08:00-18:30; Su 10:30-18:00"}, "geometry": {"type": "Point", "coordinates": [-1.911801, 53.259622]}},
{"type": "Feature", "id": "ErXH3lt2dOZ_y3zXR4fMold3NXc=", "properties": {"ref": "2027", "@spider": "whsmith_uk", "addr:full": "Manchester Royal Infirmary Hospital ", "addr:city": "Manchester ", "addr:postcode": "M13 9WL", "addr:country": "GB", "name": "WHSmith, Manchester Royal Infirmary Hospital", "phone": "0161 273 8898", "website": "https://www.whsmith.co.uk/stores/details/?StoreID=2027", "opening_hours": "Mo-Sa 08:00-18:30; Su 10:30-18:00"}, "geometry": {"type": "Point", "coordinates": [-2.227679, 53.462417]}},
{"type": "Feature", "id": "FMuxGotbRPaLE_oH1YNlUOG29io=", "properties": {"ref": "2030", "@spider": "whsmith_uk", "addr:full": "5 - 7 Stryd y Llyn", "addr:city": "Caernafon", "addr:postcode": "LL55 2AB", "addr:country": "GB", "name": "WHSmith, Stryd y Llyn, Caernarfon", "phone": "01286 672142", "website": "https://www.whsmith.co.uk/stores/details/?StoreID=2030", "opening_hours": "Mo-Sa 08:00-18:30; Su 10:30-18:00"}, "geometry": {"type": "Point", "coordinates": [-4.272507, 53.13982]}},
{"type": "Feature", "id": "ylLYn2TjC_zVJhK0hqXJSlNoF7o=", "properties": {"ref": "2036", "@spider": "whsmith_uk", "addr:full": "Castle Court Shopping Centre", "addr:city": "Caerphilly", "addr:postcode": "CF83 1NU", "addr:country": "GB", "name": "WHSmith, Castle Court Shopping Centre, Caerphilly", "phone": "029 2088 9348", "website": "https://www.whsmith.co.uk/stores/details/?StoreID=2036", "opening_hours": "Mo-Sa 08:00-18:30; Su 10:30-18:00"}, "geometry": {"type": "Point", "coordinates": [-3.216617, 51.576316]}},
{"type": "Feature", "id": "Qg_pFMjkyNJ6aw37YLeORYQGrGk=", "properties": {"ref": "2038", "@spider": "whsmith_uk", "addr:full": "51 - 53 High Street", "addr:city": "Camberley", "addr:postcode": "GU15 3RB", "addr:country": "GB", "name": "WHSmith, High Street, Camberley", "phone": "01276 23888", "website": "https://www.whsmith.co.uk/stores/details/?StoreID=2038", "opening_hours": "Mo-Sa 08:00-18:30; Su 10:30-18:00"}, "geometry": {"type": "Point", "coordinates": [-0.744165, 51.337946]}},
{"type": "Feature", "id": "UNjH9tHlzRXnwE3SCOLWi9SUQHg=", "properties": {"ref": "2046", "@spider": "whsmith_uk", "addr:full": "Southampton General Hospital", "addr:city": "Southampton ", "addr:postcode": "SO16 6YD", "addr:country": "GB", "name": "WHSmith, Southampton General Hospital", "phone": "023 8120 4808", "website": "https://www.whsmith.co.uk/stores/details/?StoreID=2046", "opening_hours": "Mo-Sa 08:00-18:30; Su 10:30-18:00"}, "geometry": {"type": "Point", "coordinates": [-1.43481, 50.932834]}},
{"type": "Feature", "id": "GWn3PTS8ymOBqhvu1mMwgq6I-Jw=", "properties": {"ref": "2052", "@spider": "whsmith_uk", "addr:full": "9 - 11 Commercial Square", "addr:city": "Camborne", "addr:postcode": "TR14 8AT", "addr:country": "GB", "name": "WHSmith, Commercial Square, Camborne", "phone": "01209 717291", "website": "https://www.whsmith.co.uk/stores/details/?StoreID=2052", "opening_hours": "Mo-Sa 08:00-18:30; Su 10:30-18:00"}, "geometry": {"type": "Point", "coordinates": [-5.299444, 50.214101]}},
{"type": "Feature", "id": "nERf4QPDol_Lt36t8VTazauu_00=", "properties": {"ref": "2055", "@spider": "whsmith_uk", "addr:full": "A14/M11 Cambridge Services", "addr:city": "Cambridge", "addr:postcode": "CB23 4WU", "addr:country": "GB", "name": "WHSmith, Motorway Services, A14/M11, Cambridge ", "phone": "01954 267990", "website": "https://www.whsmith.co.uk/stores/details/?StoreID=2055", "opening_hours": "Mo-Sa 08:00-18:30; Su 10:30-18:00"}, "geometry": {"type": "Point", "coordinates": [-0.008925, 52.268775]}},
{"type": "Feature", "id": "k7T3OD-dNPkM1pR47fj3vunZJu4=", "properties": {"ref": "2062", "@spider": "whsmith_uk", "addr:full": "14 - 15 Market Street", "addr:city": "Cambridge", "addr:postcode": "CB2 3PE", "addr:country": "GB", "name": "WHSmith Market Street, Cambridge", "phone": "01223 311313", "website": "https://www.whsmith.co.uk/stores/details/?StoreID=2062", "opening_hours": "Mo-Sa 08:00-18:30; Su 10:30-18:00"}, "geometry": {"type": "Point", "coordinates": [0.119496, 52.20652]}},
{"type": "Feature", "id": "dQrkK_TmC-qCq4zahsk-QRw7_lg=", "properties": {"ref": "2072", "@spider": "whsmith_uk", "addr:full": "Cameron Toll Shopping Centre", "addr:city": "Edinburgh", "addr:postcode": "EH16 5PE", "addr:country": "GB", "name": "WHSmith, Cameron Toll Shopping Centre, Edinburgh", "phone": "0131 672 3777", "website": "https://www.whsmith.co.uk/stores/details/?StoreID=2072", "opening_hours": "Mo-Sa 08:00-18:30; Su 10:30-18:00"}, "geometry": {"type": "Point", "coordinates": [-3.163784, 55.92716]}},
{"type": "Feature", "id": "i_WYexE_6XsK9Cjj_cTiQgWfT8U=", "properties": {"ref": "2088", "@spider": "whsmith_uk", "addr:full": "19 St George Street", "addr:city": "Canterbury", "addr:postcode": "CT1 2LB", "addr:country": "GB", "name": "WHSmith, St George Street, Canterbury", "phone": "01227 766129", "website": "https://www.whsmith.co.uk/stores/details/?StoreID=2088", "opening_hours": "Mo-Sa 08:00-18:30; Su 10:30-18:00"}, "geometry": {"type": "Point", "coordinates": [1.082285, 51.278008]}},
{"type": "Feature", "id": "Ndr44bBqBCz9Bt7QwGPTcJiuHOU=", "properties": {"ref": "2092", "@spider": "whsmith_uk", "addr:full": "13 Market Place", "addr:city": "Cannock", "addr:postcode": "WS11 1BS", "addr:country": "GB", "name": "WHSmith, Market Place, Cannock", "phone": "01543 579960", "website": "https://www.whsmith.co.uk/stores/details/?StoreID=2092", "opening_hours": "Mo-Sa 08:00-18:30; Su 10:30-18:00"}, "geometry": {"type": "Point", "coordinates": [-2.030389, 52.688662]}},
{"type": "Feature", "id": "MONjq6y_QTpONBNlP0BFvYCWGpk=", "properties": {"ref": "2106", "@spider": "whsmith_uk", "addr:full": "83 - 85 Queen Street", "addr:city": "Cardiff", "addr:postcode": "CF10 2NX", "addr:country": "GB", "name": "WHSmith, Queen Street, Cardiff", "phone": "029 2039 0088", "website": "https://www.whsmith.co.uk/stores/details/?StoreID=2106", "opening_hours": "Mo-Sa 08:00-18:30; Su 10:30-18:00"}, "geometry": {"type": "Point", "coordinates": [-3.174747, 51.482589]}},
{"type": "Feature", "id": "ucdLluuN3oeYjwwyan1ikgDvYkA=", "properties": {"ref": "2114", "@spider": "whsmith_uk", "addr:full": "18 High Street", "addr:city": "Cardigan", "addr:postcode": "SA43 1JJ", "addr:country": "GB", "name": "WHSmith, High Street, Cardigan", "phone": "01239 612749", "website": "https://www.whsmith.co.uk/stores/details/?StoreID=2114", "opening_hours": "Mo-Sa 08:00-18:30; Su 10:30-18:00"}, "geometry": {"type": "Point", "coordinates": [-4.661127, 52.083172]}},
{"type": "Feature", "id": "YN7vNWEOZwohtuN2zyviaC0u1sg=", "properties": {"ref": "2122", "@spider": "whsmith_uk", "addr:full": "51 - 53 English Street", "addr:city": "Carlisle", "addr:postcode": "CA3 8JY", "addr:country": "GB", "name": "WHSmith, English Street, Carlisle", "phone": "01228 524980", "website": "https://www.whsmith.co.uk/stores/details/?StoreID=2122", "opening_hours": "Mo-Sa 08:00-18:30; Su 10:30-18:00"}, "geometry": {"type": "Point", "coordinates": [-2.934422, 54.89331]}},
{"type": "Feature", "id": "FDUhPpNYbtu2NnCfKQpS0PV5D6Y=", "properties": {"ref": "2130", "@spider": "whsmith_uk", "addr:full": "7 - 8 Guildhall Square", "addr:city": "Carmarthen", "addr:postcode": "SA31 1PN", "addr:country": "GB", "name": "WHSmith, Guildhall Square, Carmarthen", "phone": "01267 236584", "website": "https://www.whsmith.co.uk/stores/details/?StoreID=2130", "opening_hours": "Mo-Sa 08:00-18:30; Su 10:30-18:00"}, "geometry": {"type": "Point", "coordinates": [-4.307507, 51.856367]}},
{"type": "Feature", "id": "AWNensyYxWM1Ispq5gL3MqrbasQ=", "properties": {"ref": "2154", "@spider": "whsmith_uk", "addr:full": "16 Church Walk", "addr:city": "Caterham", "addr:postcode": "CR3 6RT", "addr:country": "GB", "name": "WHSmith, Church Walk, Caterham", "phone": "01883 341611", "website": "https://www.whsmith.co.uk/stores/details/?StoreID=2154", "opening_hours": "Mo-Sa 08:00-18:30; Su 10:30-18:00"}, "geometry": {"type": "Point", "coordinates": [-0.077008, 51.281728]}},
{"type": "Feature", "id": "dM0YYxKAU2kD520Bq5KLAa6acP4=", "properties": {"ref": "2155", "@spider": "whsmith_uk", "addr:full": "Main Terminal Building", "addr:city": "Cardiff", "addr:postcode": "CF62 3BD", "addr:country": "GB", "name": "WHSmith, Airside, Cardiff International Airport ", "phone": "01446 712603", "website": "https://www.whsmith.co.uk/stores/details/?StoreID=2155", "opening_hours": "Mo-Sa 08:00-18:30; Su 10:30-18:00"}, "geometry": {"type": "Point", "coordinates": [-3.339093, 51.398523]}},
{"type": "Feature", "id": "wyHscLeyQImuCiwnOKkrd3V1SZo=", "properties": {"ref": "2195", "@spider": "whsmith_uk", "addr:full": "London Cannon Street Railway Station", "addr:city": "London", "addr:postcode": "EC4N 6AP", "addr:country": "GB", "name": "WHSmith, Cannon Street Railway Station, London", "phone": "020 7283 0035", "website": "https://www.whsmith.co.uk/stores/details/?StoreID=2195", "opening_hours": "Mo-Sa 08:00-18:30; Su 10:30-18:00"}, "geometry": {"type": "Point", "coordinates": [-0.089427, 51.511595]}},
{"type": "Feature", "id": "oKynYA2tCrppLPEEoj1woByw3K8=", "properties": {"ref": "2201", "@spider": "whsmith_uk", "addr:full": "Canary Wharf Underground Station", "addr:city": "Canary Wharf", "addr:postcode": "E14 4QS", "addr:country": "GB", "name": "WHSmith, Canary Wharf Underground Station, London", "phone": "020 7519 6664", "website": "https://www.whsmith.co.uk/stores/details/?StoreID=2201", "opening_hours": "Mo-Sa 08:00-18:30; Su 10:30-18:00"}, "geometry": {"type": "Point", "coordinates": [-0.021603, 51.505155]}},
{"type": "Feature", "id": "mOxcKrdHryQb7N8BshMYzLyZzvk=", "properties": {"ref": "2215", "@spider": "whsmith_uk", "addr:full": "Platform 5 - 6 ", "addr:city": "London", "addr:postcode": "WC2N 5HS", "addr:country": "GB", "name": "WHSmith, Charing Cross Railway Station, London", "phone": "020 7839 4213", "website": "https://www.whsmith.co.uk/stores/details/?StoreID=2215", "opening_hours": "Mo-Sa 08:00-18:30; Su 10:30-18:00"}, "geometry": {"type": "Point", "coordinates": [-0.125098, 51.507995]}},
{"type": "Feature", "id": "mNu7XPBV3PRBdMLWT6goQbUTiWM=", "properties": {"ref": "2236", "@spider": "whsmith_uk", "addr:full": "4 Station Way", "addr:city": "Cheam", "addr:postcode": "SM3 8SW", "addr:country": "GB", "name": "WHSmith, Station Way, Cheam", "phone": "020 8643 5848", "website": "https://www.whsmith.co.uk/stores/details/?StoreID=2236", "opening_hours": "Mo-Sa 08:00-18:30; Su 10:30-18:00"}, "geometry": {"type": "Point", "coordinates": [-0.216406, 51.357623]}},
{"type": "Feature", "id": "dJRCSsvwjEdqldSsSqCZvOAxeHo=", "properties": {"ref": "2250", "@spider": "whsmith_uk", "addr:full": "73 - 75 High Street", "addr:city": "Chelmsford", "addr:postcode": "CM1 1EJ", "addr:country": "GB", "name": "WHSmith, High Street, Chelmsford", "phone": "01245 265686", "website": "https://www.whsmith.co.uk/stores/details/?StoreID=2250", "opening_hours": "Mo-Sa 08:00-18:30; Su 10:30-18:00"}, "geometry": {"type": "Point", "coordinates": [0.474171, 51.733097]}},
{"type": "Feature", "id": "aj3WXysBXwDNJh2gknk9ui3A3xM=", "properties": {"ref": "2253", "@spider": "whsmith_uk", "addr:full": "St Peters Hospital", "addr:city": "Chertsey ", "addr:postcode": "KT16 0PZ", "addr:country": "GB", "name": "WHSmith, St Peters Hospital, Chertsey Surrey", "phone": "01932 722339", "website": "https://www.whsmith.co.uk/stores/details/?StoreID=2253", "opening_hours": "Mo-Sa 08:00-18:30; Su 10:30-18:00"}, "geometry": {"type": "Point", "coordinates": [-0.526852, 51.377102]}},
{"type": "Feature", "id": "yllEDJ4e8p8YsllgQ7AkLNn98ro=", "properties": {"ref": "2251", "@spider": "whsmith_uk", "addr:full": "Chelmsford Railway Station", "addr:city": "Chelmsford", "addr:postcode": "CM1 1HT", "addr:country": "GB", "name": "WHSmith, Chelmsford Railway Station", "phone": "01245 266955", "website": "https://www.whsmith.co.uk/stores/details/?StoreID=2251", "opening_hours": "Mo-Sa 08:00-18:30; Su 10:30-18:00"}, "geometry": {"type": "Point", "coordinates": [0.468788, 51.736343]}},
{"type": "Feature", "id": "QRRQE0PLRb01UtoD5EEpP5ZtiIQ=", "properties": {"ref": "2262", "@spider": "whsmith_uk", "addr:full": "79 - 81 High Street", "addr:city": "Chesham", "addr:postcode": "HP5 1BX", "addr:country": "GB", "name": "WHSmith, High Street, Chesham", "phone": "01494 792084", "website": "https://www.whsmith.co.uk/stores/details/?StoreID=2262", "opening_hours": "Mo-Sa 08:00-18:30; Su 10:30-18:00"}, "geometry": {"type": "Point", "coordinates": [-0.611915, 51.706077]}},
{"type": "Feature", "id": "o3Ilm6r5mdgvIdohtS2kWaHxpHA=", "properties": {"ref": "2258", "@spider": "whsmith_uk", "addr:full": "192 - 194 High Street", "addr:city": "Cheltenham", "addr:postcode": "GL50 1EP", "addr:country": "GB", "name": "WHSmith, High Street, Cheltenham", "phone": "01242 584086", "website": "https://www.whsmith.co.uk/stores/details/?StoreID=2258", "opening_hours": "Mo-Sa 08:00-18:30; Su 10:30-18:00"}, "geometry": {"type": "Point", "coordinates": [-2.074672, 51.900651]}},
{"type": "Feature", "id": "s2poIMWPo0HgwxJ_A4-BLLDHcQY=", "properties": {"ref": "2274", "@spider": "whsmith_uk", "addr:full": "16 High Street", "addr:city": "Chepstow", "addr:postcode": "NP16 5LQ", "addr:country": "GB", "name": "WHSmith, High Street, Chepstow", "phone": "01291 627879", "website": "https://www.whsmith.co.uk/stores/details/?StoreID=2274", "opening_hours": "Mo-Sa 08:00-18:30; Su 10:30-18:00"}, "geometry": {"type": "Point", "coordinates": [-2.675392, 51.641548]}},
{"type": "Feature", "id": "3ObomhoAZoccJbFUDbauKcRZstc=", "properties": {"ref": "2272", "@spider": "whsmith_uk", "addr:full": "4 Middle Pavement", "addr:city": "Chesterfield", "addr:postcode": "S40 1PA", "addr:country": "GB", "name": "WHSmith, Middle Pavement, Chesterfield", "phone": "01246 206774", "website": "https://www.whsmith.co.uk/stores/details/?StoreID=2272", "opening_hours": "Mo-Sa 08:00-18:30; Su 10:30-18:00"}, "geometry": {"type": "Point", "coordinates": [-1.429285, 53.23491]}},
{"type": "Feature", "id": "bm7zLJckaVyZtvAsQ8WFZHtsso8=", "properties": {"ref": "2292", "@spider": "whsmith_uk", "addr:full": "5 - 7 Foregate Street", "addr:city": "Chester", "addr:postcode": "CH1 1HH", "addr:country": "GB", "name": "WHSmith, Foregate Street, Chester", "phone": "01244 321106", "website": "https://www.whsmith.co.uk/stores/details/?StoreID=2292", "opening_hours": "Mo-Sa 08:00-18:30; Su 10:30-18:00"}, "geometry": {"type": "Point", "coordinates": [-2.88861, 53.191152]}},
{"type": "Feature", "id": "yN-Bo6oTP9R7GXW8q5O0aOM9S1Q=", "properties": {"ref": "2300", "@spider": "whsmith_uk", "addr:full": "9 North Street", "addr:city": "Chichester", "addr:postcode": "PO19 1LB", "addr:country": "GB", "name": "British Bookshop & Stationers, 9 North Street, Chichester", "phone": "01243 778797", "website": "https://www.whsmith.co.uk/stores/details/?StoreID=2300", "opening_hours": "Mo-Sa 08:00-18:30; Su 10:30-18:00"}, "geometry": {"type": "Point", "coordinates": [-0.778833, 50.837357]}},
{"type": "Feature", "id": "ZByH0C8FjBP9ATHTWZ2117MResQ=", "properties": {"ref": "2302", "@spider": "whsmith_uk", "addr:full": "16 North Street", "addr:city": "Chichester", "addr:postcode": "PO19 1LF", "addr:country": "GB", "name": "WHSmith, 16 North Street, Chichester", "phone": "01243 782013", "website": "https://www.whsmith.co.uk/stores/details/?StoreID=2302", "opening_hours": "Mo-Sa 08:00-18:30; Su 10:30-18:00"}, "geometry": {"type": "Point", "coordinates": [-0.778785, 50.837485]}},
{"type": "Feature", "id": "zy51hB4G_7ihZaG7EFsHj7X1Szo=", "properties": {"ref": "2318", "@spider": "whsmith_uk", "addr:full": "2 The High Street", "addr:city": "Chippenham", "addr:postcode": "SN15 3EP", "addr:country": "GB", "name": "WHSmith, The High Street, Chippenham", "phone": "01249 656856", "website": "https://www.whsmith.co.uk/stores/details/?StoreID=2318", "opening_hours": "Mo-Sa 08:00-18:30; Su 10:30-18:00"}, "geometry": {"type": "Point", "coordinates": [-2.116397, 51.458927]}},
{"type": "Feature", "id": "ajLgx_YHMM5JK1z9ZzUxZoRtw-A=", "properties": {"ref": "2324", "@spider": "whsmith_uk", "addr:full": "10 -14 High Street", "addr:city": "Chipping Norton", "addr:postcode": "OX7 5AD", "addr:country": "GB", "name": "WHSmith, High Street, Chipping Norton", "phone": "01608 645099", "website": "https://www.whsmith.co.uk/stores/details/?StoreID=2324", "opening_hours": "Mo-Sa 08:00-18:30; Su 10:30-18:00"}, "geometry": {"type": "Point", "coordinates": [-1.544864, 51.941981]}},
{"type": "Feature", "id": "249lP9B76yyX91vJxt0GAMX2amU=", "properties": {"ref": "2336", "@spider": "whsmith_uk", "addr:full": "Saxon Square Shopping Centre", "addr:city": "Christchurch", "addr:postcode": "BH23 1QA", "addr:country": "GB", "name": "WHSmith, Saxon Square Shopping Centre, Christchurch", "phone": "01202 480788", "website": "https://www.whsmith.co.uk/stores/details/?StoreID=2336", "opening_hours": "Mo-Sa 08:00-18:30; Su 10:30-18:00"}, "geometry": {"type": "Point", "coordinates": [-1.777728, 50.735565]}},
{"type": "Feature", "id": "DGIXS5EtiWWJvJt9LMi3T5gkewI=", "properties": {"ref": "2360", "@spider": "whsmith_uk", "addr:full": "19 - 21 Castle Street", "addr:city": "Cirencester", "addr:postcode": "GL7 1QD", "addr:country": "GB", "name": "WHSmith, Castle Street, Cirencester", "phone": "01285 651502", "website": "https://www.whsmith.co.uk/stores/details/?StoreID=2360", "opening_hours": "Mo-Sa 08:00-18:30; Su 10:30-18:00"}, "geometry": {"type": "Point", "coordinates": [-1.969511, 51.716721]}},
{"type": "Feature", "id": "V_C3x0tB2tO7DzhzzIacIqrg0EI=", "properties": {"ref": "2364", "@spider": "whsmith_uk", "addr:full": "51 Pier Avenue", "addr:city": "Clacton-On-Sea", "addr:postcode": "CO15 1QQ", "addr:country": "GB", "name": "WHSmith, Pier Avenue, Clacton On Sea", "phone": "01255 423295", "website": "https://www.whsmith.co.uk/stores/details/?StoreID=2364", "opening_hours": "Mo-Sa 08:00-18:30; Su 10:30-18:00"}, "geometry": {"type": "Point", "coordinates": [1.152018, 51.78906]}},
{"type": "Feature", "id": "mq6rgTvjv_83JRhQLcFAkF-Chjc=", "properties": {"ref": "2372", "@spider": "whsmith_uk", "addr:full": "155 - 157 High Street", "addr:city": "London", "addr:postcode": "SW4 7SS", "addr:country": "GB", "name": "WHSmith, High Street, London", "phone": "020 7720 6702", "website": "https://www.whsmith.co.uk/stores/details/?StoreID=2372", "opening_hours": "Mo-Sa 08:00-18:30; Su 10:30-18:00"}, "geometry": {"type": "Point", "coordinates": [-0.13634, 51.46217]}},
{"type": "Feature", "id": "aKMffUbvnOaYoVh0axgIU5rW4ss=", "properties": {"ref": "2401", "@spider": "whsmith_uk", "addr:full": "Clapham Junction Railway Station", "addr:city": "St John's Hill", "addr:postcode": "SW11 1TT", "addr:country": "GB", "name": "WHSmith, Clapham Junction Railway Station, London", "phone": "020 7228 8980", "website": "https://www.whsmith.co.uk/stores/details/?StoreID=2401", "opening_hours": "Mo-Sa 08:00-18:30; Su 10:30-18:00"}, "geometry": {"type": "Point", "coordinates": [-0.17028, 51.46419]}},
{"type": "Feature", "id": "De2qK0Zv0iwmluntuFErpsN-K3Q=", "properties": {"ref": "2410", "@spider": "whsmith_uk", "addr:full": "19 The Triangle", "addr:city": "Clevedon", "addr:postcode": "BS21 6NQ", "addr:country": "GB", "name": "WHSmith, The Triangle, Clevedon", "phone": "01275 872479", "website": "https://www.whsmith.co.uk/stores/details/?StoreID=2410", "opening_hours": "Mo-Sa 08:00-18:30; Su 10:30-18:00"}, "geometry": {"type": "Point", "coordinates": [-2.852445, 51.436019]}},
{"type": "Feature", "id": "YrDK7X--6MR0zajx0HjYQKPQFSk=", "properties": {"ref": "2416", "@spider": "whsmith_uk", "addr:full": "31 - 33 Victoria Road West", "addr:city": "Cleveleys", "addr:postcode": "FY5 1BS", "addr:country": "GB", "name": "WHSmith, Victoria Road West, Cleveleys", "phone": "01253 865300", "website": "https://www.whsmith.co.uk/stores/details/?StoreID=2416", "opening_hours": "Mo-Sa 08:00-18:30; Su 10:30-18:00"}, "geometry": {"type": "Point", "coordinates": [-3.044576, 53.877889]}},
{"type": "Feature", "id": "jkeDVsImXG25cE9Il0qXOMIPsyg=", "properties": {"ref": "2424", "@spider": "whsmith_uk", "addr:full": "24 Clifton Down Shopping Centre", "addr:city": "Bristol ", "addr:postcode": "BS8 2NN", "addr:country": "GB", "name": "WHSmith, Clifton Down Shopping Centre, Bristol", "phone": "0117 973 5063", "website": "https://www.whsmith.co.uk/stores/details/?StoreID=2424", "opening_hours": "Mo-Sa 08:00-18:30; Su 10:30-18:00"}, "geometry": {"type": "Point", "coordinates": [-2.609915, 51.464532]}},
{"type": "Feature", "id": "e4FRCsG8yHo_7TL-EKWD3AAX3uk=", "properties": {"ref": "2428", "@spider": "whsmith_uk", "addr:full": "39 Castle Street", "addr:city": "Clitheroe ", "addr:postcode": "BB7 2BT", "addr:country": "GB", "name": "WHSmith, Castle Street, Clitheroe", "phone": "01200 429905", "website": "https://www.whsmith.co.uk/stores/details/?StoreID=2428", "opening_hours": "Mo-Sa 08:00-18:30; Su 10:30-18:00"}, "geometry": {"type": "Point", "coordinates": [-2.391441, 53.872385]}},
{"type": "Feature", "id": "oQAt2XVNrWzGoWATvKvN5eomsGY=", "properties": {"ref": "2449", "@spider": "whsmith_uk", "addr:full": "M25 Junction 9/10 Services", "addr:city": "Cobham ", "addr:postcode": "KT11 3DB", "addr:country": "GB", "name": "WHSmith, Motorway Services, M25 Junction 9/10, Cobham ", "phone": "01932 584851", "website": "https://www.whsmith.co.uk/stores/details/?StoreID=2449", "opening_hours": "Mo-Sa 08:00-18:30; Su 10:30-18:00"}, "geometry": {"type": "Point", "coordinates": [-0.405752, 51.304695]}},
{"type": "Feature", "id": "nYpJOiz5HlDeNM31t7sT8FjhCAk=", "properties": {"ref": "2456", "@spider": "whsmith_uk", "addr:full": "Lion Walk Shopping Centre", "addr:city": "Colchester ", "addr:postcode": "CO1 1LX", "addr:country": "GB", "name": "WHSmith, Lion Walk Shopping Centre, Colchester", "phone": "01206 572688", "website": "https://www.whsmith.co.uk/stores/details/?StoreID=2456", "opening_hours": "Mo-Sa 08:00-18:30; Su 10:30-18:00"}, "geometry": {"type": "Point", "coordinates": [0.900724, 51.88829]}},
{"type": "Feature", "id": "RvHB-tvfLDuHTFZsBn19Yub0ZWU=", "properties": {"ref": "2464", "@spider": "whsmith_uk", "addr:full": "Tandem Centre Colliers Wood", "addr:city": "Merton ", "addr:postcode": "SW19 2TY", "addr:country": "GB", "name": "WHSmith, Tandem Centre Colliers Wood, London", "phone": "020 8640 4592", "website": "https://www.whsmith.co.uk/stores/details/?StoreID=2464", "opening_hours": "Mo-Sa 08:00-18:30; Su 10:30-18:00"}, "geometry": {"type": "Point", "coordinates": [-0.177122, 51.413815]}},
{"type": "Feature", "id": "c9hRhJBv6D0RTnxmViu1qjHbhpE=", "properties": {"ref": "2470", "@spider": "whsmith_uk", "addr:full": "Queen's Buildings", "addr:city": "Colwyn Bay ", "addr:postcode": "LL29 8BU", "addr:country": "GB", "name": "WHSmith, Queens Buildings, Colwyn Bay", "phone": "01492 532526", "website": "https://www.whsmith.co.uk/stores/details/?StoreID=2470", "opening_hours": "Mo-Sa 08:00-18:30; Su 10:30-18:00"}, "geometry": {"type": "Point", "coordinates": [-3.726511, 53.296273]}},
{"type": "Feature", "id": "PZDm5zP19yFo-IssLJy3NwubIrw=", "properties": {"ref": "2476", "@spider": "whsmith_uk", "addr:full": "39 - 41 High Street", "addr:city": "Congleton ", "addr:postcode": "CW12 1AU", "addr:country": "GB", "name": "WHSmith, High Street, Congleton", "phone": "01260 278302", "website": "https://www.whsmith.co.uk/stores/details/?StoreID=2476", "opening_hours": "Mo-Sa 08:00-18:30; Su 10:30-18:00"}, "geometry": {"type": "Point", "coordinates": [-2.212991, 53.163274]}},
{"type": "Feature", "id": "Hdd0srMG_QwvHbIsEZWwHNQ81bg=", "properties": {"ref": "2480", "@spider": "whsmith_uk", "addr:full": "Willow Place", "addr:city": "Corby ", "addr:postcode": "NN17 1BH", "addr:country": "GB", "name": "WHSmith, Willow Place, Corby", "phone": "01536 267557", "website": "https://www.whsmith.co.uk/stores/details/?StoreID=2480", "opening_hours": "Mo-Sa 08:00-18:30; Su 10:30-18:00"}, "geometry": {"type": "Point", "coordinates": [-0.70186, 52.486715]}},
{"type": "Feature", "id": "YjQeSw4WQISOScGg7eIoQNKHVTU=", "properties": {"ref": "2484", "@spider": "whsmith_uk", "addr:full": "48 High Street", "addr:city": "Portsmouth ", "addr:postcode": "PO6 3AG", "addr:country": "GB", "name": "WHSmith, High Street, Portsmouth", "phone": "023 9237 4082", "website": "https://www.whsmith.co.uk/stores/details/?StoreID=2484", "opening_hours": "Mo-Sa 08:00-18:30; Su 10:30-18:00"}, "geometry": {"type": "Point", "coordinates": [-1.067069, 50.844914]}},
{"type": "Feature", "id": "N4KQjFBgXHG3dWpZG8EVTE8Rk_4=", "properties": {"ref": "2490", "@spider": "whsmith_uk", "addr:full": "West Orchard Shopping Centre", "addr:city": "Coventry ", "addr:postcode": "CV1 1QS", "addr:country": "GB", "name": "WHSmith, Smithford Way, Coventry", "phone": "024 7622 1927", "website": "https://www.whsmith.co.uk/stores/details/?StoreID=2490", "opening_hours": "Mo-Sa 08:00-18:30; Su 10:30-18:00"}, "geometry": {"type": "Point", "coordinates": [-1.512326, 52.408997]}},
{"type": "Feature", "id": "7oSjJGn_GjaC0Ntfh_8ACA_xv84=", "properties": {"ref": "2506", "@spider": "whsmith_uk", "addr:full": "102 High Street", "addr:city": "Cranleigh ", "addr:postcode": "GU6 8AJ", "addr:country": "GB", "name": "WHSmith, High Street, Cranleigh", "phone": "01483 278283", "website": "https://www.whsmith.co.uk/stores/details/?StoreID=2506", "opening_hours": "Mo-Sa 08:00-18:30; Su 10:30-18:00"}, "geometry": {"type": "Point", "coordinates": [-0.489909, 51.141278]}},
{"type": "Feature", "id": "K7n8CYb1Lgg8L-F4a53WcPSMrl4=", "properties": {"ref": "2507", "@spider": "whsmith_uk", "addr:full": "St Davids Railway Station", "addr:city": "Exeter ", "addr:postcode": "EX4 4NT", "addr:country": "GB", "name": "WHSmith, St Davids Railway Station, Exeter", "phone": "01392 271085", "website": "https://www.whsmith.co.uk/stores/details/?StoreID=2507", "opening_hours": "Mo-Sa 08:00-18:30; Su 10:30-18:00"}, "geometry": {"type": "Point", "coordinates": [-3.543311, 50.729183]}},
{"type": "Feature", "id": "XfdrDdECvSTZeENNAdwsX9LnikY=", "properties": {"ref": "2511", "@spider": "whsmith_uk", "addr:full": "Cardiff Central Railway Station", "addr:city": "Cardiff", "addr:postcode": "CF10 1EP", "addr:country": "GB", "name": "WHSmith, Cardiff Central Railway Station", "phone": "029 2037 3998", "website": "https://www.whsmith.co.uk/stores/details/?StoreID=2511", "opening_hours": "Mo-Sa 08:00-18:30; Su 10:30-18:00"}, "geometry": {"type": "Point", "coordinates": [-3.17931, 51.47603]}},
{"type": "Feature", "id": "i04q1Roi22B7S5fuLWdc_uSPsqc=", "properties": {"ref": "2510", "@spider": "whsmith_uk", "addr:full": "23 - 24 County Mall", "addr:city": "Crawley ", "addr:postcode": "RH10 1FF", "addr:country": "GB", "name": "WHSmith, County Mall, Crawley", "phone": "01293 525422", "website": "https://www.whsmith.co.uk/stores/details/?StoreID=2510", "opening_hours": "Mo-Sa 08:00-18:30; Su 10:30-18:00"}, "geometry": {"type": "Point", "coordinates": [-0.185605, 51.11359]}},
{"type": "Feature", "id": "ZfLx-_uoIuM1cZKf03Y1H--kE4I=", "properties": {"ref": "2515", "@spider": "whsmith_uk", "addr:full": "Temple Meads Station", "addr:city": "Bristol", "addr:postcode": "BS1 6QS", "addr:country": "GB", "name": "WHSmith Main, Bristol Temple Meads Railway Station", "phone": "0117 930 4496", "website": "https://www.whsmith.co.uk/stores/details/?StoreID=2515", "opening_hours": "Mo-Sa 08:00-18:30; Su 10:30-18:00"}, "geometry": {"type": "Point", "coordinates": [-2.580913, 51.449568]}},
{"type": "Feature", "id": "Iw2oD4sz2L6YKbfx0HSfMt3Tum0=", "properties": {"ref": "2514", "@spider": "whsmith_uk", "addr:full": "The Mall at Cribbs Causeway", "addr:city": "Bristol ", "addr:postcode": "BS34 5GF", "addr:country": "GB", "name": "WHSmith, The Mall at Cribbs Causeway, Bristol", "phone": "0117 950 9525", "website": "https://www.whsmith.co.uk/stores/details/?StoreID=2514", "opening_hours": "Mo-Sa 08:00-18:30; Su 10:30-18:00"}, "geometry": {"type": "Point", "coordinates": [-2.595357, 51.525159]}},
{"type": "Feature", "id": "R7dEfIQT_zqsESVOP_m3AszbR28=", "properties": {"ref": "2513", "@spider": "whsmith_uk", "addr:full": "Royal Cornwall Hospital", "addr:city": "Truro ", "addr:postcode": "TR1 3LJ", "addr:country": "GB", "name": "WHSmith, Royal Cornwall Hospital, Truro", "phone": "01872 271459", "website": "https://www.whsmith.co.uk/stores/details/?StoreID=2513", "opening_hours": "Mo-Sa 08:00-18:30; Su 10:30-18:00"}, "geometry": {"type": "Point", "coordinates": [-5.091515, 50.266231]}},
{"type": "Feature", "id": "OU9lFOsD-_07J6uKGCIfqcGy3ao=", "properties": {"ref": "2519", "@spider": "whsmith_uk", "addr:full": "Chester Railway Station", "addr:city": "Chester", "addr:postcode": "CH1 3DR", "addr:country": "GB", "name": "WHSmith, Chester Railway Station", "phone": "01244 318902", "website": "https://www.whsmith.co.uk/stores/details/?StoreID=2519", "opening_hours": "Mo-Sa 08:00-18:30; Su 10:30-18:00"}, "geometry": {"type": "Point", "coordinates": [-2.882416, 53.197132]}},
{"type": "Feature", "id": "pLoG4DKA5f0whhIdibjJgB6p1y0=", "properties": {"ref": "2521", "@spider": "whsmith_uk", "addr:full": "Crewe Railway Station", "addr:city": "Crewe ", "addr:postcode": "CW2 6HU", "addr:country": "GB", "name": "WHSmith Main, Crewe Railway Station", "phone": "01270 219306", "website": "https://www.whsmith.co.uk/stores/details/?StoreID=2521", "opening_hours": "Mo-Sa 08:00-18:30; Su 10:30-18:00"}, "geometry": {"type": "Point", "coordinates": [-2.430664, 53.087929]}},
{"type": "Feature", "id": "_HoYXGN7300Y-2aaJbfV3efpL9k=", "properties": {"ref": "2522", "@spider": "whsmith_uk", "addr:full": "Coventry Railway Station", "addr:city": "Station Square ", "addr:postcode": "CV1 2GT", "addr:country": "GB", "name": "WHSmith, Coventry Railway Station", "phone": "024 7663 2682", "website": "https://www.whsmith.co.uk/stores/details/?StoreID=2522", "opening_hours": "Mo-Sa 08:00-18:30; Su 10:30-18:00"}, "geometry": {"type": "Point", "coordinates": [-1.51346, 52.40083]}},
{"type": "Feature", "id": "rjWilicp-M_qFbltfyrcIT_r8fk=", "properties": {"ref": "2520", "@spider": "whsmith_uk", "addr:full": "13 Victoria Shopping Centre", "addr:city": "Crewe ", "addr:postcode": "CW1 2PU", "addr:country": "GB", "name": "WHSmith, Victoria Centre, Crewe", "phone": "01270 215714", "website": "https://www.whsmith.co.uk/stores/details/?StoreID=2520", "opening_hours": "Mo-Sa 08:00-18:30; Su 10:30-18:00"}, "geometry": {"type": "Point", "coordinates": [-2.442509, 53.099674]}},
{"type": "Feature", "id": "TO5nlwFjB3uyUiV6LoY2wqnpdUM=", "properties": {"ref": "2530", "@spider": "whsmith_uk", "addr:full": "Bristol Airport", "addr:city": "Bristol", "addr:postcode": "BS48 3DY", "addr:country": "GB", "name": "WHSmith, Airside, Bristol Airport ", "phone": "01275 473758", "website": "https://www.whsmith.co.uk/stores/details/?StoreID=2530", "opening_hours": "Mo-Sa 08:00-18:30; Su 10:30-18:00"}, "geometry": {"type": "Point", "coordinates": [-2.710935, 51.386339]}},
{"type": "Feature", "id": "kAKhpbWoHQKbetl1yvlDaohfh8g=", "properties": {"ref": "2544", "@spider": "whsmith_uk", "addr:full": "Lime Street Railway Station", "addr:city": "Liverpool ", "addr:postcode": "L1 1JD", "addr:country": "GB", "name": "WHSmith, Lime Street Railway Station, Liverpool", "phone": "0151 708 7649", "website": "https://www.whsmith.co.uk/stores/details/?StoreID=2544", "opening_hours": "Mo-Sa 08:00-18:30; Su 10:30-18:00"}, "geometry": {"type": "Point", "coordinates": [-2.978765, 53.407428]}},
{"type": "Feature", "id": "I_w_3iwvRBy2uPQrL6lB5Mj8ZOA=", "properties": {"ref": "2543", "@spider": "whsmith_uk", "addr:full": "Royal Liverpool Hospital", "addr:city": "Liverpool ", "addr:postcode": "L7 8XP", "addr:country": "GB", "name": "WHSmith, Royal Liverpool Hospital", "phone": "0151 706 5610", "website": "https://www.whsmith.co.uk/stores/details/?StoreID=2543", "opening_hours": "Mo-Sa 08:00-18:30; Su 10:30-18:00"}, "geometry": {"type": "Point", "coordinates": [-2.964721, 53.410203]}},
{"type": "Feature", "id": "saKUD-46L1-BGT8kt68fYQ2T1a0=", "properties": {"ref": "2550", "@spider": "whsmith_uk", "addr:full": "Manchester Piccadilly Railway Station", "addr:city": "Manchester ", "addr:postcode": "M1 2PA", "addr:country": "GB", "name": "WHSmith Main, Manchester Piccadilly Railway Station", "phone": "0161 236 3678", "website": "https://www.whsmith.co.uk/stores/details/?StoreID=2550", "opening_hours": "Mo-Sa 08:00-18:30; Su 10:30-18:00"}, "geometry": {"type": "Point", "coordinates": [-2.231314, 53.477569]}},
{"type": "Feature", "id": "Zfcskt7cSsU0vKZ950h1yVFG1Y8=", "properties": {"ref": "2552", "@spider": "whsmith_uk", "addr:full": "10 High Street", "addr:city": "Crowborough ", "addr:postcode": "TN6 2QA", "addr:country": "GB", "name": "WHSmith, High Street, Crowborough", "phone": "01892 661765", "website": "https://www.whsmith.co.uk/stores/details/?StoreID=2552", "opening_hours": "Mo-Sa 08:00-18:30; Su 10:30-18:00"}, "geometry": {"type": "Point", "coordinates": [0.161903, 51.060085]}},
{"type": "Feature", "id": "JkTO61NOp6vmnJ5j931AuPxUrCU=", "properties": {"ref": "2554", "@spider": "whsmith_uk", "addr:full": "9A High Street", "addr:city": "Crowborough ", "addr:postcode": "TN6 2QA", "addr:country": "GB", "name": "British Bookshop & Stationers, High Street, Crowborough", "phone": "01892 663366", "website": "https://www.whsmith.co.uk/stores/details/?StoreID=2554", "opening_hours": "Mo-Sa 08:00-18:30; Su 10:30-18:00"}, "geometry": {"type": "Point", "coordinates": [0.161903, 51.060085]}},
{"type": "Feature", "id": "PCn7q2Fe0UjZR6z7LS4ALzEiCyc=", "properties": {"ref": "2555", "@spider": "whsmith_uk", "addr:full": "Newport Railway Station", "addr:city": "Newport ", "addr:postcode": "NP20 4AX", "addr:country": "GB", "name": "WHSmith, Newport Railway Station", "phone": "01633 216219", "website": "https://www.whsmith.co.uk/stores/details/?StoreID=2555", "opening_hours": "Mo-Sa 08:00-18:30; Su 10:30-18:00"}, "geometry": {"type": "Point", "coordinates": [-2.998661, 51.589593]}},
{"type": "Feature", "id": "EDdhqev2BVVlFeSaSrGEDf3zN5g=", "properties": {"ref": "2564", "@spider": "whsmith_uk", "addr:full": "Paddington Station", "addr:city": "London ", "addr:postcode": "W2 1HB", "addr:country": "GB", "name": "WHSmith Main, Paddington Railway Station, London", "phone": "020 7723 3266", "website": "https://www.whsmith.co.uk/stores/details/?StoreID=2564", "opening_hours": "Mo-Sa 08:00-18:30; Su 10:30-18:00"}, "geometry": {"type": "Point", "coordinates": [-0.1761, 51.516319]}},
{"type": "Feature", "id": "xzDo-zkixm6M6qd0UXL5MlLP4dk=", "properties": {"ref": "2566", "@spider": "whsmith_uk", "addr:full": "34 North End", "addr:city": "Croydon ", "addr:postcode": "CR0 1UB", "addr:country": "GB", "name": "WHSmith, North End, Croydon", "phone": "020 8688 5211", "website": "https://www.whsmith.co.uk/stores/details/?StoreID=2566", "opening_hours": "Mo-Sa 08:00-18:30; Su 10:30-18:00"}, "geometry": {"type": "Point", "coordinates": [-0.100195, 51.374044]}},
{"type": "Feature", "id": "A-mw5izHlT-TyLN5JV493Ud0yYo=", "properties": {"ref": "2567", "@spider": "whsmith_uk", "addr:full": "Selfridges and Co", "addr:city": "London ", "addr:postcode": "W1A 1AB", "addr:country": "GB", "name": "WHSmith, Selfridges, Oxford St, London", "phone": "020 7318 3679", "website": "https://www.whsmith.co.uk/stores/details/?StoreID=2567", "opening_hours": "Mo-Sa 08:00-18:30; Su 10:30-18:00"}, "geometry": {"type": "Point", "coordinates": [-0.144634, 51.514833]}},
{"type": "Feature", "id": "CmbT3t4m54C6yGViX1gHzp85UYw=", "properties": {"ref": "2573", "@spider": "whsmith_uk", "addr:full": "M5 Junction 28 Services", "addr:city": "Cullompton ", "addr:postcode": "EX15 1NS", "addr:country": "GB", "name": "WHSmith, Motorway Services, M5 Junction 28, Cullompton", "phone": "01884 38908", "website": "https://www.whsmith.co.uk/stores/details/?StoreID=2573", "opening_hours": "Mo-Sa 08:00-18:30; Su 10:30-18:00"}, "geometry": {"type": "Point", "coordinates": [-3.384299, 50.863092]}},
{"type": "Feature", "id": "t9Ai3EZ9lMtfunuMFq_l2ahySU4=", "properties": {"ref": "2560", "@spider": "whsmith_uk", "addr:full": "Oxford Station Railway Station", "addr:city": "Oxford ", "addr:postcode": "OX1 1HS", "addr:country": "GB", "name": "WHSmith, Oxford Railway Station", "phone": "01865 728744", "website": "https://www.whsmith.co.uk/stores/details/?StoreID=2560", "opening_hours": "Mo-Sa 08:00-18:30; Su 10:30-18:00"}, "geometry": {"type": "Point", "coordinates": [-1.269889, 51.753337]}},
{"type": "Feature", "id": "KVDFmQi5JBRgTSzCjmfLjPQwmt0=", "properties": {"ref": "2580", "@spider": "whsmith_uk", "addr:full": "Reading Railway Station", "addr:city": "Reading ", "addr:postcode": "RG1 1LY", "addr:country": "GB", "name": "WHSmith Main, Reading Railway Station", "phone": "0118 957 4528", "website": "https://www.whsmith.co.uk/stores/details/?StoreID=2580", "opening_hours": "Mo-Sa 08:00-18:30; Su 10:30-18:00"}, "geometry": {"type": "Point", "coordinates": [-0.971958, 51.458625]}},
{"type": "Feature", "id": "hI2edibqppmZ2-Agvn1eTu7QgWM=", "properties": {"ref": "2581", "@spider": "whsmith_uk", "addr:full": "Croydon East Railway Station", "addr:city": "Croydon ", "addr:postcode": "CR0 1LF", "addr:country": "GB", "name": "WHSmith, Croydon East Railway Station", "phone": "020 8686 1296", "website": "https://www.whsmith.co.uk/stores/details/?StoreID=2581", "opening_hours": "Mo-Sa 08:00-18:30; Su 10:30-18:00"}, "geometry": {"type": "Point", "coordinates": [-0.09872, 51.37397]}},
{"type": "Feature", "id": "uAO7i1gM87Yw01N6BhFsiMXJBoY=", "properties": {"ref": "2585", "@spider": "whsmith_uk", "addr:full": "Stafford Railway Station ", "addr:city": "Stafford ", "addr:postcode": "ST16 2AA", "addr:country": "GB", "name": "WHSmith, Stafford Railway Station", "phone": "01785 252598", "website": "https://www.whsmith.co.uk/stores/details/?StoreID=2585", "opening_hours": "Mo-Sa 08:00-18:30; Su 10:30-18:00"}, "geometry": {"type": "Point", "coordinates": [-2.121879, 52.803939]}},
{"type": "Feature", "id": "jndY1pDDWyyshv4EvUI4TXpB0no=", "properties": {"ref": "2586", "@spider": "whsmith_uk", "addr:full": "Stockport Railway Station", "addr:city": "Stockport ", "addr:postcode": "SK3 9HZ", "addr:country": "GB", "name": "WHSmith, Stockport Railway Station", "phone": "0161 476 4948", "website": "https://www.whsmith.co.uk/stores/details/?StoreID=2586", "opening_hours": "Mo-Sa 08:00-18:30; Su 10:30-18:00"}, "geometry": {"type": "Point", "coordinates": [-2.162402, 53.405717]}},
{"type": "Feature", "id": "TAWR2Z7_6R7cVNkMnac_gEKUnNY=", "properties": {"ref": "2587", "@spider": "whsmith_uk", "addr:full": "St Thomas Hospital", "addr:city": "London ", "addr:postcode": "SE1 7EH", "addr:country": "GB", "name": "WHSmith, St Thomas Hospital, London", "phone": "020 7928 0793", "website": "https://www.whsmith.co.uk/stores/details/?StoreID=2587", "opening_hours": "Mo-Sa 08:00-18:30; Su 10:30-18:00"}, "geometry": {"type": "Point", "coordinates": [-0.117888, 51.499359]}},